$GPGGA,225635.000,3101.6781,N,12125.7522,E,1,00,00028.744,M 
$GPGGA,225636.000,3101.6778,N,12125.7519,E,1,00,00028.744,M 
$GPGGA,225636.000,3101.6776,N,12125.7515,E,1,00,00012.720,M 
$GPGGA,225638.000,3101.6773,N,12125.7513,E,1,00,00012.720,M 
$GPGGA,225638.000,3101.6769,N,12125.7511,E,1,00,00008.942,M 
$GPGGA,225639.000,3101.6765,N,12125.7508,E,1,00,00008.942,M 
$GPGGA,225639.000,3101.6761,N,12125.7506,E,1,00,00006.072,M 
$GPGGA,225640.000,3101.6757,N,12125.7503,E,1,00,00006.072,M 
$GPGGA,225640.000,3101.6754,N,12125.7501,E,1,00,00006.072,M 
$GPGGA,225640.000,3101.6750,N,12125.7498,E,1,00,-0000.519,M 
$GPGGA,225642.000,3101.6747,N,12125.7496,E,1,00,-0000.519,M 
$GPGGA,225642.000,3101.6743,N,12125.7494,E,1,00,00002.167,M 
$GPGGA,225643.000,3101.6740,N,12125.7491,E,1,00,00002.167,M 
$GPGGA,225643.000,3101.6736,N,12125.7489,E,1,00,00003.391,M 
$GPGGA,225644.000,3101.6733,N,12125.7486,E,1,00,00003.391,M 
$GPGGA,225644.000,3101.6730,N,12125.7484,E,1,00,00005.550,M 
$GPGGA,225645.000,3101.6728,N,12125.7481,E,1,00,00005.550,M 
$GPGGA,225645.000,3101.6725,N,12125.7478,E,1,00,00005.574,M 
$GPGGA,225646.000,3101.6723,N,12125.7476,E,1,00,00006.495,M 
$GPGGA,225647.000,3101.6720,N,12125.7472,E,1,00,00006.495,M 
$GPGGA,225647.000,3101.6717,N,12125.7469,E,1,00,00006.288,M 
$GPGGA,225648.000,3101.6714,N,12125.7466,E,1,00,00006.288,M 
$GPGGA,225648.000,3101.6712,N,12125.7462,E,1,00,00006.288,M 
$GPGGA,225648.000,3101.6709,N,12125.7459,E,1,00,00006.288,M 
$GPGGA,225648.000,3101.6706,N,12125.7456,E,1,00,00007.360,M 
$GPGGA,225649.000,3101.6704,N,12125.7453,E,1,00,00007.360,M 
$GPGGA,225649.000,3101.6701,N,12125.7450,E,1,00,00008.846,M 
$GPGGA,225651.000,3101.6699,N,12125.7446,E,1,00,00008.846,M 
$GPGGA,225651.000,3101.6697,N,12125.7443,E,1,00,00008.846,M 
$GPGGA,225651.000,3101.6695,N,12125.7439,E,1,00,00008.080,M 
$GPGGA,225653.000,3101.6693,N,12125.7435,E,1,00,00008.080,M 
$GPGGA,225653.000,3101.6691,N,12125.7431,E,1,00,00009.274,M 
$GPGGA,225654.000,3101.6689,N,12125.7426,E,1,00,00009.274,M 
$GPGGA,225654.000,3101.6687,N,12125.7422,E,1,00,00009.274,M 
$GPGGA,225654.000,3101.6685,N,12125.7418,E,1,00,00009.274,M 
$GPGGA,225654.000,3101.6684,N,12125.7413,E,1,00,00008.863,M 
$GPGGA,225656.000,3101.6682,N,12125.7409,E,1,00,00008.728,M 
$GPGGA,225657.000,3101.6681,N,12125.7405,E,1,00,00008.728,M 
$GPGGA,225657.000,3101.6679,N,12125.7401,E,1,00,00009.495,M 
$GPGGA,225658.000,3101.6677,N,12125.7397,E,1,00,00009.495,M 
$GPGGA,225658.000,3101.6676,N,12125.7393,E,1,00,00009.362,M 
$GPGGA,225659.000,3101.6674,N,12125.7388,E,1,00,00009.362,M 
$GPGGA,225659.000,3101.6672,N,12125.7384,E,1,00,00008.712,M 
$GPGGA,225700.000,3101.6671,N,12125.7380,E,1,00,00010.831,M 
$GPGGA,225701.000,3101.6669,N,12125.7375,E,1,00,00010.832,M 
$GPGGA,225701.000,3101.6667,N,12125.7370,E,1,00,00011.328,M 
$GPGGA,225702.000,3101.6665,N,12125.7366,E,1,00,00011.328,M 
$GPGGA,225702.000,3101.6664,N,12125.7362,E,1,00,00010.003,M 
$GPGGA,225703.000,3101.6662,N,12125.7358,E,1,00,00010.003,M 
$GPGGA,225703.000,3101.6661,N,12125.7354,E,1,00,00008.477,M 
$GPGGA,225704.000,3101.6659,N,12125.7350,E,1,00,00008.477,M 
$GPGGA,225704.000,3101.6657,N,12125.7345,E,1,00,00008.609,M 
$GPGGA,225705.000,3101.6655,N,12125.7341,E,1,00,00009.792,M 
$GPGGA,225706.000,3101.6653,N,12125.7337,E,1,00,00009.792,M 
$GPGGA,225706.000,3101.6651,N,12125.7334,E,1,00,00008.663,M 
$GPGGA,225707.000,3101.6649,N,12125.7330,E,1,00,00008.663,M 
$GPGGA,225707.000,3101.6647,N,12125.7326,E,1,00,00007.897,M 
$GPGGA,225708.000,3101.6646,N,12125.7322,E,1,00,00007.897,M 
$GPGGA,225708.000,3101.6644,N,12125.7318,E,1,00,00007.604,M 
$GPGGA,225709.000,3101.6643,N,12125.7314,E,1,00,00006.985,M 
$GPGGA,225710.000,3101.6641,N,12125.7309,E,1,00,00006.985,M 
$GPGGA,225710.000,3101.6640,N,12125.7305,E,1,00,00007.533,M 
$GPGGA,225711.000,3101.6638,N,12125.7300,E,1,00,00007.533,M 
$GPGGA,225711.000,3101.6636,N,12125.7296,E,1,00,00007.649,M 
$GPGGA,225712.000,3101.6634,N,12125.7291,E,1,00,00007.649,M 
$GPGGA,225712.000,3101.6633,N,12125.7287,E,1,00,00007.907,M 
$GPGGA,225713.000,3101.6631,N,12125.7282,E,1,00,00007.907,M 
$GPGGA,225713.000,3101.6630,N,12125.7278,E,1,00,00007.433,M 
$GPGGA,225714.000,3101.6628,N,12125.7274,E,1,00,00008.897,M 
$GPGGA,225715.000,3101.6626,N,12125.7270,E,1,00,00008.897,M 
$GPGGA,225715.000,3101.6624,N,12125.7265,E,1,00,00009.598,M 
$GPGGA,225716.000,3101.6623,N,12125.7261,E,1,00,00009.598,M 
$GPGGA,225716.000,3101.6621,N,12125.7256,E,1,00,00008.776,M 
$GPGGA,225717.000,3101.6619,N,12125.7251,E,1,00,00008.776,M 
$GPGGA,225717.000,3101.6617,N,12125.7246,E,1,00,00008.472,M 
$GPGGA,225718.000,3101.6616,N,12125.7241,E,1,00,00008.472,M 
$GPGGA,225718.000,3101.6614,N,12125.7236,E,1,00,00008.368,M 
$GPGGA,225719.000,3101.6613,N,12125.7231,E,1,00,00008.368,M 
$GPGGA,225719.000,3101.6611,N,12125.7226,E,1,00,00007.602,M 
$GPGGA,225720.000,3101.6609,N,12125.7221,E,1,00,00007.383,M 
$GPGGA,225721.000,3101.6608,N,12125.7217,E,1,00,00007.383,M 
$GPGGA,225721.000,3101.6607,N,12125.7212,E,1,00,00007.062,M 
$GPGGA,225722.000,3101.6605,N,12125.7208,E,1,00,00007.062,M 
$GPGGA,225722.000,3101.6604,N,12125.7203,E,1,00,00006.666,M 
$GPGGA,225723.000,3101.6602,N,12125.7198,E,1,00,00006.666,M 
$GPGGA,225723.000,3101.6600,N,12125.7194,E,1,00,00007.847,M 
$GPGGA,225724.000,3101.6598,N,12125.7189,E,1,00,00007.848,M 
$GPGGA,225724.000,3101.6597,N,12125.7185,E,1,00,00009.551,M 
$GPGGA,225725.000,3101.6595,N,12125.7181,E,1,00,00009.260,M 
$GPGGA,225726.000,3101.6593,N,12125.7176,E,1,00,00009.260,M 
$GPGGA,225726.000,3101.6591,N,12125.7172,E,1,00,00009.072,M 
$GPGGA,225727.000,3101.6589,N,12125.7168,E,1,00,00009.072,M 
$GPGGA,225727.000,3101.6588,N,12125.7164,E,1,00,00008.960,M 
$GPGGA,225728.000,3101.6586,N,12125.7159,E,1,00,00008.960,M 
$GPGGA,225728.000,3101.6584,N,12125.7156,E,1,00,00008.078,M 
$GPGGA,225729.000,3101.6582,N,12125.7151,E,1,00,00008.078,M 
$GPGGA,225729.000,3101.6581,N,12125.7147,E,1,00,00008.361,M 
$GPGGA,225730.000,3101.6580,N,12125.7143,E,1,00,00008.596,M 
$GPGGA,225731.000,3101.6578,N,12125.7139,E,1,00,00008.596,M 
$GPGGA,225731.000,3101.6577,N,12125.7134,E,1,00,00008.347,M 
$GPGGA,225732.000,3101.6576,N,12125.7130,E,1,00,00008.347,M 
$GPGGA,225732.000,3101.6575,N,12125.7126,E,1,00,00006.958,M 
$GPGGA,225733.000,3101.6573,N,12125.7122,E,1,00,00006.958,M 
$GPGGA,225733.000,3101.6572,N,12125.7118,E,1,00,00007.815,M 
$GPGGA,225734.000,3101.6571,N,12125.7114,E,1,00,00007.815,M 
$GPGGA,225734.000,3101.6570,N,12125.7110,E,1,00,00007.425,M 
$GPGGA,225735.000,3101.6569,N,12125.7106,E,1,00,00008.617,M 
$GPGGA,225736.000,3101.6567,N,12125.7101,E,1,00,00008.617,M 
$GPGGA,225736.000,3101.6566,N,12125.7097,E,1,00,00009.232,M 
$GPGGA,225737.000,3101.6565,N,12125.7092,E,1,00,00009.232,M 
$GPGGA,225737.000,3101.6563,N,12125.7088,E,1,00,00008.858,M 
$GPGGA,225738.000,3101.6562,N,12125.7083,E,1,00,00008.858,M 
$GPGGA,225738.000,3101.6561,N,12125.7079,E,1,00,00008.073,M 
$GPGGA,225739.000,3101.6559,N,12125.7075,E,1,00,00008.073,M 
$GPGGA,225739.000,3101.6557,N,12125.7071,E,1,00,00008.908,M 
$GPGGA,225740.000,3101.6556,N,12125.7066,E,1,00,00008.908,M 
$GPGGA,225740.000,3101.6554,N,12125.7062,E,1,00,00007.725,M 
$GPGGA,225741.000,3101.6553,N,12125.7058,E,1,00,00007.951,M 
$GPGGA,225742.000,3101.6552,N,12125.7054,E,1,00,00007.951,M 
$GPGGA,225742.000,3101.6550,N,12125.7050,E,1,00,00007.589,M 
$GPGGA,225743.000,3101.6549,N,12125.7045,E,1,00,00007.589,M 
$GPGGA,225743.000,3101.6547,N,12125.7040,E,1,00,00008.219,M 
$GPGGA,225744.000,3101.6546,N,12125.7036,E,1,00,00008.219,M 
$GPGGA,225744.000,3101.6545,N,12125.7031,E,1,00,00007.536,M 
$GPGGA,225745.000,3101.6544,N,12125.7026,E,1,00,00007.536,M 
$GPGGA,225745.000,3101.6543,N,12125.7021,E,1,00,00009.579,M 
$GPGGA,225746.000,3101.6541,N,12125.7016,E,1,00,00009.579,M 
$GPGGA,225746.000,3101.6540,N,12125.7012,E,1,00,00008.431,M 
$GPGGA,225747.000,3101.6538,N,12125.7007,E,1,00,00008.493,M 
$GPGGA,225748.000,3101.6536,N,12125.7002,E,1,00,00008.494,M 
$GPGGA,225748.000,3101.6535,N,12125.6997,E,1,00,00006.981,M 
$GPGGA,225749.000,3101.6533,N,12125.6992,E,1,00,00006.981,M 
$GPGGA,225749.000,3101.6531,N,12125.6988,E,1,00,00007.752,M 
$GPGGA,225750.000,3101.6529,N,12125.6983,E,1,00,00007.752,M 
$GPGGA,225750.000,3101.6527,N,12125.6979,E,1,00,00007.761,M 
$GPGGA,225751.000,3101.6525,N,12125.6975,E,1,00,00007.761,M 
$GPGGA,225751.000,3101.6523,N,12125.6971,E,1,00,00007.433,M 
$GPGGA,225752.000,3101.6522,N,12125.6967,E,1,00,00007.433,M 
$GPGGA,225752.000,3101.6520,N,12125.6963,E,1,00,00007.562,M 
$GPGGA,225753.000,3101.6519,N,12125.6959,E,1,00,00007.240,M 
$GPGGA,225754.000,3101.6517,N,12125.6954,E,1,00,00007.240,M 
$GPGGA,225754.000,3101.6515,N,12125.6950,E,1,00,00007.817,M 
$GPGGA,225755.000,3101.6514,N,12125.6945,E,1,00,00007.817,M 
$GPGGA,225755.000,3101.6512,N,12125.6941,E,1,00,00007.130,M 
$GPGGA,225756.000,3101.6511,N,12125.6936,E,1,00,00007.130,M 
$GPGGA,225756.000,3101.6509,N,12125.6932,E,1,00,00007.371,M 
$GPGGA,225757.000,3101.6507,N,12125.6927,E,1,00,00007.371,M 
$GPGGA,225757.000,3101.6506,N,12125.6923,E,1,00,00007.222,M 
$GPGGA,225758.000,3101.6504,N,12125.6919,E,1,00,00007.223,M 
$GPGGA,225758.000,3101.6503,N,12125.6915,E,1,00,00008.233,M 
$GPGGA,225759.000,3101.6501,N,12125.6911,E,1,00,00007.946,M 
$GPGGA,225800.000,3101.6499,N,12125.6907,E,1,00,00007.946,M 
$GPGGA,225800.000,3101.6498,N,12125.6903,E,1,00,00007.455,M 
$GPGGA,225801.000,3101.6496,N,12125.6898,E,1,00,00007.455,M 
$GPGGA,225801.000,3101.6493,N,12125.6894,E,1,00,00007.586,M 
$GPGGA,225802.000,3101.6491,N,12125.6890,E,1,00,00007.586,M 
$GPGGA,225802.000,3101.6489,N,12125.6886,E,1,00,00007.634,M 
$GPGGA,225803.000,3101.6487,N,12125.6883,E,1,00,00007.634,M 
$GPGGA,225803.000,3101.6485,N,12125.6879,E,1,00,00007.454,M 
$GPGGA,225804.000,3101.6483,N,12125.6875,E,1,00,00007.548,M 
$GPGGA,225805.000,3101.6482,N,12125.6871,E,1,00,00007.548,M 
$GPGGA,225805.000,3101.6481,N,12125.6867,E,1,00,00006.811,M 
$GPGGA,225806.000,3101.6479,N,12125.6862,E,1,00,00006.811,M 
$GPGGA,225806.000,3101.6478,N,12125.6857,E,1,00,00006.304,M 
$GPGGA,225807.000,3101.6477,N,12125.6853,E,1,00,00006.304,M 
$GPGGA,225807.000,3101.6476,N,12125.6849,E,1,00,00007.512,M 
$GPGGA,225808.000,3101.6475,N,12125.6845,E,1,00,00007.273,M 
$GPGGA,225809.000,3101.6474,N,12125.6841,E,1,00,00007.273,M 
$GPGGA,225809.000,3101.6473,N,12125.6837,E,1,00,00008.189,M 
$GPGGA,225810.000,3101.6471,N,12125.6833,E,1,00,00008.189,M 
$GPGGA,225810.000,3101.6469,N,12125.6829,E,1,00,00008.573,M 
$GPGGA,225811.000,3101.6468,N,12125.6825,E,1,00,00008.573,M 
$GPGGA,225811.000,3101.6466,N,12125.6820,E,1,00,00008.732,M 
$GPGGA,225812.000,3101.6465,N,12125.6816,E,1,00,00008.732,M 
$GPGGA,225812.000,3101.6463,N,12125.6813,E,1,00,00008.683,M 
$GPGGA,225813.000,3101.6462,N,12125.6809,E,1,00,00008.040,M 
$GPGGA,225814.000,3101.6461,N,12125.6807,E,1,00,00006.298,M 
$GPGGA,225821.000,3101.6459,N,12125.6803,E,1,00,00006.054,M 
$GPGGA,225822.000,3101.6456,N,12125.6798,E,1,00,00006.054,M 
$GPGGA,225822.000,3101.6454,N,12125.6793,E,1,00,00006.563,M 
$GPGGA,225823.000,3101.6451,N,12125.6788,E,1,00,00006.563,M 
$GPGGA,225823.000,3101.6449,N,12125.6784,E,1,00,00007.949,M 
$GPGGA,225824.000,3101.6447,N,12125.6779,E,1,00,00007.949,M 
$GPGGA,225824.000,3101.6444,N,12125.6775,E,1,00,00006.784,M 
$GPGGA,225825.000,3101.6442,N,12125.6770,E,1,00,00008.350,M 
$GPGGA,225826.000,3101.6440,N,12125.6765,E,1,00,00008.350,M 
$GPGGA,225826.000,3101.6437,N,12125.6760,E,1,00,00006.719,M 
$GPGGA,225827.000,3101.6435,N,12125.6756,E,1,00,00006.719,M 
$GPGGA,225827.000,3101.6433,N,12125.6751,E,1,00,00004.490,M 
$GPGGA,225828.000,3101.6431,N,12125.6746,E,1,00,00004.490,M 
$GPGGA,225828.000,3101.6430,N,12125.6742,E,1,00,00006.600,M 
$GPGGA,225829.000,3101.6428,N,12125.6737,E,1,00,00006.600,M 
$GPGGA,225829.000,3101.6427,N,12125.6733,E,1,00,00008.352,M 
$GPGGA,225830.000,3101.6426,N,12125.6729,E,1,00,00008.352,M 
$GPGGA,225830.000,3101.6425,N,12125.6725,E,1,00,00010.385,M 
$GPGGA,225831.000,3101.6424,N,12125.6721,E,1,00,00012.248,M 
$GPGGA,225832.000,3101.6422,N,12125.6718,E,1,00,00012.248,M 
$GPGGA,225832.000,3101.6421,N,12125.6714,E,1,00,00014.772,M 
$GPGGA,225833.000,3101.6419,N,12125.6711,E,1,00,00014.772,M 
$GPGGA,225833.000,3101.6418,N,12125.6707,E,1,00,00016.267,M 
$GPGGA,225834.000,3101.6416,N,12125.6703,E,1,00,00016.267,M 
$GPGGA,225834.000,3101.6414,N,12125.6700,E,1,00,00015.376,M 
$GPGGA,225835.000,3101.6413,N,12125.6697,E,1,00,00015.376,M 
$GPGGA,225835.000,3101.6411,N,12125.6694,E,1,00,00015.972,M 
$GPGGA,225836.000,3101.6410,N,12125.6691,E,1,00,00015.972,M 
$GPGGA,225836.000,3101.6408,N,12125.6689,E,1,00,00014.717,M 
$GPGGA,225837.000,3101.6407,N,12125.6687,E,1,00,00014.912,M 
$GPGGA,225838.000,3101.6406,N,12125.6685,E,1,00,00014.912,M 
$GPGGA,225838.000,3101.6405,N,12125.6683,E,1,00,00015.639,M 
$GPGGA,225839.000,3101.6404,N,12125.6680,E,1,00,00015.640,M 
$GPGGA,225839.000,3101.6403,N,12125.6679,E,1,00,00016.571,M 
$GPGGA,225840.000,3101.6402,N,12125.6677,E,1,00,00016.571,M 
$GPGGA,225840.000,3101.6401,N,12125.6675,E,1,00,00017.563,M 
$GPGGA,225841.000,3101.6401,N,12125.6674,E,1,00,00017.563,M 
$GPGGA,225841.000,3101.6400,N,12125.6672,E,1,00,00018.499,M 
$GPGGA,225842.000,3101.6400,N,12125.6670,E,1,00,00018.499,M 
$GPGGA,225842.000,3101.6399,N,12125.6668,E,1,00,00019.594,M 
$GPGGA,225843.000,3101.6399,N,12125.6666,E,1,00,00020.739,M 
$GPGGA,225844.000,3101.6398,N,12125.6664,E,1,00,00020.739,M 
$GPGGA,225844.000,3101.6398,N,12125.6662,E,1,00,00021.934,M 
$GPGGA,225845.000,3101.6398,N,12125.6660,E,1,00,00021.934,M 
$GPGGA,225845.000,3101.6398,N,12125.6658,E,1,00,00023.178,M 
$GPGGA,225846.000,3101.6398,N,12125.6656,E,1,00,00023.178,M 
$GPGGA,225846.000,3101.6398,N,12125.6653,E,1,00,00024.471,M 
$GPGGA,225847.000,3101.6398,N,12125.6651,E,1,00,00024.471,M 
$GPGGA,225847.000,3101.6398,N,12125.6648,E,1,00,00025.815,M 
$GPGGA,225848.000,3101.6398,N,12125.6646,E,1,00,00025.815,M 
$GPGGA,225848.000,3101.6398,N,12125.6643,E,1,00,00026.972,M 
$GPGGA,225849.000,3101.6398,N,12125.6639,E,1,00,00026.972,M 
$GPGGA,225849.000,3101.6397,N,12125.6636,E,1,00,00027.970,M 
$GPGGA,225850.000,3101.6397,N,12125.6632,E,1,00,00029.087,M 
$GPGGA,225851.000,3101.6398,N,12125.6628,E,1,00,00017.841,M 
$GPGGA,225853.000,3101.6396,N,12125.6622,E,1,00,00012.225,M 
$GPGGA,225854.000,3101.6395,N,12125.6615,E,1,00,00012.225,M 
$GPGGA,225854.000,3101.6394,N,12125.6607,E,1,00,00008.760,M 
$GPGGA,225855.000,3101.6392,N,12125.6600,E,1,00,00008.760,M 
$GPGGA,225855.000,3101.6391,N,12125.6591,E,1,00,00007.884,M 
$GPGGA,225856.000,3101.6389,N,12125.6584,E,1,00,00007.884,M 
$GPGGA,225856.000,3101.6388,N,12125.6576,E,1,00,00006.714,M 
$GPGGA,225857.000,3101.6387,N,12125.6568,E,1,00,00006.715,M 
$GPGGA,225857.000,3101.6386,N,12125.6561,E,1,00,00013.262,M 
$GPGGA,225858.000,3101.6385,N,12125.6553,E,1,00,00013.262,M 
$GPGGA,225858.000,3101.6385,N,12125.6546,E,1,00,00012.019,M 
$GPGGA,225859.000,3101.6384,N,12125.6538,E,1,00,00012.019,M 
$GPGGA,225859.000,3101.6383,N,12125.6531,E,1,00,00010.360,M 
$GPGGA,225900.000,3101.6382,N,12125.6524,E,1,00,00010.360,M 
$GPGGA,225900.000,3101.6380,N,12125.6517,E,1,00,00010.522,M 
$GPGGA,225901.000,3101.6378,N,12125.6511,E,1,00,00009.020,M 
$GPGGA,225902.000,3101.6376,N,12125.6504,E,1,00,00009.021,M 
$GPGGA,225902.000,3101.6375,N,12125.6498,E,1,00,00008.914,M 
$GPGGA,225903.000,3101.6372,N,12125.6491,E,1,00,00008.914,M 
$GPGGA,225903.000,3101.6370,N,12125.6485,E,1,00,00007.913,M 
$GPGGA,225904.000,3101.6368,N,12125.6478,E,1,00,00007.913,M 
$GPGGA,225904.000,3101.6367,N,12125.6472,E,1,00,00009.517,M 
$GPGGA,225905.000,3101.6365,N,12125.6465,E,1,00,00009.517,M 
$GPGGA,225905.000,3101.6363,N,12125.6459,E,1,00,00010.147,M 
$GPGGA,225906.000,3101.6362,N,12125.6453,E,1,00,00010.147,M 
$GPGGA,225906.000,3101.6360,N,12125.6447,E,1,00,00010.349,M 
$GPGGA,225907.000,3101.6358,N,12125.6440,E,1,00,00009.362,M 
$GPGGA,225908.000,3101.6356,N,12125.6434,E,1,00,00009.362,M 
$GPGGA,225908.000,3101.6355,N,12125.6428,E,1,00,00010.452,M 
$GPGGA,225909.000,3101.6353,N,12125.6422,E,1,00,00010.452,M 
$GPGGA,225909.000,3101.6351,N,12125.6416,E,1,00,00010.400,M 
$GPGGA,225910.000,3101.6349,N,12125.6410,E,1,00,00010.400,M 
$GPGGA,225910.000,3101.6347,N,12125.6404,E,1,00,00009.754,M 
$GPGGA,225911.000,3101.6344,N,12125.6399,E,1,00,00009.754,M 
$GPGGA,225911.000,3101.6342,N,12125.6394,E,1,00,00009.763,M 
$GPGGA,225912.000,3101.6339,N,12125.6389,E,1,00,00009.763,M 
$GPGGA,225912.000,3101.6337,N,12125.6383,E,1,00,00008.624,M 
$GPGGA,225913.000,3101.6335,N,12125.6378,E,1,00,00009.409,M 
$GPGGA,225914.000,3101.6332,N,12125.6373,E,1,00,00009.409,M 
$GPGGA,225914.000,3101.6330,N,12125.6368,E,1,00,00008.659,M 
$GPGGA,225915.000,3101.6327,N,12125.6363,E,1,00,00008.659,M 
$GPGGA,225915.000,3101.6325,N,12125.6359,E,1,00,00009.217,M 
$GPGGA,225916.000,3101.6322,N,12125.6354,E,1,00,00009.218,M 
$GPGGA,225916.000,3101.6320,N,12125.6349,E,1,00,00008.854,M 
$GPGGA,225917.000,3101.6317,N,12125.6344,E,1,00,00008.854,M 
$GPGGA,225917.000,3101.6315,N,12125.6340,E,1,00,00008.177,M 
$GPGGA,225918.000,3101.6312,N,12125.6335,E,1,00,00009.274,M 
$GPGGA,225919.000,3101.6309,N,12125.6330,E,1,00,00009.274,M 
$GPGGA,225919.000,3101.6307,N,12125.6324,E,1,00,00009.726,M 
$GPGGA,225920.000,3101.6305,N,12125.6319,E,1,00,00009.727,M 
$GPGGA,225920.000,3101.6303,N,12125.6314,E,1,00,00008.229,M 
$GPGGA,225921.000,3101.6301,N,12125.6309,E,1,00,00008.229,M 
$GPGGA,225921.000,3101.6299,N,12125.6304,E,1,00,00008.689,M 
$GPGGA,225922.000,3101.6298,N,12125.6299,E,1,00,00008.690,M 
$GPGGA,225922.000,3101.6296,N,12125.6294,E,1,00,00008.401,M 
$GPGGA,225923.000,3101.6295,N,12125.6289,E,1,00,00008.260,M 
$GPGGA,225924.000,3101.6292,N,12125.6285,E,1,00,00008.260,M 
$GPGGA,225924.000,3101.6290,N,12125.6280,E,1,00,00007.353,M 
$GPGGA,225925.000,3101.6288,N,12125.6276,E,1,00,00007.353,M 
$GPGGA,225925.000,3101.6286,N,12125.6272,E,1,00,00007.119,M 
$GPGGA,225926.000,3101.6284,N,12125.6268,E,1,00,00007.119,M 
$GPGGA,225926.000,3101.6282,N,12125.6264,E,1,00,00006.507,M 
$GPGGA,225927.000,3101.6279,N,12125.6259,E,1,00,00006.507,M 
$GPGGA,225927.000,3101.6278,N,12125.6255,E,1,00,00007.437,M 
$GPGGA,225928.000,3101.6276,N,12125.6251,E,1,00,00007.437,M 
$GPGGA,225928.000,3101.6273,N,12125.6247,E,1,00,00007.384,M 
$GPGGA,225929.000,3101.6272,N,12125.6242,E,1,00,00006.280,M 
$GPGGA,225930.000,3101.6269,N,12125.6238,E,1,00,00006.280,M 
$GPGGA,225930.000,3101.6268,N,12125.6233,E,1,00,00006.386,M 
$GPGGA,225931.000,3101.6266,N,12125.6229,E,1,00,00006.386,M 
$GPGGA,225931.000,3101.6264,N,12125.6224,E,1,00,00006.325,M 
$GPGGA,225932.000,3101.6263,N,12125.6220,E,1,00,00006.325,M 
$GPGGA,225932.000,3101.6261,N,12125.6215,E,1,00,00005.940,M 
$GPGGA,225933.000,3101.6259,N,12125.6211,E,1,00,00007.132,M 
$GPGGA,225934.000,3101.6257,N,12125.6206,E,1,00,00007.132,M 
$GPGGA,225934.000,3101.6256,N,12125.6202,E,1,00,00006.490,M 
$GPGGA,225935.000,3101.6254,N,12125.6197,E,1,00,00006.490,M 
$GPGGA,225935.000,3101.6252,N,12125.6192,E,1,00,00006.424,M 
$GPGGA,225936.000,3101.6250,N,12125.6188,E,1,00,00006.424,M 
$GPGGA,225936.000,3101.6249,N,12125.6183,E,1,00,00008.217,M 
$GPGGA,225937.000,3101.6247,N,12125.6178,E,1,00,00008.217,M 
$GPGGA,225937.000,3101.6246,N,12125.6174,E,1,00,00007.492,M 
$GPGGA,225938.000,3101.6245,N,12125.6169,E,1,00,00009.206,M 
$GPGGA,225939.000,3101.6244,N,12125.6164,E,1,00,00009.206,M 
$GPGGA,225939.000,3101.6243,N,12125.6159,E,1,00,00008.480,M 
$GPGGA,225940.000,3101.6242,N,12125.6154,E,1,00,00008.480,M 
$GPGGA,225940.000,3101.6241,N,12125.6149,E,1,00,00008.762,M 
$GPGGA,225941.000,3101.6240,N,12125.6145,E,1,00,00008.762,M 
$GPGGA,225941.000,3101.6239,N,12125.6140,E,1,00,00007.669,M 
$GPGGA,225942.000,3101.6238,N,12125.6136,E,1,00,00007.669,M 
$GPGGA,225942.000,3101.6236,N,12125.6131,E,1,00,00009.741,M 
$GPGGA,225943.000,3101.6235,N,12125.6127,E,1,00,00009.741,M 
$GPGGA,225943.000,3101.6233,N,12125.6122,E,1,00,00010.151,M 
$GPGGA,225944.000,3101.6232,N,12125.6118,E,1,00,00008.816,M 
$GPGGA,225945.000,3101.6231,N,12125.6113,E,1,00,00008.816,M 
$GPGGA,225945.000,3101.6229,N,12125.6108,E,1,00,00009.248,M 
$GPGGA,225946.000,3101.6228,N,12125.6103,E,1,00,00009.248,M 
$GPGGA,225946.000,3101.6227,N,12125.6099,E,1,00,00008.338,M 
$GPGGA,225947.000,3101.6226,N,12125.6094,E,1,00,00008.338,M 
$GPGGA,225947.000,3101.6224,N,12125.6089,E,1,00,00009.418,M 
$GPGGA,225948.000,3101.6223,N,12125.6084,E,1,00,00009.419,M 
$GPGGA,225948.000,3101.6222,N,12125.6079,E,1,00,00009.221,M 
$GPGGA,225949.000,3101.6220,N,12125.6074,E,1,00,00008.443,M 
$GPGGA,225950.000,3101.6219,N,12125.6069,E,1,00,00008.443,M 
$GPGGA,225950.000,3101.6218,N,12125.6064,E,1,00,00009.282,M 
$GPGGA,225951.000,3101.6216,N,12125.6059,E,1,00,00009.282,M 
$GPGGA,225951.000,3101.6215,N,12125.6054,E,1,00,00009.586,M 
$GPGGA,225952.000,3101.6213,N,12125.6049,E,1,00,00009.586,M 
$GPGGA,225952.000,3101.6212,N,12125.6045,E,1,00,00010.946,M 
$GPGGA,225953.000,3101.6211,N,12125.6040,E,1,00,00010.307,M 
$GPGGA,225954.000,3101.6210,N,12125.6036,E,1,00,00010.307,M 
$GPGGA,225954.000,3101.6210,N,12125.6033,E,1,00,00012.340,M 
$GPGGA,225958.000,3101.6209,N,12125.6028,E,1,00,00012.574,M 
$GPGGA,225959.000,3101.6210,N,12125.6025,E,1,00,00012.459,M 
$GPGGA,230004.000,3101.6214,N,12125.6021,E,1,00,00012.459,M 
$GPGGA,230004.000,3101.6218,N,12125.6019,E,1,00,00014.389,M 
$GPGGA,230005.000,3101.6222,N,12125.6017,E,1,00,00014.390,M 
$GPGGA,230005.000,3101.6225,N,12125.6015,E,1,00,00014.693,M 
$GPGGA,230006.000,3101.6229,N,12125.6013,E,1,00,00015.808,M 
$GPGGA,230007.000,3101.6232,N,12125.6011,E,1,00,00015.808,M 
$GPGGA,230007.000,3101.6235,N,12125.6010,E,1,00,00015.621,M 
$GPGGA,230008.000,3101.6238,N,12125.6008,E,1,00,00015.622,M 
$GPGGA,230008.000,3101.6241,N,12125.6006,E,1,00,00016.637,M 
$GPGGA,230009.000,3101.6244,N,12125.6004,E,1,00,00016.637,M 
$GPGGA,230009.000,3101.6247,N,12125.6002,E,1,00,00017.378,M 
$GPGGA,230010.000,3101.6250,N,12125.6000,E,1,00,00017.378,M 
$GPGGA,230010.000,3101.6254,N,12125.5998,E,1,00,00016.872,M 
$GPGGA,230011.000,3101.6258,N,12125.5996,E,1,00,00016.872,M 
$GPGGA,230011.000,3101.6261,N,12125.5995,E,1,00,00018.458,M 
$GPGGA,230012.000,3101.6264,N,12125.5993,E,1,00,00018.458,M 
$GPGGA,230012.000,3101.6268,N,12125.5992,E,1,00,00016.297,M 
$GPGGA,230013.000,3101.6271,N,12125.5990,E,1,00,00015.801,M 
$GPGGA,230014.000,3101.6276,N,12125.5988,E,1,00,00015.802,M 
$GPGGA,230014.000,3101.6280,N,12125.5986,E,1,00,00014.408,M 
$GPGGA,230015.000,3101.6285,N,12125.5984,E,1,00,00014.408,M 
$GPGGA,230015.000,3101.6289,N,12125.5981,E,1,00,00014.347,M 
$GPGGA,230016.000,3101.6294,N,12125.5978,E,1,00,00014.348,M 
$GPGGA,230016.000,3101.6298,N,12125.5976,E,1,00,00013.163,M 
$GPGGA,230017.000,3101.6302,N,12125.5973,E,1,00,00013.163,M 
$GPGGA,230017.000,3101.6307,N,12125.5970,E,1,00,00014.455,M 
$GPGGA,230018.000,3101.6312,N,12125.5967,E,1,00,00014.455,M 
$GPGGA,230018.000,3101.6316,N,12125.5965,E,1,00,00014.830,M 
$GPGGA,230019.000,3101.6321,N,12125.5962,E,1,00,00012.643,M 
$GPGGA,230020.000,3101.6326,N,12125.5959,E,1,00,00012.643,M 
$GPGGA,230020.000,3101.6332,N,12125.5956,E,1,00,00010.834,M 
$GPGGA,230021.000,3101.6337,N,12125.5953,E,1,00,00010.834,M 
$GPGGA,230021.000,3101.6342,N,12125.5950,E,1,00,00009.849,M 
$GPGGA,230022.000,3101.6347,N,12125.5947,E,1,00,00009.849,M 
$GPGGA,230022.000,3101.6352,N,12125.5945,E,1,00,00010.516,M 
$GPGGA,230023.000,3101.6356,N,12125.5942,E,1,00,00010.517,M 
$GPGGA,230023.000,3101.6361,N,12125.5940,E,1,00,00008.601,M 
$GPGGA,230024.000,3101.6365,N,12125.5937,E,1,00,00008.601,M 
$GPGGA,230024.000,3101.6370,N,12125.5935,E,1,00,00009.282,M 
$GPGGA,230025.000,3101.6374,N,12125.5933,E,1,00,00009.038,M 
$GPGGA,230026.000,3101.6378,N,12125.5931,E,1,00,00009.038,M 
$GPGGA,230026.000,3101.6382,N,12125.5930,E,1,00,00011.226,M 
$GPGGA,230027.000,3101.6387,N,12125.5928,E,1,00,00011.226,M 
$GPGGA,230027.000,3101.6391,N,12125.5927,E,1,00,00011.727,M 
$GPGGA,230028.000,3101.6395,N,12125.5926,E,1,00,00011.727,M 
$GPGGA,230028.000,3101.6399,N,12125.5925,E,1,00,00012.870,M 
$GPGGA,230029.000,3101.6403,N,12125.5923,E,1,00,00012.871,M 
$GPGGA,230029.000,3101.6406,N,12125.5922,E,1,00,00011.083,M 
$GPGGA,230030.000,3101.6410,N,12125.5921,E,1,00,00011.083,M 
$GPGGA,230030.000,3101.6414,N,12125.5919,E,1,00,00010.466,M 
$GPGGA,230031.000,3101.6418,N,12125.5918,E,1,00,00010.466,M 
$GPGGA,230031.000,3101.6422,N,12125.5916,E,1,00,00009.502,M 
$GPGGA,230032.000,3101.6425,N,12125.5915,E,1,00,00009.038,M 
$GPGGA,230033.000,3101.6429,N,12125.5913,E,1,00,00009.038,M 
$GPGGA,230033.000,3101.6432,N,12125.5911,E,1,00,00010.037,M 
$GPGGA,230034.000,3101.6435,N,12125.5910,E,1,00,00010.037,M 
$GPGGA,230034.000,3101.6439,N,12125.5908,E,1,00,00010.088,M 
$GPGGA,230035.000,3101.6443,N,12125.5906,E,1,00,00010.088,M 
$GPGGA,230035.000,3101.6446,N,12125.5904,E,1,00,00010.550,M 
$GPGGA,230036.000,3101.6449,N,12125.5901,E,1,00,00010.550,M 
$GPGGA,230036.000,3101.6453,N,12125.5899,E,1,00,00009.653,M 
$GPGGA,230037.000,3101.6456,N,12125.5897,E,1,00,00009.653,M 
$GPGGA,230037.000,3101.6460,N,12125.5894,E,1,00,00009.892,M 
$GPGGA,230038.000,3101.6463,N,12125.5892,E,1,00,00009.892,M 
$GPGGA,230038.000,3101.6467,N,12125.5890,E,1,00,00009.032,M 
$GPGGA,230039.000,3101.6470,N,12125.5887,E,1,00,00009.254,M 
$GPGGA,230040.000,3101.6475,N,12125.5884,E,1,00,00009.254,M 
$GPGGA,230040.000,3101.6479,N,12125.5881,E,1,00,00009.373,M 
$GPGGA,230041.000,3101.6482,N,12125.5878,E,1,00,00009.373,M 
$GPGGA,230041.000,3101.6486,N,12125.5875,E,1,00,00008.702,M 
$GPGGA,230042.000,3101.6490,N,12125.5872,E,1,00,00008.702,M 
$GPGGA,230042.000,3101.6494,N,12125.5869,E,1,00,00007.801,M 
$GPGGA,230043.000,3101.6498,N,12125.5866,E,1,00,00007.801,M 
$GPGGA,230043.000,3101.6502,N,12125.5863,E,1,00,00006.855,M 
$GPGGA,230044.000,3101.6506,N,12125.5861,E,1,00,00006.855,M 
$GPGGA,230044.000,3101.6509,N,12125.5858,E,1,00,00005.795,M 
$GPGGA,230045.000,3101.6514,N,12125.5856,E,1,00,00005.795,M 
$GPGGA,230045.000,3101.6517,N,12125.5854,E,1,00,00006.873,M 
$GPGGA,230046.000,3101.6521,N,12125.5852,E,1,00,00006.395,M 
$GPGGA,230047.000,3101.6526,N,12125.5850,E,1,00,00006.395,M 
$GPGGA,230047.000,3101.6530,N,12125.5848,E,1,00,00007.769,M 
$GPGGA,230048.000,3101.6534,N,12125.5846,E,1,00,00007.769,M 
$GPGGA,230048.000,3101.6538,N,12125.5844,E,1,00,00008.078,M 
$GPGGA,230049.000,3101.6543,N,12125.5842,E,1,00,00008.078,M 
$GPGGA,230049.000,3101.6547,N,12125.5840,E,1,00,00007.296,M 
$GPGGA,230050.000,3101.6551,N,12125.5838,E,1,00,00007.296,M 
$GPGGA,230050.000,3101.6555,N,12125.5837,E,1,00,00009.203,M 
$GPGGA,230051.000,3101.6559,N,12125.5835,E,1,00,00009.203,M 
$GPGGA,230051.000,3101.6563,N,12125.5834,E,1,00,00008.958,M 
$GPGGA,230052.000,3101.6566,N,12125.5832,E,1,00,00009.096,M 
$GPGGA,230053.000,3101.6570,N,12125.5831,E,1,00,00009.096,M 
$GPGGA,230053.000,3101.6574,N,12125.5829,E,1,00,00008.149,M 
$GPGGA,230054.000,3101.6578,N,12125.5828,E,1,00,00008.149,M 
$GPGGA,230054.000,3101.6582,N,12125.5826,E,1,00,00008.219,M 
$GPGGA,230055.000,3101.6586,N,12125.5825,E,1,00,00008.219,M 
$GPGGA,230055.000,3101.6589,N,12125.5823,E,1,00,00007.823,M 
$GPGGA,230056.000,3101.6593,N,12125.5822,E,1,00,00007.823,M 
$GPGGA,230056.000,3101.6596,N,12125.5820,E,1,00,00006.884,M 
$GPGGA,230057.000,3101.6599,N,12125.5819,E,1,00,00006.884,M 
$GPGGA,230057.000,3101.6603,N,12125.5818,E,1,00,00007.795,M 
$GPGGA,230058.000,3101.6607,N,12125.5816,E,1,00,00007.795,M 
$GPGGA,230058.000,3101.6611,N,12125.5816,E,1,00,00008.286,M 
$GPGGA,230059.000,3101.6614,N,12125.5815,E,1,00,00008.829,M 
$GPGGA,230100.000,3101.6618,N,12125.5813,E,1,00,00008.829,M 
$GPGGA,230100.000,3101.6622,N,12125.5812,E,1,00,00009.158,M 
$GPGGA,230101.000,3101.6625,N,12125.5811,E,1,00,00009.158,M 
$GPGGA,230101.000,3101.6628,N,12125.5809,E,1,00,00010.827,M 
$GPGGA,230102.000,3101.6632,N,12125.5808,E,1,00,00010.827,M 
$GPGGA,230102.000,3101.6635,N,12125.5807,E,1,00,00010.182,M 
$GPGGA,230103.000,3101.6638,N,12125.5805,E,1,00,00010.182,M 
$GPGGA,230103.000,3101.6641,N,12125.5804,E,1,00,00010.636,M 
$GPGGA,230104.000,3101.6645,N,12125.5802,E,1,00,00010.636,M 
$GPGGA,230104.000,3101.6648,N,12125.5800,E,1,00,00011.389,M 
$GPGGA,230105.000,3101.6651,N,12125.5798,E,1,00,00011.389,M 
$GPGGA,230105.000,3101.6655,N,12125.5797,E,1,00,00011.171,M 
$GPGGA,230106.000,3101.6658,N,12125.5795,E,1,00,00011.171,M 
$GPGGA,230106.000,3101.6662,N,12125.5793,E,1,00,00010.068,M 
$GPGGA,230107.000,3101.6666,N,12125.5791,E,1,00,00009.663,M 
$GPGGA,230108.000,3101.6670,N,12125.5789,E,1,00,00009.663,M 
$GPGGA,230108.000,3101.6674,N,12125.5787,E,1,00,00008.837,M 
$GPGGA,230109.000,3101.6678,N,12125.5785,E,1,00,00008.837,M 
$GPGGA,230109.000,3101.6683,N,12125.5783,E,1,00,00010.822,M 
$GPGGA,230110.000,3101.6687,N,12125.5781,E,1,00,00010.822,M 
$GPGGA,230110.000,3101.6691,N,12125.5779,E,1,00,00010.818,M 
$GPGGA,230111.000,3101.6694,N,12125.5778,E,1,00,00010.818,M 
$GPGGA,230111.000,3101.6698,N,12125.5776,E,1,00,00012.197,M 
$GPGGA,230112.000,3101.6702,N,12125.5775,E,1,00,00012.197,M 
$GPGGA,230112.000,3101.6705,N,12125.5774,E,1,00,00010.266,M 
$GPGGA,230113.000,3101.6709,N,12125.5773,E,1,00,00010.267,M 
$GPGGA,230113.000,3101.6713,N,12125.5771,E,1,00,00010.126,M 
$GPGGA,230114.000,3101.6717,N,12125.5770,E,1,00,00010.126,M 
$GPGGA,230114.000,3101.6721,N,12125.5768,E,1,00,00011.833,M 
$GPGGA,230115.000,3101.6725,N,12125.5767,E,1,00,00011.833,M 
$GPGGA,230115.000,3101.6729,N,12125.5765,E,1,00,00010.388,M 
$GPGGA,230116.000,3101.6733,N,12125.5764,E,1,00,00010.389,M 
$GPGGA,230116.000,3101.6738,N,12125.5762,E,1,00,00011.107,M 
$GPGGA,230117.000,3101.6742,N,12125.5760,E,1,00,00012.094,M 
$GPGGA,230118.000,3101.6746,N,12125.5759,E,1,00,00012.094,M 
$GPGGA,230118.000,3101.6751,N,12125.5757,E,1,00,00012.922,M 
$GPGGA,230119.000,3101.6755,N,12125.5755,E,1,00,00012.922,M 
$GPGGA,230119.000,3101.6759,N,12125.5753,E,1,00,00014.069,M 
$GPGGA,230120.000,3101.6764,N,12125.5751,E,1,00,00014.069,M 
$GPGGA,230120.000,3101.6768,N,12125.5749,E,1,00,00013.535,M 
$GPGGA,230121.000,3101.6773,N,12125.5747,E,1,00,00013.536,M 
$GPGGA,230121.000,3101.6777,N,12125.5745,E,1,00,00011.216,M 
$GPGGA,230122.000,3101.6782,N,12125.5743,E,1,00,00011.216,M 
$GPGGA,230122.000,3101.6786,N,12125.5741,E,1,00,00011.551,M 
$GPGGA,230123.000,3101.6791,N,12125.5739,E,1,00,00011.551,M 
$GPGGA,230123.000,3101.6794,N,12125.5737,E,1,00,00012.272,M 
$GPGGA,230124.000,3101.6798,N,12125.5736,E,1,00,00012.272,M 
$GPGGA,230124.000,3101.6802,N,12125.5735,E,1,00,00011.638,M 
$GPGGA,230125.000,3101.6806,N,12125.5733,E,1,00,00011.835,M 
$GPGGA,230126.000,3101.6811,N,12125.5732,E,1,00,00011.836,M 
$GPGGA,230126.000,3101.6814,N,12125.5731,E,1,00,00014.151,M 
$GPGGA,230127.000,3101.6818,N,12125.5730,E,1,00,00014.151,M 
$GPGGA,230127.000,3101.6822,N,12125.5729,E,1,00,00013.887,M 
$GPGGA,230128.000,3101.6825,N,12125.5728,E,1,00,00013.887,M 
$GPGGA,230128.000,3101.6828,N,12125.5727,E,1,00,00013.777,M 
$GPGGA,230129.000,3101.6831,N,12125.5726,E,1,00,00013.777,M 
$GPGGA,230129.000,3101.6835,N,12125.5725,E,1,00,00013.357,M 
$GPGGA,230130.000,3101.6838,N,12125.5724,E,1,00,00013.357,M 
$GPGGA,230130.000,3101.6842,N,12125.5722,E,1,00,00012.073,M 
$GPGGA,230131.000,3101.6846,N,12125.5720,E,1,00,00012.073,M 
$GPGGA,230131.000,3101.6850,N,12125.5718,E,1,00,00011.292,M 
$GPGGA,230132.000,3101.6854,N,12125.5717,E,1,00,00011.292,M 
$GPGGA,230132.000,3101.6858,N,12125.5715,E,1,00,00010.578,M 
$GPGGA,230133.000,3101.6862,N,12125.5713,E,1,00,00011.591,M 
$GPGGA,230134.000,3101.6866,N,12125.5711,E,1,00,00011.591,M 
$GPGGA,230134.000,3101.6870,N,12125.5709,E,1,00,00010.832,M 
$GPGGA,230135.000,3101.6874,N,12125.5707,E,1,00,00010.832,M 
$GPGGA,230135.000,3101.6878,N,12125.5705,E,1,00,00012.214,M 
$GPGGA,230136.000,3101.6882,N,12125.5703,E,1,00,00012.214,M 
$GPGGA,230136.000,3101.6886,N,12125.5701,E,1,00,00011.574,M 
$GPGGA,230137.000,3101.6890,N,12125.5699,E,1,00,00011.575,M 
$GPGGA,230137.000,3101.6893,N,12125.5697,E,1,00,00012.054,M 
$GPGGA,230138.000,3101.6897,N,12125.5696,E,1,00,00012.054,M 
$GPGGA,230138.000,3101.6901,N,12125.5694,E,1,00,00011.249,M 
$GPGGA,230139.000,3101.6905,N,12125.5692,E,1,00,00011.249,M 
$GPGGA,230139.000,3101.6909,N,12125.5691,E,1,00,00011.618,M 
$GPGGA,230140.000,3101.6912,N,12125.5689,E,1,00,00011.537,M 
$GPGGA,230141.000,3101.6916,N,12125.5687,E,1,00,00011.537,M 
$GPGGA,230141.000,3101.6920,N,12125.5685,E,1,00,00012.041,M 
$GPGGA,230142.000,3101.6924,N,12125.5683,E,1,00,00012.041,M 
$GPGGA,230142.000,3101.6928,N,12125.5681,E,1,00,00011.384,M 
$GPGGA,230143.000,3101.6932,N,12125.5679,E,1,00,00011.384,M 
$GPGGA,230143.000,3101.6936,N,12125.5677,E,1,00,00012.552,M 
$GPGGA,230144.000,3101.6940,N,12125.5675,E,1,00,00012.552,M 
$GPGGA,230144.000,3101.6944,N,12125.5673,E,1,00,00011.041,M 
$GPGGA,230145.000,3101.6948,N,12125.5670,E,1,00,00011.041,M 
$GPGGA,230145.000,3101.6951,N,12125.5668,E,1,00,00012.074,M 
$GPGGA,230146.000,3101.6956,N,12125.5666,E,1,00,00012.075,M 
$GPGGA,230146.000,3101.6960,N,12125.5664,E,1,00,00011.705,M 
$GPGGA,230147.000,3101.6963,N,12125.5662,E,1,00,00011.705,M 
$GPGGA,230147.000,3101.6967,N,12125.5660,E,1,00,00011.965,M 
$GPGGA,230148.000,3101.6971,N,12125.5659,E,1,00,00013.285,M 
$GPGGA,230149.000,3101.6975,N,12125.5657,E,1,00,00013.285,M 
$GPGGA,230149.000,3101.6979,N,12125.5655,E,1,00,00012.143,M 
$GPGGA,230150.000,3101.6983,N,12125.5654,E,1,00,00012.143,M 
$GPGGA,230150.000,3101.6986,N,12125.5652,E,1,00,00013.532,M 
$GPGGA,230151.000,3101.6990,N,12125.5651,E,1,00,00013.532,M 
$GPGGA,230151.000,3101.6994,N,12125.5649,E,1,00,00014.700,M 
$GPGGA,230152.000,3101.6998,N,12125.5648,E,1,00,00014.700,M 
$GPGGA,230152.000,3101.7002,N,12125.5647,E,1,00,00013.366,M 
$GPGGA,230153.000,3101.7006,N,12125.5646,E,1,00,00013.366,M 
$GPGGA,230153.000,3101.7010,N,12125.5644,E,1,00,00012.054,M 
$GPGGA,230154.000,3101.7014,N,12125.5643,E,1,00,00012.054,M 
$GPGGA,230154.000,3101.7018,N,12125.5642,E,1,00,00010.833,M 
$GPGGA,230155.000,3101.7022,N,12125.5641,E,1,00,00010.423,M 
$GPGGA,230156.000,3101.7026,N,12125.5639,E,1,00,00010.423,M 
$GPGGA,230156.000,3101.7029,N,12125.5637,E,1,00,00010.336,M 
$GPGGA,230157.000,3101.7033,N,12125.5635,E,1,00,00010.336,M 
$GPGGA,230157.000,3101.7037,N,12125.5634,E,1,00,00009.645,M 
$GPGGA,230158.000,3101.7040,N,12125.5632,E,1,00,00009.645,M 
$GPGGA,230158.000,3101.7044,N,12125.5630,E,1,00,00010.139,M 
$GPGGA,230159.000,3101.7048,N,12125.5628,E,1,00,00010.139,M 
$GPGGA,230159.000,3101.7052,N,12125.5626,E,1,00,00010.095,M 
$GPGGA,230200.000,3101.7056,N,12125.5625,E,1,00,00010.096,M 
$GPGGA,230200.000,3101.7059,N,12125.5623,E,1,00,00012.295,M 
$GPGGA,230201.000,3101.7063,N,12125.5622,E,1,00,00012.295,M 
$GPGGA,230201.000,3101.7066,N,12125.5620,E,1,00,00013.166,M 
$GPGGA,230202.000,3101.7070,N,12125.5619,E,1,00,00013.166,M 
$GPGGA,230202.000,3101.7073,N,12125.5617,E,1,00,00013.042,M 
$GPGGA,230203.000,3101.7077,N,12125.5616,E,1,00,00011.789,M 
$GPGGA,230204.000,3101.7081,N,12125.5614,E,1,00,00011.789,M 
$GPGGA,230204.000,3101.7084,N,12125.5613,E,1,00,00012.190,M 
$GPGGA,230205.000,3101.7088,N,12125.5611,E,1,00,00012.190,M 
$GPGGA,230205.000,3101.7092,N,12125.5610,E,1,00,00012.859,M 
$GPGGA,230206.000,3101.7096,N,12125.5608,E,1,00,00012.859,M 
$GPGGA,230206.000,3101.7099,N,12125.5606,E,1,00,00013.645,M 
$GPGGA,230207.000,3101.7103,N,12125.5605,E,1,00,00013.645,M 
$GPGGA,230207.000,3101.7107,N,12125.5604,E,1,00,00015.134,M 
$GPGGA,230208.000,3101.7111,N,12125.5602,E,1,00,00015.134,M 
$GPGGA,230208.000,3101.7114,N,12125.5601,E,1,00,00013.997,M 
$GPGGA,230209.000,3101.7118,N,12125.5600,E,1,00,00013.997,M 
$GPGGA,230209.000,3101.7122,N,12125.5599,E,1,00,00015.645,M 
$GPGGA,230210.000,3101.7125,N,12125.5598,E,1,00,00015.645,M 
$GPGGA,230210.000,3101.7129,N,12125.5597,E,1,00,00016.089,M 
$GPGGA,230211.000,3101.7132,N,12125.5596,E,1,00,00016.089,M 
$GPGGA,230211.000,3101.7136,N,12125.5595,E,1,00,00015.087,M 
$GPGGA,230212.000,3101.7139,N,12125.5593,E,1,00,00014.739,M 
$GPGGA,230213.000,3101.7143,N,12125.5592,E,1,00,00014.739,M 
$GPGGA,230213.000,3101.7147,N,12125.5591,E,1,00,00014.831,M 
$GPGGA,230214.000,3101.7151,N,12125.5590,E,1,00,00014.831,M 
$GPGGA,230214.000,3101.7155,N,12125.5589,E,1,00,00015.858,M 
$GPGGA,230215.000,3101.7158,N,12125.5587,E,1,00,00015.859,M 
$GPGGA,230215.000,3101.7162,N,12125.5586,E,1,00,00015.658,M 
$GPGGA,230216.000,3101.7166,N,12125.5585,E,1,00,00015.658,M 
$GPGGA,230216.000,3101.7170,N,12125.5583,E,1,00,00014.593,M 
$GPGGA,230217.000,3101.7174,N,12125.5581,E,1,00,00014.593,M 
$GPGGA,230217.000,3101.7178,N,12125.5580,E,1,00,00015.135,M 
$GPGGA,230218.000,3101.7182,N,12125.5579,E,1,00,00015.135,M 
$GPGGA,230218.000,3101.7186,N,12125.5577,E,1,00,00015.578,M 
$GPGGA,230219.000,3101.7190,N,12125.5576,E,1,00,00015.906,M 
$GPGGA,230220.000,3101.7195,N,12125.5574,E,1,00,00015.907,M 
$GPGGA,230220.000,3101.7199,N,12125.5572,E,1,00,00015.149,M 
$GPGGA,230221.000,3101.7204,N,12125.5570,E,1,00,00015.149,M 
$GPGGA,230221.000,3101.7209,N,12125.5568,E,1,00,00016.039,M 
$GPGGA,230222.000,3101.7213,N,12125.5566,E,1,00,00016.039,M 
$GPGGA,230222.000,3101.7218,N,12125.5564,E,1,00,00015.913,M 
$GPGGA,230223.000,3101.7223,N,12125.5562,E,1,00,00015.913,M 
$GPGGA,230223.000,3101.7227,N,12125.5560,E,1,00,00016.459,M 
$GPGGA,230224.000,3101.7231,N,12125.5559,E,1,00,00016.459,M 
$GPGGA,230224.000,3101.7235,N,12125.5557,E,1,00,00017.331,M 
$GPGGA,230225.000,3101.7240,N,12125.5556,E,1,00,00017.331,M 
$GPGGA,230225.000,3101.7244,N,12125.5554,E,1,00,00016.162,M 
$GPGGA,230226.000,3101.7249,N,12125.5553,E,1,00,00016.162,M 
$GPGGA,230226.000,3101.7253,N,12125.5552,E,1,00,00015.152,M 
$GPGGA,230227.000,3101.7259,N,12125.5550,E,1,00,00016.014,M 
$GPGGA,230228.000,3101.7263,N,12125.5549,E,1,00,00016.014,M 
$GPGGA,230228.000,3101.7268,N,12125.5547,E,1,00,00015.180,M 
$GPGGA,230229.000,3101.7272,N,12125.5546,E,1,00,00015.180,M 
$GPGGA,230229.000,3101.7276,N,12125.5544,E,1,00,00014.180,M 
$GPGGA,230230.000,3101.7281,N,12125.5542,E,1,00,00014.180,M 
$GPGGA,230230.000,3101.7285,N,12125.5540,E,1,00,00012.890,M 
$GPGGA,230231.000,3101.7289,N,12125.5538,E,1,00,00012.890,M 
$GPGGA,230231.000,3101.7293,N,12125.5536,E,1,00,00012.378,M 
$GPGGA,230232.000,3101.7297,N,12125.5534,E,1,00,00012.378,M 
$GPGGA,230232.000,3101.7301,N,12125.5532,E,1,00,00012.300,M 
$GPGGA,230233.000,3101.7304,N,12125.5529,E,1,00,00012.300,M 
$GPGGA,230233.000,3101.7308,N,12125.5527,E,1,00,00010.767,M 
$GPGGA,230234.000,3101.7312,N,12125.5525,E,1,00,00010.767,M 
$GPGGA,230234.000,3101.7315,N,12125.5523,E,1,00,00012.048,M 
$GPGGA,230235.000,3101.7319,N,12125.5521,E,1,00,00012.592,M 
$GPGGA,230236.000,3101.7322,N,12125.5518,E,1,00,00012.593,M 
$GPGGA,230236.000,3101.7326,N,12125.5516,E,1,00,00012.919,M 
$GPGGA,230237.000,3101.7330,N,12125.5514,E,1,00,00012.919,M 
$GPGGA,230237.000,3101.7334,N,12125.5512,E,1,00,00013.351,M 
$GPGGA,230238.000,3101.7337,N,12125.5510,E,1,00,00013.351,M 
$GPGGA,230238.000,3101.7341,N,12125.5508,E,1,00,00012.333,M 
$GPGGA,230239.000,3101.7345,N,12125.5506,E,1,00,00012.333,M 
$GPGGA,230239.000,3101.7349,N,12125.5504,E,1,00,00011.840,M 
$GPGGA,230240.000,3101.7352,N,12125.5502,E,1,00,00011.840,M 
$GPGGA,230240.000,3101.7355,N,12125.5500,E,1,00,00010.849,M 
$GPGGA,230241.000,3101.7359,N,12125.5498,E,1,00,00010.849,M 
$GPGGA,230241.000,3101.7362,N,12125.5496,E,1,00,00010.598,M 
$GPGGA,230242.000,3101.7365,N,12125.5494,E,1,00,00009.676,M 
$GPGGA,230243.000,3101.7369,N,12125.5492,E,1,00,00009.677,M 
$GPGGA,230243.000,3101.7372,N,12125.5490,E,1,00,00009.201,M 
$GPGGA,230244.000,3101.7376,N,12125.5488,E,1,00,00009.202,M 
$GPGGA,230244.000,3101.7379,N,12125.5486,E,1,00,00008.958,M 
$GPGGA,230245.000,3101.7383,N,12125.5484,E,1,00,00008.958,M 
$GPGGA,230245.000,3101.7387,N,12125.5482,E,1,00,00008.716,M 
$GPGGA,230246.000,3101.7391,N,12125.5480,E,1,00,00008.716,M 
$GPGGA,230246.000,3101.7394,N,12125.5478,E,1,00,00009.669,M 
$GPGGA,230247.000,3101.7396,N,12125.5477,E,1,00,00009.465,M 
$GPGGA,230248.000,3101.7398,N,12125.5477,E,1,00,00011.032,M 
$GPGGA,230251.000,3101.7399,N,12125.5482,E,1,00,00012.055,M 
$GPGGA,230252.000,3101.7400,N,12125.5486,E,1,00,00012.055,M 
$GPGGA,230252.000,3101.7401,N,12125.5491,E,1,00,00012.475,M 
$GPGGA,230253.000,3101.7402,N,12125.5496,E,1,00,00012.475,M 
$GPGGA,230253.000,3101.7404,N,12125.5500,E,1,00,00012.854,M 
$GPGGA,230254.000,3101.7405,N,12125.5505,E,1,00,00012.854,M 
$GPGGA,230254.000,3101.7407,N,12125.5509,E,1,00,00013.664,M 
$GPGGA,230255.000,3101.7409,N,12125.5514,E,1,00,00013.880,M 
$GPGGA,230256.000,3101.7410,N,12125.5518,E,1,00,00013.880,M 
$GPGGA,230256.000,3101.7412,N,12125.5522,E,1,00,00014.049,M 
$GPGGA,230257.000,3101.7414,N,12125.5526,E,1,00,00014.049,M 
$GPGGA,230257.000,3101.7416,N,12125.5529,E,1,00,00013.044,M 
$GPGGA,230258.000,3101.7418,N,12125.5533,E,1,00,00013.043,M 
$GPGGA,230258.000,3101.7419,N,12125.5537,E,1,00,00012.392,M 
$GPGGA,230259.000,3101.7421,N,12125.5540,E,1,00,00012.392,M 
$GPGGA,230259.000,3101.7423,N,12125.5543,E,1,00,00010.851,M 
$GPGGA,230300.000,3101.7425,N,12125.5547,E,1,00,00010.851,M 
$GPGGA,230300.000,3101.7427,N,12125.5550,E,1,00,00010.477,M 
$GPGGA,230301.000,3101.7428,N,12125.5554,E,1,00,00010.477,M 
$GPGGA,230301.000,3101.7430,N,12125.5558,E,1,00,00010.330,M 
$GPGGA,230302.000,3101.7432,N,12125.5562,E,1,00,00010.064,M 
$GPGGA,230303.000,3101.7434,N,12125.5565,E,1,00,00010.064,M 
$GPGGA,230303.000,3101.7436,N,12125.5570,E,1,00,00009.365,M 
$GPGGA,230304.000,3101.7438,N,12125.5573,E,1,00,00009.365,M 
$GPGGA,230304.000,3101.7440,N,12125.5577,E,1,00,00010.241,M 
$GPGGA,230305.000,3101.7442,N,12125.5581,E,1,00,00010.241,M 
$GPGGA,230305.000,3101.7443,N,12125.5585,E,1,00,00010.073,M 
$GPGGA,230306.000,3101.7446,N,12125.5589,E,1,00,00010.073,M 
$GPGGA,230306.000,3101.7447,N,12125.5592,E,1,00,00010.677,M 
$GPGGA,230307.000,3101.7449,N,12125.5596,E,1,00,00010.677,M 
$GPGGA,230307.000,3101.7451,N,12125.5600,E,1,00,00011.762,M 
$GPGGA,230308.000,3101.7453,N,12125.5604,E,1,00,00011.711,M 
$GPGGA,230309.000,3101.7455,N,12125.5608,E,1,00,00011.711,M 
$GPGGA,230309.000,3101.7457,N,12125.5612,E,1,00,00011.943,M 
$GPGGA,230310.000,3101.7458,N,12125.5616,E,1,00,00011.943,M 
$GPGGA,230310.000,3101.7460,N,12125.5620,E,1,00,00011.957,M 
$GPGGA,230311.000,3101.7462,N,12125.5624,E,1,00,00011.957,M 
$GPGGA,230311.000,3101.7464,N,12125.5628,E,1,00,00012.311,M 
$GPGGA,230312.000,3101.7465,N,12125.5632,E,1,00,00012.311,M 
$GPGGA,230312.000,3101.7467,N,12125.5636,E,1,00,00012.867,M 
$GPGGA,230313.000,3101.7468,N,12125.5639,E,1,00,00012.867,M 
$GPGGA,230313.000,3101.7470,N,12125.5643,E,1,00,00012.950,M 
$GPGGA,230314.000,3101.7471,N,12125.5647,E,1,00,00012.581,M 
$GPGGA,230315.000,3101.7473,N,12125.5651,E,1,00,00012.581,M 
$GPGGA,230315.000,3101.7474,N,12125.5654,E,1,00,00012.719,M 
$GPGGA,230316.000,3101.7476,N,12125.5659,E,1,00,00012.718,M 
$GPGGA,230316.000,3101.7478,N,12125.5663,E,1,00,00011.985,M 
$GPGGA,230317.000,3101.7480,N,12125.5667,E,1,00,00011.985,M 
$GPGGA,230317.000,3101.7481,N,12125.5671,E,1,00,00011.773,M 
$GPGGA,230318.000,3101.7483,N,12125.5675,E,1,00,00011.773,M 
$GPGGA,230318.000,3101.7485,N,12125.5679,E,1,00,00011.430,M 
$GPGGA,230319.000,3101.7487,N,12125.5683,E,1,00,00010.910,M 
$GPGGA,230320.000,3101.7489,N,12125.5687,E,1,00,00010.910,M 
$GPGGA,230320.000,3101.7491,N,12125.5691,E,1,00,00010.846,M 
$GPGGA,230321.000,3101.7492,N,12125.5696,E,1,00,00010.846,M 
$GPGGA,230321.000,3101.7494,N,12125.5700,E,1,00,00011.866,M 
$GPGGA,230322.000,3101.7496,N,12125.5705,E,1,00,00011.865,M 
$GPGGA,230322.000,3101.7497,N,12125.5710,E,1,00,00011.397,M 
$GPGGA,230323.000,3101.7499,N,12125.5715,E,1,00,00011.397,M 
$GPGGA,230323.000,3101.7500,N,12125.5719,E,1,00,00012.204,M 
$GPGGA,230324.000,3101.7502,N,12125.5724,E,1,00,00011.556,M 
$GPGGA,230325.000,3101.7504,N,12125.5729,E,1,00,00011.556,M 
$GPGGA,230325.000,3101.7505,N,12125.5734,E,1,00,00011.938,M 
$GPGGA,230326.000,3101.7507,N,12125.5739,E,1,00,00011.938,M 
$GPGGA,230326.000,3101.7508,N,12125.5744,E,1,00,00011.229,M 
$GPGGA,230327.000,3101.7509,N,12125.5748,E,1,00,00011.229,M 
$GPGGA,230327.000,3101.7511,N,12125.5753,E,1,00,00011.245,M 
$GPGGA,230328.000,3101.7512,N,12125.5757,E,1,00,00011.245,M 
$GPGGA,230328.000,3101.7513,N,12125.5762,E,1,00,00011.335,M 
$GPGGA,230329.000,3101.7514,N,12125.5767,E,1,00,00011.335,M 
$GPGGA,230329.000,3101.7515,N,12125.5772,E,1,00,00011.170,M 
$GPGGA,230330.000,3101.7516,N,12125.5777,E,1,00,00011.170,M 
$GPGGA,230330.000,3101.7516,N,12125.5781,E,1,00,00010.834,M 
$GPGGA,230331.000,3101.7517,N,12125.5786,E,1,00,00010.774,M 
$GPGGA,230332.000,3101.7518,N,12125.5791,E,1,00,00010.774,M 
$GPGGA,230332.000,3101.7519,N,12125.5796,E,1,00,00009.788,M 
$GPGGA,230333.000,3101.7520,N,12125.5801,E,1,00,00009.788,M 
$GPGGA,230333.000,3101.7522,N,12125.5805,E,1,00,00010.890,M 
$GPGGA,230334.000,3101.7523,N,12125.5810,E,1,00,00010.890,M 
$GPGGA,230334.000,3101.7524,N,12125.5815,E,1,00,00009.940,M 
$GPGGA,230335.000,3101.7525,N,12125.5819,E,1,00,00009.940,M 
$GPGGA,230335.000,3101.7527,N,12125.5824,E,1,00,00008.458,M 
$GPGGA,230336.000,3101.7528,N,12125.5828,E,1,00,00008.458,M 
$GPGGA,230336.000,3101.7529,N,12125.5833,E,1,00,00008.942,M 
$GPGGA,230337.000,3101.7530,N,12125.5837,E,1,00,00008.941,M 
$GPGGA,230337.000,3101.7531,N,12125.5841,E,1,00,00010.955,M 
$GPGGA,230338.000,3101.7533,N,12125.5846,E,1,00,00011.597,M 
$GPGGA,230339.000,3101.7534,N,12125.5851,E,1,00,00011.597,M 
$GPGGA,230339.000,3101.7535,N,12125.5855,E,1,00,00011.373,M 
$GPGGA,230340.000,3101.7536,N,12125.5860,E,1,00,00011.373,M 
$GPGGA,230340.000,3101.7537,N,12125.5864,E,1,00,00011.346,M 
$GPGGA,230341.000,3101.7539,N,12125.5869,E,1,00,00011.346,M 
$GPGGA,230341.000,3101.7540,N,12125.5874,E,1,00,00010.752,M 
$GPGGA,230342.000,3101.7542,N,12125.5878,E,1,00,00010.752,M 
$GPGGA,230342.000,3101.7544,N,12125.5883,E,1,00,00012.261,M 
$GPGGA,230343.000,3101.7545,N,12125.5888,E,1,00,00012.261,M 
$GPGGA,230343.000,3101.7547,N,12125.5892,E,1,00,00011.269,M 
$GPGGA,230344.000,3101.7549,N,12125.5897,E,1,00,00011.269,M 
$GPGGA,230344.000,3101.7551,N,12125.5901,E,1,00,00011.968,M 
$GPGGA,230345.000,3101.7553,N,12125.5905,E,1,00,00011.968,M 
$GPGGA,230345.000,3101.7555,N,12125.5910,E,1,00,00013.222,M 
$GPGGA,230346.000,3101.7558,N,12125.5914,E,1,00,00013.222,M 
$GPGGA,230346.000,3101.7560,N,12125.5918,E,1,00,00012.962,M 
$GPGGA,230347.000,3101.7562,N,12125.5921,E,1,00,00014.106,M 
$GPGGA,230348.000,3101.7564,N,12125.5925,E,1,00,00014.106,M 
$GPGGA,230348.000,3101.7567,N,12125.5929,E,1,00,00014.701,M 
$GPGGA,230349.000,3101.7569,N,12125.5932,E,1,00,00014.701,M 
$GPGGA,230349.000,3101.7571,N,12125.5936,E,1,00,00014.140,M 
$GPGGA,230350.000,3101.7574,N,12125.5939,E,1,00,00014.140,M 
$GPGGA,230350.000,3101.7576,N,12125.5943,E,1,00,00015.078,M 
$GPGGA,230351.000,3101.7578,N,12125.5946,E,1,00,00015.078,M 
$GPGGA,230351.000,3101.7581,N,12125.5949,E,1,00,00015.940,M 
$GPGGA,230352.000,3101.7583,N,12125.5952,E,1,00,00015.940,M 
$GPGGA,230352.000,3101.7585,N,12125.5954,E,1,00,00017.412,M 
$GPGGA,230353.000,3101.7586,N,12125.5956,E,1,00,00017.558,M 
$GPGGA,230354.000,3101.7588,N,12125.5959,E,1,00,00017.558,M 
$GPGGA,230354.000,3101.7590,N,12125.5962,E,1,00,00017.824,M 
$GPGGA,230355.000,3101.7591,N,12125.5961,E,1,00,00011.773,M 
$GPGGA,230403.000,3101.7593,N,12125.5963,E,1,00,00012.086,M 
$GPGGA,230404.000,3101.7595,N,12125.5964,E,1,00,00012.086,M 
$GPGGA,230404.000,3101.7598,N,12125.5966,E,1,00,00011.187,M 
$GPGGA,230405.000,3101.7599,N,12125.5967,E,1,00,00011.231,M 
$GPGGA,230406.000,3101.7601,N,12125.5968,E,1,00,00011.231,M 
$GPGGA,230406.000,3101.7603,N,12125.5969,E,1,00,00011.076,M 
$GPGGA,230407.000,3101.7605,N,12125.5971,E,1,00,00011.076,M 
$GPGGA,230407.000,3101.7606,N,12125.5972,E,1,00,00011.236,M 
$GPGGA,230408.000,3101.7608,N,12125.5973,E,1,00,00011.236,M 
$GPGGA,230408.000,3101.7610,N,12125.5975,E,1,00,00013.024,M 
$GPGGA,230409.000,3101.7611,N,12125.5976,E,1,00,00013.024,M 
$GPGGA,230409.000,3101.7613,N,12125.5977,E,1,00,00016.271,M 
$GPGGA,230410.000,3101.7614,N,12125.5978,E,1,00,00019.795,M 
$GPGGA,230411.000,3101.7615,N,12125.5979,E,1,00,00019.795,M 
$GPGGA,230411.000,3101.7616,N,12125.5980,E,1,00,00021.495,M 
$GPGGA,230412.000,3101.7617,N,12125.5979,E,1,00,00014.771,M 
$GPGGA,230422.000,3101.7620,N,12125.5980,E,1,00,00014.771,M 
$GPGGA,230422.000,3101.7623,N,12125.5982,E,1,00,00015.323,M 
$GPGGA,230423.000,3101.7625,N,12125.5984,E,1,00,00014.820,M 
$GPGGA,230424.000,3101.7628,N,12125.5985,E,1,00,00014.820,M 
$GPGGA,230424.000,3101.7631,N,12125.5987,E,1,00,00013.792,M 
$GPGGA,230425.000,3101.7634,N,12125.5988,E,1,00,00008.676,M 
$GPGGA,230426.000,3101.7637,N,12125.5991,E,1,00,00008.676,M 
$GPGGA,230426.000,3101.7639,N,12125.5995,E,1,00,00000.619,M 
$GPGGA,230427.000,3101.7641,N,12125.6000,E,1,00,00000.619,M 
$GPGGA,230427.000,3101.7643,N,12125.6006,E,1,00,-0002.165,M 
$GPGGA,230428.000,3101.7645,N,12125.6014,E,1,00,-0002.614,M 
$GPGGA,230429.000,3101.7647,N,12125.6022,E,1,00,-0002.614,M 
$GPGGA,230429.000,3101.7648,N,12125.6030,E,1,00,-0004.111,M 
$GPGGA,230430.000,3101.7650,N,12125.6039,E,1,00,-0004.111,M 
$GPGGA,230430.000,3101.7651,N,12125.6047,E,1,00,00000.683,M 
$GPGGA,230431.000,3101.7653,N,12125.6055,E,1,00,00012.024,M 
$GPGGA,230432.000,3101.7655,N,12125.6062,E,1,00,00012.023,M 
$GPGGA,230432.000,3101.7658,N,12125.6069,E,1,00,00014.266,M 
$GPGGA,230433.000,3101.7660,N,12125.6075,E,1,00,00014.266,M 
$GPGGA,230433.000,3101.7662,N,12125.6081,E,1,00,00014.772,M 
$GPGGA,230434.000,3101.7665,N,12125.6086,E,1,00,00016.233,M 
$GPGGA,230435.000,3101.7667,N,12125.6092,E,1,00,00016.232,M 
$GPGGA,230435.000,3101.7670,N,12125.6098,E,1,00,00015.624,M 
$GPGGA,230436.000,3101.7671,N,12125.6103,E,1,00,00015.624,M 
$GPGGA,230436.000,3101.7673,N,12125.6108,E,1,00,00016.089,M 
$GPGGA,230437.000,3101.7674,N,12125.6113,E,1,00,00016.089,M 
$GPGGA,230437.000,3101.7675,N,12125.6118,E,1,00,00012.357,M 
$GPGGA,230438.000,3101.7676,N,12125.6122,E,1,00,00012.520,M 
$GPGGA,230439.000,3101.7678,N,12125.6126,E,1,00,00012.520,M 
$GPGGA,230439.000,3101.7679,N,12125.6130,E,1,00,00011.240,M 
$GPGGA,230440.000,3101.7680,N,12125.6134,E,1,00,00011.240,M 
$GPGGA,230440.000,3101.7681,N,12125.6137,E,1,00,00011.940,M 
$GPGGA,230441.000,3101.7682,N,12125.6141,E,1,00,00010.622,M 
$GPGGA,230442.000,3101.7684,N,12125.6144,E,1,00,00010.622,M 
$GPGGA,230442.000,3101.7685,N,12125.6147,E,1,00,00009.753,M 
$GPGGA,230443.000,3101.7686,N,12125.6150,E,1,00,00009.753,M 
$GPGGA,230443.000,3101.7687,N,12125.6153,E,1,00,00008.297,M 
$GPGGA,230444.000,3101.7688,N,12125.6156,E,1,00,00008.861,M 
$GPGGA,230445.000,3101.7690,N,12125.6160,E,1,00,00008.861,M 
$GPGGA,230445.000,3101.7691,N,12125.6163,E,1,00,00008.925,M 
$GPGGA,230446.000,3101.7693,N,12125.6166,E,1,00,00009.186,M 
$GPGGA,230447.000,3101.7695,N,12125.6170,E,1,00,00009.186,M 
$GPGGA,230447.000,3101.7697,N,12125.6173,E,1,00,00010.140,M 
$GPGGA,230448.000,3101.7699,N,12125.6176,E,1,00,00010.140,M 
$GPGGA,230448.000,3101.7701,N,12125.6179,E,1,00,00022.685,M 
$GPGGA,230449.000,3101.7704,N,12125.6183,E,1,00,00022.685,M 
$GPGGA,230449.000,3101.7707,N,12125.6186,E,1,00,00022.252,M 
$GPGGA,230450.000,3101.7709,N,12125.6189,E,1,00,00019.176,M 
$GPGGA,230451.000,3101.7712,N,12125.6192,E,1,00,00019.176,M 
$GPGGA,230451.000,3101.7714,N,12125.6196,E,1,00,00016.221,M 
$GPGGA,230452.000,3101.7716,N,12125.6200,E,1,00,00016.221,M 
$GPGGA,230452.000,3101.7717,N,12125.6204,E,1,00,00013.828,M 
$GPGGA,230453.000,3101.7719,N,12125.6209,E,1,00,00011.917,M 
$GPGGA,230454.000,3101.7721,N,12125.6214,E,1,00,00011.917,M 
$GPGGA,230454.000,3101.7723,N,12125.6219,E,1,00,00011.073,M 
$GPGGA,230455.000,3101.7726,N,12125.6225,E,1,00,00011.073,M 
$GPGGA,230455.000,3101.7728,N,12125.6231,E,1,00,00008.817,M 
$GPGGA,230456.000,3101.7730,N,12125.6237,E,1,00,00008.817,M 
$GPGGA,230456.000,3101.7731,N,12125.6244,E,1,00,00004.574,M 
$GPGGA,230457.000,3101.7733,N,12125.6251,E,1,00,00007.504,M 
$GPGGA,230458.000,3101.7734,N,12125.6258,E,1,00,00007.504,M 
$GPGGA,230458.000,3101.7736,N,12125.6265,E,1,00,00006.617,M 
$GPGGA,230459.000,3101.7737,N,12125.6272,E,1,00,00006.617,M 
$GPGGA,230459.000,3101.7737,N,12125.6280,E,1,00,00009.985,M 
$GPGGA,230500.000,3101.7738,N,12125.6287,E,1,00,00009.985,M 
$GPGGA,230500.000,3101.7739,N,12125.6293,E,1,00,00013.263,M 
$GPGGA,230501.000,3101.7739,N,12125.6300,E,1,00,00011.645,M 
$GPGGA,230502.000,3101.7739,N,12125.6307,E,1,00,00011.645,M 
$GPGGA,230502.000,3101.7739,N,12125.6314,E,1,00,00012.856,M 
$GPGGA,230503.000,3101.7739,N,12125.6321,E,1,00,00012.856,M 
$GPGGA,230503.000,3101.7739,N,12125.6328,E,1,00,00016.092,M 
$GPGGA,230504.000,3101.7739,N,12125.6334,E,1,00,00016.092,M 
$GPGGA,230504.000,3101.7739,N,12125.6340,E,1,00,00015.786,M 
$GPGGA,230505.000,3101.7739,N,12125.6346,E,1,00,00015.786,M 
$GPGGA,230505.000,3101.7739,N,12125.6352,E,1,00,00017.717,M 
$GPGGA,230506.000,3101.7739,N,12125.6357,E,1,00,00019.941,M 
$GPGGA,230507.000,3101.7741,N,12125.6363,E,1,00,00019.941,M 
$GPGGA,230507.000,3101.7742,N,12125.6368,E,1,00,00018.699,M 
$GPGGA,230508.000,3101.7743,N,12125.6374,E,1,00,00018.699,M 
$GPGGA,230508.000,3101.7744,N,12125.6379,E,1,00,00022.213,M 
$GPGGA,230509.000,3101.7746,N,12125.6384,E,1,00,00020.721,M 
$GPGGA,230510.000,3101.7747,N,12125.6389,E,1,00,00020.721,M 
$GPGGA,230510.000,3101.7749,N,12125.6394,E,1,00,00021.938,M 
$GPGGA,230511.000,3101.7751,N,12125.6399,E,1,00,00021.938,M 
$GPGGA,230511.000,3101.7753,N,12125.6404,E,1,00,00020.777,M 
$GPGGA,230512.000,3101.7755,N,12125.6409,E,1,00,00020.777,M 
$GPGGA,230512.000,3101.7756,N,12125.6414,E,1,00,00017.663,M 
$GPGGA,230513.000,3101.7757,N,12125.6419,E,1,00,00015.640,M 
$GPGGA,230514.000,3101.7758,N,12125.6425,E,1,00,00015.640,M 
$GPGGA,230514.000,3101.7758,N,12125.6430,E,1,00,00016.444,M 
$GPGGA,230515.000,3101.7758,N,12125.6436,E,1,00,00016.443,M 
$GPGGA,230515.000,3101.7759,N,12125.6442,E,1,00,00016.099,M 
$GPGGA,230516.000,3101.7759,N,12125.6447,E,1,00,00014.100,M 
$GPGGA,230517.000,3101.7760,N,12125.6452,E,1,00,00014.099,M 
$GPGGA,230517.000,3101.7760,N,12125.6458,E,1,00,00012.201,M 
$GPGGA,230518.000,3101.7761,N,12125.6463,E,1,00,00012.201,M 
$GPGGA,230518.000,3101.7762,N,12125.6468,E,1,00,00011.454,M 
$GPGGA,230519.000,3101.7763,N,12125.6473,E,1,00,00011.282,M 
$GPGGA,230520.000,3101.7764,N,12125.6478,E,1,00,00011.282,M 
$GPGGA,230520.000,3101.7765,N,12125.6483,E,1,00,00011.004,M 
$GPGGA,230521.000,3101.7765,N,12125.6488,E,1,00,00011.004,M 
$GPGGA,230521.000,3101.7766,N,12125.6493,E,1,00,00011.057,M 
$GPGGA,230522.000,3101.7766,N,12125.6498,E,1,00,00011.057,M 
$GPGGA,230522.000,3101.7767,N,12125.6503,E,1,00,00008.766,M 
$GPGGA,230523.000,3101.7768,N,12125.6508,E,1,00,00009.438,M 
$GPGGA,230524.000,3101.7768,N,12125.6512,E,1,00,00009.438,M 
$GPGGA,230524.000,3101.7769,N,12125.6517,E,1,00,00009.585,M 
$GPGGA,230525.000,3101.7770,N,12125.6522,E,1,00,00009.585,M 
$GPGGA,230525.000,3101.7770,N,12125.6527,E,1,00,00010.841,M 
$GPGGA,230526.000,3101.7771,N,12125.6532,E,1,00,00010.841,M 
$GPGGA,230526.000,3101.7772,N,12125.6537,E,1,00,00010.844,M 
$GPGGA,230527.000,3101.7773,N,12125.6542,E,1,00,00010.225,M 
$GPGGA,230528.000,3101.7774,N,12125.6547,E,1,00,00010.225,M 
$GPGGA,230528.000,3101.7775,N,12125.6552,E,1,00,00008.991,M 
$GPGGA,230529.000,3101.7776,N,12125.6558,E,1,00,00008.991,M 
$GPGGA,230529.000,3101.7777,N,12125.6563,E,1,00,00011.199,M 
$GPGGA,230530.000,3101.7778,N,12125.6568,E,1,00,00010.731,M 
$GPGGA,230531.000,3101.7779,N,12125.6573,E,1,00,00010.731,M 
$GPGGA,230531.000,3101.7780,N,12125.6578,E,1,00,00011.898,M 
$GPGGA,230532.000,3101.7782,N,12125.6583,E,1,00,00011.898,M 
$GPGGA,230532.000,3101.7783,N,12125.6588,E,1,00,00011.247,M 
$GPGGA,230533.000,3101.7784,N,12125.6593,E,1,00,00011.247,M 
$GPGGA,230533.000,3101.7785,N,12125.6597,E,1,00,00010.925,M 
$GPGGA,230534.000,3101.7786,N,12125.6602,E,1,00,00010.329,M 
$GPGGA,230535.000,3101.7787,N,12125.6607,E,1,00,00010.329,M 
$GPGGA,230535.000,3101.7788,N,12125.6612,E,1,00,00009.512,M 
$GPGGA,230536.000,3101.7789,N,12125.6617,E,1,00,00009.512,M 
$GPGGA,230536.000,3101.7791,N,12125.6621,E,1,00,00010.904,M 
$GPGGA,230537.000,3101.7792,N,12125.6626,E,1,00,00010.904,M 
$GPGGA,230537.000,3101.7792,N,12125.6631,E,1,00,00011.436,M 
$GPGGA,230538.000,3101.7793,N,12125.6636,E,1,00,00010.623,M 
$GPGGA,230539.000,3101.7794,N,12125.6641,E,1,00,00010.622,M 
$GPGGA,230539.000,3101.7795,N,12125.6646,E,1,00,00009.582,M 
$GPGGA,230540.000,3101.7796,N,12125.6651,E,1,00,00009.582,M 
$GPGGA,230540.000,3101.7798,N,12125.6656,E,1,00,00009.161,M 
$GPGGA,230541.000,3101.7799,N,12125.6661,E,1,00,00009.234,M 
$GPGGA,230542.000,3101.7801,N,12125.6666,E,1,00,00009.234,M 
$GPGGA,230542.000,3101.7803,N,12125.6671,E,1,00,00008.106,M 
$GPGGA,230543.000,3101.7804,N,12125.6676,E,1,00,00008.106,M 
$GPGGA,230543.000,3101.7806,N,12125.6681,E,1,00,00008.797,M 
$GPGGA,230544.000,3101.7808,N,12125.6685,E,1,00,00008.797,M 
$GPGGA,230544.000,3101.7809,N,12125.6690,E,1,00,00009.132,M 
$GPGGA,230545.000,3101.7810,N,12125.6694,E,1,00,00009.825,M 
$GPGGA,230546.000,3101.7811,N,12125.6699,E,1,00,00009.824,M 
$GPGGA,230546.000,3101.7812,N,12125.6704,E,1,00,00009.261,M 
$GPGGA,230547.000,3101.7813,N,12125.6709,E,1,00,00009.261,M 
$GPGGA,230547.000,3101.7814,N,12125.6713,E,1,00,00010.149,M 
$GPGGA,230548.000,3101.7816,N,12125.6718,E,1,00,00010.149,M 
$GPGGA,230548.000,3101.7817,N,12125.6724,E,1,00,00009.206,M 
$GPGGA,230549.000,3101.7818,N,12125.6729,E,1,00,00008.860,M 
$GPGGA,230550.000,3101.7820,N,12125.6734,E,1,00,00008.860,M 
$GPGGA,230550.000,3101.7821,N,12125.6739,E,1,00,00009.001,M 
$GPGGA,230551.000,3101.7823,N,12125.6744,E,1,00,00009.001,M 
$GPGGA,230551.000,3101.7824,N,12125.6749,E,1,00,00009.263,M 
$GPGGA,230552.000,3101.7826,N,12125.6754,E,1,00,00009.263,M 
$GPGGA,230552.000,3101.7827,N,12125.6759,E,1,00,00010.997,M 
$GPGGA,230553.000,3101.7829,N,12125.6764,E,1,00,00010.068,M 
$GPGGA,230554.000,3101.7831,N,12125.6769,E,1,00,00010.068,M 
$GPGGA,230554.000,3101.7832,N,12125.6774,E,1,00,00009.474,M 
$GPGGA,230555.000,3101.7834,N,12125.6779,E,1,00,00009.474,M 
$GPGGA,230555.000,3101.7835,N,12125.6783,E,1,00,00011.017,M 
$GPGGA,230556.000,3101.7836,N,12125.6788,E,1,00,00010.892,M 
$GPGGA,230557.000,3101.7837,N,12125.6793,E,1,00,00010.892,M 
$GPGGA,230557.000,3101.7838,N,12125.6798,E,1,00,00010.488,M 
$GPGGA,230558.000,3101.7839,N,12125.6802,E,1,00,00010.488,M 
$GPGGA,230558.000,3101.7840,N,12125.6807,E,1,00,00011.206,M 
$GPGGA,230559.000,3101.7841,N,12125.6811,E,1,00,00011.206,M 
$GPGGA,230559.000,3101.7842,N,12125.6816,E,1,00,00010.639,M 
$GPGGA,230600.000,3101.7843,N,12125.6820,E,1,00,00009.582,M 
$GPGGA,230601.000,3101.7844,N,12125.6825,E,1,00,00009.582,M 
$GPGGA,230601.000,3101.7845,N,12125.6829,E,1,00,00011.397,M 
$GPGGA,230602.000,3101.7846,N,12125.6834,E,1,00,00011.397,M 
$GPGGA,230602.000,3101.7847,N,12125.6838,E,1,00,00011.255,M 
$GPGGA,230603.000,3101.7848,N,12125.6842,E,1,00,00011.255,M 
$GPGGA,230603.000,3101.7849,N,12125.6846,E,1,00,00011.114,M 
$GPGGA,230604.000,3101.7851,N,12125.6851,E,1,00,00010.956,M 
$GPGGA,230605.000,3101.7852,N,12125.6855,E,1,00,00010.956,M 
$GPGGA,230605.000,3101.7853,N,12125.6859,E,1,00,00011.119,M 
$GPGGA,230606.000,3101.7855,N,12125.6864,E,1,00,00011.119,M 
$GPGGA,230606.000,3101.7856,N,12125.6868,E,1,00,00010.783,M 
$GPGGA,230607.000,3101.7857,N,12125.6872,E,1,00,00010.783,M 
