$GPGGA,231345.000,3101.6624,N,12125.5713,E,1,00,-0018.029,M 
$GPGGA,231357.000,3101.6623,N,12125.5711,E,1,00,-0018.029,M 
$GPGGA,231357.000,3101.6623,N,12125.5709,E,1,00,-0025.508,M 
$GPGGA,231358.000,3101.6623,N,12125.5709,E,1,00,-0028.816,M 
$GPGGA,231359.000,3101.6622,N,12125.5708,E,1,00,-0028.816,M 
$GPGGA,231359.000,3101.6621,N,12125.5708,E,1,00,-0029.422,M 
$GPGGA,231400.000,3101.6619,N,12125.5708,E,1,00,-0029.422,M 
$GPGGA,231400.000,3101.6617,N,12125.5708,E,1,00,-0031.520,M 
$GPGGA,231401.000,3101.6615,N,12125.5707,E,1,00,-0031.520,M 
$GPGGA,231401.000,3101.6614,N,12125.5707,E,1,00,-0031.634,M 
$GPGGA,231402.000,3101.6612,N,12125.5706,E,1,00,-0031.634,M 
$GPGGA,231402.000,3101.6610,N,12125.5705,E,1,00,-0028.806,M 
$GPGGA,231403.000,3101.6609,N,12125.5704,E,1,00,-0023.410,M 
$GPGGA,231404.000,3101.6608,N,12125.5703,E,1,00,-0023.410,M 
$GPGGA,231404.000,3101.6607,N,12125.5701,E,1,00,-0017.718,M 
$GPGGA,231405.000,3101.6606,N,12125.5699,E,1,00,-0017.718,M 
$GPGGA,231405.000,3101.6605,N,12125.5698,E,1,00,-0014.661,M 
$GPGGA,231406.000,3101.6605,N,12125.5696,E,1,00,-0014.661,M 
$GPGGA,231406.000,3101.6604,N,12125.5694,E,1,00,-0009.590,M 
$GPGGA,231407.000,3101.6604,N,12125.5692,E,1,00,-0009.590,M 
$GPGGA,231407.000,3101.6604,N,12125.5690,E,1,00,-0007.457,M 
$GPGGA,231408.000,3101.6604,N,12125.5688,E,1,00,-0007.457,M 
$GPGGA,231408.000,3101.6605,N,12125.5687,E,1,00,-0002.466,M 
$GPGGA,231409.000,3101.6605,N,12125.5685,E,1,00,-0002.466,M 
$GPGGA,231409.000,3101.6605,N,12125.5683,E,1,00,00000.256,M 
$GPGGA,231410.000,3101.6606,N,12125.5681,E,1,00,00004.591,M 
$GPGGA,231411.000,3101.6606,N,12125.5678,E,1,00,00004.591,M 
$GPGGA,231411.000,3101.6606,N,12125.5675,E,1,00,00005.681,M 
$GPGGA,231412.000,3101.6607,N,12125.5672,E,1,00,00005.682,M 
$GPGGA,231412.000,3101.6607,N,12125.5670,E,1,00,00006.415,M 
$GPGGA,231413.000,3101.6608,N,12125.5667,E,1,00,00006.415,M 
$GPGGA,231413.000,3101.6609,N,12125.5664,E,1,00,00008.689,M 
$GPGGA,231414.000,3101.6609,N,12125.5661,E,1,00,00008.689,M 
$GPGGA,231414.000,3101.6610,N,12125.5658,E,1,00,00010.278,M 
$GPGGA,231415.000,3101.6610,N,12125.5655,E,1,00,00010.278,M 
$GPGGA,231415.000,3101.6611,N,12125.5652,E,1,00,00009.012,M 
$GPGGA,231416.000,3101.6611,N,12125.5649,E,1,00,00009.012,M 
$GPGGA,231416.000,3101.6611,N,12125.5646,E,1,00,00011.011,M 
$GPGGA,231417.000,3101.6612,N,12125.5643,E,1,00,00010.922,M 
$GPGGA,231418.000,3101.6612,N,12125.5639,E,1,00,00010.922,M 
$GPGGA,231418.000,3101.6612,N,12125.5636,E,1,00,00010.707,M 
$GPGGA,231419.000,3101.6612,N,12125.5632,E,1,00,00010.707,M 
$GPGGA,231419.000,3101.6612,N,12125.5628,E,1,00,00013.214,M 
$GPGGA,231420.000,3101.6610,N,12125.5624,E,1,00,00013.214,M 
$GPGGA,231420.000,3101.6609,N,12125.5621,E,1,00,00013.046,M 
$GPGGA,231421.000,3101.6608,N,12125.5617,E,1,00,00013.046,M 
$GPGGA,231421.000,3101.6606,N,12125.5613,E,1,00,00015.680,M 
$GPGGA,231422.000,3101.6604,N,12125.5609,E,1,00,00015.493,M 
$GPGGA,231423.000,3101.6602,N,12125.5605,E,1,00,00015.493,M 
$GPGGA,231423.000,3101.6600,N,12125.5601,E,1,00,00016.331,M 
$GPGGA,231424.000,3101.6598,N,12125.5598,E,1,00,00016.331,M 
$GPGGA,231424.000,3101.6596,N,12125.5594,E,1,00,00017.427,M 
$GPGGA,231425.000,3101.6594,N,12125.5590,E,1,00,00017.427,M 
$GPGGA,231425.000,3101.6592,N,12125.5586,E,1,00,00018.234,M 
$GPGGA,231426.000,3101.6591,N,12125.5582,E,1,00,00018.234,M 
$GPGGA,231426.000,3101.6589,N,12125.5578,E,1,00,00020.664,M 
$GPGGA,231427.000,3101.6588,N,12125.5575,E,1,00,00020.664,M 
$GPGGA,231427.000,3101.6586,N,12125.5571,E,1,00,00020.626,M 
$GPGGA,231428.000,3101.6585,N,12125.5567,E,1,00,00020.626,M 
$GPGGA,231428.000,3101.6584,N,12125.5563,E,1,00,00022.135,M 
$GPGGA,231429.000,3101.6583,N,12125.5559,E,1,00,00021.642,M 
$GPGGA,231430.000,3101.6582,N,12125.5554,E,1,00,00021.642,M 
$GPGGA,231430.000,3101.6581,N,12125.5550,E,1,00,00021.870,M 
$GPGGA,231431.000,3101.6580,N,12125.5545,E,1,00,00021.870,M 
$GPGGA,231431.000,3101.6579,N,12125.5541,E,1,00,00023.080,M 
$GPGGA,231432.000,3101.6578,N,12125.5537,E,1,00,00023.081,M 
$GPGGA,231432.000,3101.6577,N,12125.5533,E,1,00,00024.600,M 
$GPGGA,231433.000,3101.6576,N,12125.5529,E,1,00,00024.600,M 
$GPGGA,231433.000,3101.6575,N,12125.5524,E,1,00,00027.559,M 
$GPGGA,231434.000,3101.6575,N,12125.5520,E,1,00,00027.559,M 
$GPGGA,231434.000,3101.6574,N,12125.5515,E,1,00,00027.838,M 
$GPGGA,231435.000,3101.6574,N,12125.5510,E,1,00,00027.838,M 
$GPGGA,231435.000,3101.6573,N,12125.5506,E,1,00,00027.844,M 
$GPGGA,231436.000,3101.6573,N,12125.5501,E,1,00,00025.680,M 
$GPGGA,231437.000,3101.6573,N,12125.5496,E,1,00,00025.680,M 
$GPGGA,231437.000,3101.6573,N,12125.5491,E,1,00,00025.111,M 
$GPGGA,231438.000,3101.6573,N,12125.5487,E,1,00,00025.111,M 
$GPGGA,231438.000,3101.6572,N,12125.5483,E,1,00,00025.079,M 
$GPGGA,231439.000,3101.6571,N,12125.5479,E,1,00,00025.079,M 
$GPGGA,231439.000,3101.6571,N,12125.5475,E,1,00,00025.300,M 
$GPGGA,231440.000,3101.6570,N,12125.5471,E,1,00,00025.301,M 
$GPGGA,231440.000,3101.6569,N,12125.5467,E,1,00,00025.140,M 
$GPGGA,231441.000,3101.6568,N,12125.5463,E,1,00,00025.140,M 
$GPGGA,231441.000,3101.6567,N,12125.5459,E,1,00,00026.495,M 
$GPGGA,231442.000,3101.6567,N,12125.5455,E,1,00,00026.683,M 
$GPGGA,231443.000,3101.6566,N,12125.5450,E,1,00,00026.683,M 
$GPGGA,231443.000,3101.6565,N,12125.5445,E,1,00,00026.199,M 
$GPGGA,231444.000,3101.6563,N,12125.5441,E,1,00,00026.199,M 
$GPGGA,231444.000,3101.6562,N,12125.5436,E,1,00,00025.850,M 
$GPGGA,231445.000,3101.6561,N,12125.5431,E,1,00,00025.851,M 
$GPGGA,231445.000,3101.6560,N,12125.5427,E,1,00,00025.562,M 
$GPGGA,231446.000,3101.6558,N,12125.5423,E,1,00,00025.562,M 
$GPGGA,231446.000,3101.6557,N,12125.5419,E,1,00,00025.618,M 
$GPGGA,231447.000,3101.6556,N,12125.5414,E,1,00,00025.618,M 
$GPGGA,231447.000,3101.6555,N,12125.5410,E,1,00,00026.497,M 
$GPGGA,231448.000,3101.6554,N,12125.5405,E,1,00,00025.985,M 
$GPGGA,231449.000,3101.6554,N,12125.5400,E,1,00,00025.985,M 
$GPGGA,231449.000,3101.6553,N,12125.5396,E,1,00,00025.534,M 
$GPGGA,231450.000,3101.6552,N,12125.5391,E,1,00,00025.534,M 
$GPGGA,231450.000,3101.6551,N,12125.5386,E,1,00,00022.097,M 
$GPGGA,231451.000,3101.6551,N,12125.5381,E,1,00,00022.097,M 
$GPGGA,231451.000,3101.6550,N,12125.5376,E,1,00,00022.523,M 
$GPGGA,231452.000,3101.6549,N,12125.5371,E,1,00,00022.523,M 
$GPGGA,231452.000,3101.6549,N,12125.5366,E,1,00,00022.283,M 
$GPGGA,231453.000,3101.6548,N,12125.5360,E,1,00,00022.283,M 
$GPGGA,231453.000,3101.6547,N,12125.5354,E,1,00,00020.276,M 
$GPGGA,231454.000,3101.6547,N,12125.5349,E,1,00,00019.379,M 
$GPGGA,231455.000,3101.6546,N,12125.5344,E,1,00,00019.380,M 
$GPGGA,231455.000,3101.6546,N,12125.5339,E,1,00,00021.169,M 
$GPGGA,231456.000,3101.6546,N,12125.5333,E,1,00,00021.169,M 
$GPGGA,231456.000,3101.6545,N,12125.5328,E,1,00,00021.578,M 
$GPGGA,231457.000,3101.6545,N,12125.5323,E,1,00,00021.578,M 
$GPGGA,231457.000,3101.6545,N,12125.5319,E,1,00,00021.607,M 
$GPGGA,231458.000,3101.6545,N,12125.5314,E,1,00,00021.607,M 
$GPGGA,231458.000,3101.6544,N,12125.5309,E,1,00,00022.968,M 
$GPGGA,231459.000,3101.6544,N,12125.5304,E,1,00,00022.968,M 
$GPGGA,231459.000,3101.6543,N,12125.5300,E,1,00,00022.708,M 
$GPGGA,231500.000,3101.6543,N,12125.5295,E,1,00,00021.349,M 
$GPGGA,231501.000,3101.6542,N,12125.5290,E,1,00,00021.349,M 
$GPGGA,231501.000,3101.6541,N,12125.5286,E,1,00,00022.580,M 
$GPGGA,231502.000,3101.6540,N,12125.5281,E,1,00,00022.580,M 
$GPGGA,231502.000,3101.6540,N,12125.5276,E,1,00,00024.444,M 
$GPGGA,231503.000,3101.6539,N,12125.5271,E,1,00,00024.444,M 
$GPGGA,231503.000,3101.6538,N,12125.5267,E,1,00,00025.211,M 
$GPGGA,231504.000,3101.6538,N,12125.5262,E,1,00,00025.212,M 
$GPGGA,231504.000,3101.6537,N,12125.5257,E,1,00,00026.566,M 
$GPGGA,231505.000,3101.6536,N,12125.5253,E,1,00,00026.566,M 
$GPGGA,231505.000,3101.6536,N,12125.5249,E,1,00,00027.577,M 
$GPGGA,231506.000,3101.6535,N,12125.5244,E,1,00,00027.578,M 
$GPGGA,231507.000,3101.6534,N,12125.5240,E,1,00,00027.578,M 
$GPGGA,231507.000,3101.6534,N,12125.5236,E,1,00,00029.327,M 
$GPGGA,231508.000,3101.6533,N,12125.5232,E,1,00,00029.327,M 
$GPGGA,231508.000,3101.6532,N,12125.5229,E,1,00,00030.277,M 
$GPGGA,231509.000,3101.6531,N,12125.5224,E,1,00,00030.278,M 
$GPGGA,231509.000,3101.6529,N,12125.5221,E,1,00,00031.429,M 
$GPGGA,231510.000,3101.6528,N,12125.5217,E,1,00,00031.429,M 
$GPGGA,231510.000,3101.6527,N,12125.5213,E,1,00,00033.278,M 
$GPGGA,231511.000,3101.6526,N,12125.5210,E,1,00,00033.278,M 
$GPGGA,231511.000,3101.6525,N,12125.5206,E,1,00,00034.361,M 
$GPGGA,231512.000,3101.6523,N,12125.5202,E,1,00,00034.361,M 
$GPGGA,231512.000,3101.6522,N,12125.5199,E,1,00,00036.071,M 
$GPGGA,231513.000,3101.6520,N,12125.5195,E,1,00,00037.817,M 
$GPGGA,231514.000,3101.6518,N,12125.5190,E,1,00,00037.817,M 
$GPGGA,231514.000,3101.6516,N,12125.5186,E,1,00,00037.346,M 
$GPGGA,231515.000,3101.6514,N,12125.5182,E,1,00,00037.346,M 
$GPGGA,231515.000,3101.6512,N,12125.5177,E,1,00,00038.372,M 
$GPGGA,231516.000,3101.6510,N,12125.5172,E,1,00,00038.372,M 
$GPGGA,231516.000,3101.6509,N,12125.5168,E,1,00,00037.519,M 
$GPGGA,231517.000,3101.6507,N,12125.5163,E,1,00,00037.519,M 
$GPGGA,231517.000,3101.6506,N,12125.5159,E,1,00,00036.173,M 
$GPGGA,231518.000,3101.6505,N,12125.5154,E,1,00,00036.174,M 
$GPGGA,231518.000,3101.6504,N,12125.5149,E,1,00,00033.972,M 
$GPGGA,231519.000,3101.6504,N,12125.5144,E,1,00,00033.664,M 
$GPGGA,231520.000,3101.6503,N,12125.5138,E,1,00,00033.665,M 
$GPGGA,231520.000,3101.6503,N,12125.5133,E,1,00,00026.056,M 
$GPGGA,231521.000,3101.6502,N,12125.5127,E,1,00,00026.056,M 
$GPGGA,231521.000,3101.6501,N,12125.5122,E,1,00,00022.459,M 
$GPGGA,231522.000,3101.6499,N,12125.5116,E,1,00,00022.459,M 
$GPGGA,231522.000,3101.6497,N,12125.5110,E,1,00,00023.686,M 
$GPGGA,231523.000,3101.6495,N,12125.5104,E,1,00,00023.686,M 
$GPGGA,231523.000,3101.6493,N,12125.5099,E,1,00,00019.631,M 
$GPGGA,231524.000,3101.6491,N,12125.5094,E,1,00,00019.631,M 
$GPGGA,231524.000,3101.6488,N,12125.5088,E,1,00,00018.218,M 
$GPGGA,231525.000,3101.6486,N,12125.5083,E,1,00,00018.218,M 
$GPGGA,231525.000,3101.6484,N,12125.5078,E,1,00,00016.418,M 
$GPGGA,231526.000,3101.6482,N,12125.5073,E,1,00,00013.038,M 
$GPGGA,231527.000,3101.6480,N,12125.5067,E,1,00,00013.038,M 
$GPGGA,231527.000,3101.6478,N,12125.5061,E,1,00,00013.513,M 
$GPGGA,231528.000,3101.6477,N,12125.5056,E,1,00,00013.513,M 
$GPGGA,231528.000,3101.6475,N,12125.5050,E,1,00,00012.092,M 
$GPGGA,231529.000,3101.6474,N,12125.5045,E,1,00,00012.093,M 
$GPGGA,231529.000,3101.6473,N,12125.5040,E,1,00,00012.749,M 
$GPGGA,231530.000,3101.6473,N,12125.5034,E,1,00,00012.749,M 
$GPGGA,231530.000,3101.6472,N,12125.5029,E,1,00,00011.450,M 
$GPGGA,231531.000,3101.6471,N,12125.5024,E,1,00,00011.450,M 
$GPGGA,231531.000,3101.6470,N,12125.5019,E,1,00,00011.414,M 
$GPGGA,231532.000,3101.6469,N,12125.5013,E,1,00,00011.414,M 
$GPGGA,231532.000,3101.6468,N,12125.5007,E,1,00,00008.987,M 
$GPGGA,231533.000,3101.6467,N,12125.5002,E,1,00,00009.672,M 
$GPGGA,231534.000,3101.6465,N,12125.4996,E,1,00,00009.673,M 
$GPGGA,231534.000,3101.6464,N,12125.4991,E,1,00,00009.130,M 
$GPGGA,231535.000,3101.6462,N,12125.4986,E,1,00,00009.130,M 
$GPGGA,231535.000,3101.6461,N,12125.4981,E,1,00,00009.597,M 
$GPGGA,231536.000,3101.6459,N,12125.4977,E,1,00,00009.597,M 
$GPGGA,231536.000,3101.6458,N,12125.4973,E,1,00,00011.930,M 
$GPGGA,231537.000,3101.6456,N,12125.4968,E,1,00,00011.930,M 
$GPGGA,231537.000,3101.6455,N,12125.4964,E,1,00,00013.207,M 
$GPGGA,231538.000,3101.6453,N,12125.4959,E,1,00,00013.207,M 
$GPGGA,231538.000,3101.6452,N,12125.4955,E,1,00,00013.213,M 
$GPGGA,231539.000,3101.6450,N,12125.4950,E,1,00,00014.136,M 
$GPGGA,231540.000,3101.6448,N,12125.4945,E,1,00,00014.136,M 
$GPGGA,231540.000,3101.6447,N,12125.4941,E,1,00,00012.610,M 
$GPGGA,231541.000,3101.6445,N,12125.4936,E,1,00,00012.610,M 
$GPGGA,231541.000,3101.6443,N,12125.4930,E,1,00,00012.670,M 
$GPGGA,231542.000,3101.6442,N,12125.4925,E,1,00,00012.670,M 
$GPGGA,231542.000,3101.6441,N,12125.4920,E,1,00,00012.607,M 
$GPGGA,231543.000,3101.6439,N,12125.4915,E,1,00,00012.607,M 
$GPGGA,231543.000,3101.6438,N,12125.4910,E,1,00,00010.786,M 
$GPGGA,231544.000,3101.6437,N,12125.4905,E,1,00,00010.786,M 
$GPGGA,231544.000,3101.6436,N,12125.4900,E,1,00,00010.413,M 
$GPGGA,231545.000,3101.6434,N,12125.4895,E,1,00,00010.563,M 
$GPGGA,231546.000,3101.6433,N,12125.4890,E,1,00,00010.563,M 
$GPGGA,231546.000,3101.6432,N,12125.4885,E,1,00,00009.693,M 
$GPGGA,231547.000,3101.6430,N,12125.4880,E,1,00,00009.693,M 
$GPGGA,231547.000,3101.6429,N,12125.4875,E,1,00,00009.721,M 
$GPGGA,231548.000,3101.6428,N,12125.4870,E,1,00,00009.721,M 
$GPGGA,231548.000,3101.6427,N,12125.4866,E,1,00,00010.393,M 
$GPGGA,231549.000,3101.6426,N,12125.4861,E,1,00,00010.393,M 
$GPGGA,231549.000,3101.6424,N,12125.4856,E,1,00,00010.921,M 
$GPGGA,231550.000,3101.6424,N,12125.4850,E,1,00,00010.921,M 
$GPGGA,231550.000,3101.6423,N,12125.4846,E,1,00,00012.731,M 
$GPGGA,231551.000,3101.6421,N,12125.4840,E,1,00,00011.588,M 
$GPGGA,231552.000,3101.6420,N,12125.4835,E,1,00,00011.588,M 
$GPGGA,231552.000,3101.6419,N,12125.4830,E,1,00,00013.175,M 
$GPGGA,231553.000,3101.6418,N,12125.4825,E,1,00,00013.175,M 
$GPGGA,231553.000,3101.6416,N,12125.4820,E,1,00,00011.452,M 
$GPGGA,231554.000,3101.6415,N,12125.4815,E,1,00,00011.452,M 
$GPGGA,231554.000,3101.6414,N,12125.4810,E,1,00,00013.406,M 
$GPGGA,231555.000,3101.6413,N,12125.4805,E,1,00,00013.406,M 
$GPGGA,231555.000,3101.6412,N,12125.4800,E,1,00,00012.686,M 
$GPGGA,231556.000,3101.6411,N,12125.4796,E,1,00,00012.686,M 
$GPGGA,231556.000,3101.6409,N,12125.4791,E,1,00,00013.005,M 
$GPGGA,231557.000,3101.6408,N,12125.4787,E,1,00,00014.105,M 
$GPGGA,231558.000,3101.6407,N,12125.4782,E,1,00,00014.105,M 
$GPGGA,231558.000,3101.6406,N,12125.4778,E,1,00,00014.626,M 
$GPGGA,231559.000,3101.6406,N,12125.4773,E,1,00,00014.626,M 
$GPGGA,231559.000,3101.6405,N,12125.4769,E,1,00,00016.711,M 
$GPGGA,231600.000,3101.6405,N,12125.4764,E,1,00,00016.712,M 
$GPGGA,231600.000,3101.6404,N,12125.4760,E,1,00,00017.561,M 
$GPGGA,231601.000,3101.6404,N,12125.4755,E,1,00,00017.561,M 
$GPGGA,231601.000,3101.6403,N,12125.4750,E,1,00,00018.927,M 
$GPGGA,231602.000,3101.6402,N,12125.4745,E,1,00,00018.459,M 
$GPGGA,231603.000,3101.6401,N,12125.4741,E,1,00,00018.459,M 
$GPGGA,231603.000,3101.6400,N,12125.4736,E,1,00,00018.002,M 
$GPGGA,231604.000,3101.6399,N,12125.4732,E,1,00,00018.002,M 
$GPGGA,231604.000,3101.6398,N,12125.4728,E,1,00,00019.288,M 
$GPGGA,231605.000,3101.6397,N,12125.4723,E,1,00,00019.288,M 
$GPGGA,231605.000,3101.6396,N,12125.4719,E,1,00,00019.802,M 
$GPGGA,231606.000,3101.6395,N,12125.4715,E,1,00,00019.802,M 
$GPGGA,231606.000,3101.6393,N,12125.4710,E,1,00,00020.512,M 
$GPGGA,231607.000,3101.6392,N,12125.4706,E,1,00,00020.512,M 
$GPGGA,231607.000,3101.6390,N,12125.4702,E,1,00,00021.591,M 
$GPGGA,231608.000,3101.6389,N,12125.4698,E,1,00,00021.679,M 
$GPGGA,231609.000,3101.6387,N,12125.4694,E,1,00,00021.679,M 
$GPGGA,231609.000,3101.6385,N,12125.4690,E,1,00,00022.878,M 
$GPGGA,231610.000,3101.6383,N,12125.4686,E,1,00,00022.878,M 
$GPGGA,231610.000,3101.6381,N,12125.4682,E,1,00,00023.722,M 
$GPGGA,231611.000,3101.6379,N,12125.4677,E,1,00,00023.723,M 
$GPGGA,231611.000,3101.6378,N,12125.4673,E,1,00,00025.271,M 
$GPGGA,231612.000,3101.6376,N,12125.4669,E,1,00,00025.271,M 
$GPGGA,231612.000,3101.6374,N,12125.4665,E,1,00,00023.991,M 
$GPGGA,231613.000,3101.6372,N,12125.4661,E,1,00,00020.369,M 
$GPGGA,231614.000,3101.6370,N,12125.4657,E,1,00,00020.369,M 
$GPGGA,231614.000,3101.6368,N,12125.4652,E,1,00,00019.934,M 
$GPGGA,231615.000,3101.6366,N,12125.4647,E,1,00,00019.934,M 
$GPGGA,231615.000,3101.6364,N,12125.4643,E,1,00,00019.604,M 
$GPGGA,231616.000,3101.6362,N,12125.4638,E,1,00,00019.604,M 
$GPGGA,231616.000,3101.6360,N,12125.4634,E,1,00,00020.930,M 
$GPGGA,231617.000,3101.6359,N,12125.4630,E,1,00,00020.930,M 
$GPGGA,231617.000,3101.6358,N,12125.4625,E,1,00,00019.512,M 
$GPGGA,231618.000,3101.6356,N,12125.4621,E,1,00,00019.512,M 
$GPGGA,231618.000,3101.6355,N,12125.4617,E,1,00,00019.432,M 
$GPGGA,231619.000,3101.6353,N,12125.4612,E,1,00,00021.424,M 
$GPGGA,231620.000,3101.6351,N,12125.4608,E,1,00,00021.424,M 
$GPGGA,231620.000,3101.6350,N,12125.4604,E,1,00,00020.385,M 
$GPGGA,231621.000,3101.6348,N,12125.4600,E,1,00,00020.386,M 
$GPGGA,231621.000,3101.6346,N,12125.4596,E,1,00,00019.628,M 
$GPGGA,231622.000,3101.6344,N,12125.4592,E,1,00,00019.628,M 
$GPGGA,231622.000,3101.6342,N,12125.4588,E,1,00,00018.852,M 
$GPGGA,231623.000,3101.6340,N,12125.4584,E,1,00,00018.852,M 
$GPGGA,231623.000,3101.6338,N,12125.4579,E,1,00,00018.524,M 
$GPGGA,231624.000,3101.6336,N,12125.4575,E,1,00,00018.298,M 
$GPGGA,231625.000,3101.6334,N,12125.4571,E,1,00,00018.298,M 
$GPGGA,231625.000,3101.6332,N,12125.4566,E,1,00,00018.321,M 
$GPGGA,231626.000,3101.6331,N,12125.4562,E,1,00,00018.321,M 
$GPGGA,231626.000,3101.6329,N,12125.4558,E,1,00,00016.161,M 
$GPGGA,231627.000,3101.6327,N,12125.4553,E,1,00,00016.161,M 
$GPGGA,231627.000,3101.6326,N,12125.4549,E,1,00,00016.972,M 
$GPGGA,231628.000,3101.6324,N,12125.4544,E,1,00,00016.973,M 
$GPGGA,231628.000,3101.6322,N,12125.4540,E,1,00,00018.328,M 
$GPGGA,231629.000,3101.6321,N,12125.4536,E,1,00,00017.063,M 
$GPGGA,231630.000,3101.6319,N,12125.4531,E,1,00,00017.063,M 
$GPGGA,231630.000,3101.6318,N,12125.4526,E,1,00,00017.287,M 
$GPGGA,231631.000,3101.6316,N,12125.4522,E,1,00,00017.287,M 
$GPGGA,231631.000,3101.6314,N,12125.4517,E,1,00,00015.809,M 
$GPGGA,231632.000,3101.6313,N,12125.4512,E,1,00,00015.809,M 
$GPGGA,231632.000,3101.6310,N,12125.4508,E,1,00,00015.823,M 
$GPGGA,231633.000,3101.6309,N,12125.4503,E,1,00,00015.823,M 
$GPGGA,231633.000,3101.6306,N,12125.4499,E,1,00,00016.612,M 
$GPGGA,231634.000,3101.6304,N,12125.4495,E,1,00,00016.014,M 
$GPGGA,231635.000,3101.6302,N,12125.4491,E,1,00,00016.014,M 
$GPGGA,231635.000,3101.6300,N,12125.4486,E,1,00,00016.247,M 
$GPGGA,231636.000,3101.6298,N,12125.4482,E,1,00,00016.247,M 
$GPGGA,231636.000,3101.6296,N,12125.4477,E,1,00,00016.275,M 
$GPGGA,231637.000,3101.6295,N,12125.4473,E,1,00,00016.275,M 
$GPGGA,231637.000,3101.6293,N,12125.4468,E,1,00,00014.640,M 
$GPGGA,231638.000,3101.6291,N,12125.4464,E,1,00,00015.737,M 
$GPGGA,231639.000,3101.6290,N,12125.4459,E,1,00,00015.737,M 
$GPGGA,231639.000,3101.6289,N,12125.4455,E,1,00,00015.435,M 
$GPGGA,231640.000,3101.6287,N,12125.4451,E,1,00,00015.435,M 
$GPGGA,231640.000,3101.6286,N,12125.4446,E,1,00,00015.156,M 
$GPGGA,231641.000,3101.6284,N,12125.4442,E,1,00,00015.156,M 
$GPGGA,231641.000,3101.6282,N,12125.4438,E,1,00,00015.127,M 
$GPGGA,231642.000,3101.6281,N,12125.4435,E,1,00,00014.049,M 
$GPGGA,231643.000,3101.6278,N,12125.4431,E,1,00,00014.049,M 
$GPGGA,231643.000,3101.6276,N,12125.4428,E,1,00,00015.318,M 
$GPGGA,231644.000,3101.6274,N,12125.4424,E,1,00,00015.318,M 
$GPGGA,231644.000,3101.6272,N,12125.4421,E,1,00,00015.994,M 
$GPGGA,231645.000,3101.6270,N,12125.4417,E,1,00,00016.790,M 
$GPGGA,231646.000,3101.6268,N,12125.4414,E,1,00,00016.790,M 
$GPGGA,231646.000,3101.6267,N,12125.4411,E,1,00,00016.383,M 
$GPGGA,231647.000,3101.6265,N,12125.4407,E,1,00,00016.384,M 
$GPGGA,231647.000,3101.6264,N,12125.4404,E,1,00,00015.072,M 
$GPGGA,231648.000,3101.6263,N,12125.4399,E,1,00,00015.032,M 
$GPGGA,231649.000,3101.6263,N,12125.4395,E,1,00,00015.033,M 
$GPGGA,231649.000,3101.6262,N,12125.4390,E,1,00,00015.929,M 
$GPGGA,231650.000,3101.6262,N,12125.4386,E,1,00,00015.929,M 
$GPGGA,231650.000,3101.6262,N,12125.4381,E,1,00,00017.512,M 
$GPGGA,231651.000,3101.6262,N,12125.4376,E,1,00,00016.100,M 
$GPGGA,231652.000,3101.6262,N,12125.4371,E,1,00,00016.101,M 
$GPGGA,231652.000,3101.6263,N,12125.4366,E,1,00,00017.021,M 
$GPGGA,231653.000,3101.6262,N,12125.4361,E,1,00,00017.021,M 
$GPGGA,231653.000,3101.6262,N,12125.4356,E,1,00,00016.186,M 
$GPGGA,231654.000,3101.6262,N,12125.4351,E,1,00,00016.874,M 
$GPGGA,231655.000,3101.6261,N,12125.4346,E,1,00,00016.874,M 
$GPGGA,231655.000,3101.6259,N,12125.4341,E,1,00,00016.558,M 
$GPGGA,231656.000,3101.6258,N,12125.4337,E,1,00,00016.559,M 
$GPGGA,231656.000,3101.6256,N,12125.4333,E,1,00,00017.786,M 
$GPGGA,231657.000,3101.6254,N,12125.4329,E,1,00,00018.043,M 
$GPGGA,231658.000,3101.6252,N,12125.4325,E,1,00,00018.044,M 
$GPGGA,231658.000,3101.6250,N,12125.4320,E,1,00,00019.343,M 
$GPGGA,231659.000,3101.6247,N,12125.4316,E,1,00,00019.343,M 
$GPGGA,231659.000,3101.6245,N,12125.4312,E,1,00,00019.671,M 
$GPGGA,231700.000,3101.6242,N,12125.4308,E,1,00,00020.752,M 
$GPGGA,231701.000,3101.6239,N,12125.4304,E,1,00,00020.752,M 
$GPGGA,231701.000,3101.6237,N,12125.4301,E,1,00,00021.174,M 
$GPGGA,231702.000,3101.6234,N,12125.4297,E,1,00,00021.174,M 
$GPGGA,231702.000,3101.6231,N,12125.4293,E,1,00,00023.498,M 
$GPGGA,231703.000,3101.6229,N,12125.4289,E,1,00,00022.153,M 
$GPGGA,231704.000,3101.6226,N,12125.4285,E,1,00,00022.153,M 
$GPGGA,231704.000,3101.6224,N,12125.4281,E,1,00,00022.374,M 
$GPGGA,231705.000,3101.6222,N,12125.4276,E,1,00,00022.374,M 
$GPGGA,231705.000,3101.6220,N,12125.4272,E,1,00,00022.595,M 
$GPGGA,231706.000,3101.6218,N,12125.4268,E,1,00,00020.807,M 
$GPGGA,231707.000,3101.6216,N,12125.4264,E,1,00,00020.807,M 
$GPGGA,231707.000,3101.6214,N,12125.4260,E,1,00,00020.165,M 
$GPGGA,231708.000,3101.6212,N,12125.4256,E,1,00,00020.165,M 
$GPGGA,231708.000,3101.6210,N,12125.4252,E,1,00,00019.660,M 
$GPGGA,231709.000,3101.6208,N,12125.4248,E,1,00,00018.530,M 
$GPGGA,231710.000,3101.6206,N,12125.4244,E,1,00,00018.530,M 
$GPGGA,231710.000,3101.6204,N,12125.4240,E,1,00,00019.125,M 
$GPGGA,231711.000,3101.6201,N,12125.4236,E,1,00,00019.125,M 
$GPGGA,231711.000,3101.6199,N,12125.4232,E,1,00,00021.062,M 
$GPGGA,231712.000,3101.6197,N,12125.4228,E,1,00,00021.002,M 
$GPGGA,231713.000,3101.6194,N,12125.4224,E,1,00,00021.002,M 
$GPGGA,231713.000,3101.6192,N,12125.4220,E,1,00,00021.572,M 
$GPGGA,231714.000,3101.6190,N,12125.4216,E,1,00,00021.572,M 
$GPGGA,231714.000,3101.6187,N,12125.4212,E,1,00,00022.760,M 
$GPGGA,231715.000,3101.6184,N,12125.4208,E,1,00,00022.760,M 
$GPGGA,231715.000,3101.6182,N,12125.4204,E,1,00,00023.492,M 
$GPGGA,231716.000,3101.6179,N,12125.4201,E,1,00,00024.986,M 
$GPGGA,231717.000,3101.6176,N,12125.4197,E,1,00,00024.986,M 
$GPGGA,231717.000,3101.6174,N,12125.4193,E,1,00,00025.424,M 
$GPGGA,231718.000,3101.6171,N,12125.4189,E,1,00,00025.424,M 
$GPGGA,231718.000,3101.6169,N,12125.4186,E,1,00,00024.968,M 
$GPGGA,231719.000,3101.6166,N,12125.4182,E,1,00,00024.968,M 
$GPGGA,231719.000,3101.6164,N,12125.4178,E,1,00,00024.085,M 
$GPGGA,231720.000,3101.6162,N,12125.4175,E,1,00,00022.083,M 
$GPGGA,231721.000,3101.6159,N,12125.4171,E,1,00,00022.083,M 
$GPGGA,231721.000,3101.6157,N,12125.4166,E,1,00,00022.818,M 
$GPGGA,231722.000,3101.6155,N,12125.4163,E,1,00,00022.818,M 
$GPGGA,231722.000,3101.6152,N,12125.4159,E,1,00,00022.718,M 
$GPGGA,231723.000,3101.6150,N,12125.4155,E,1,00,00022.718,M 
$GPGGA,231723.000,3101.6147,N,12125.4151,E,1,00,00023.359,M 
$GPGGA,231724.000,3101.6145,N,12125.4147,E,1,00,00024.424,M 
$GPGGA,231725.000,3101.6143,N,12125.4143,E,1,00,00024.424,M 
$GPGGA,231725.000,3101.6141,N,12125.4140,E,1,00,00024.842,M 
$GPGGA,231726.000,3101.6139,N,12125.4136,E,1,00,00024.842,M 
$GPGGA,231726.000,3101.6137,N,12125.4132,E,1,00,00025.507,M 
$GPGGA,231727.000,3101.6135,N,12125.4128,E,1,00,00025.507,M 
$GPGGA,231727.000,3101.6134,N,12125.4123,E,1,00,00025.709,M 
$GPGGA,231728.000,3101.6131,N,12125.4119,E,1,00,00025.709,M 
$GPGGA,231728.000,3101.6129,N,12125.4115,E,1,00,00023.961,M 
$GPGGA,231729.000,3101.6127,N,12125.4110,E,1,00,00024.127,M 
$GPGGA,231730.000,3101.6124,N,12125.4105,E,1,00,00024.128,M 
$GPGGA,231730.000,3101.6122,N,12125.4101,E,1,00,00021.477,M 
$GPGGA,231731.000,3101.6119,N,12125.4096,E,1,00,00021.478,M 
$GPGGA,231731.000,3101.6116,N,12125.4092,E,1,00,00021.113,M 
$GPGGA,231732.000,3101.6113,N,12125.4088,E,1,00,00021.113,M 
$GPGGA,231732.000,3101.6110,N,12125.4084,E,1,00,00019.772,M 
$GPGGA,231733.000,3101.6108,N,12125.4079,E,1,00,00019.772,M 
$GPGGA,231733.000,3101.6106,N,12125.4075,E,1,00,00020.780,M 
$GPGGA,231734.000,3101.6104,N,12125.4071,E,1,00,00020.780,M 
$GPGGA,231734.000,3101.6101,N,12125.4066,E,1,00,00019.369,M 
$GPGGA,231735.000,3101.6100,N,12125.4062,E,1,00,00018.342,M 
$GPGGA,231736.000,3101.6097,N,12125.4057,E,1,00,00018.342,M 
$GPGGA,231736.000,3101.6096,N,12125.4052,E,1,00,00017.889,M 
$GPGGA,231737.000,3101.6094,N,12125.4047,E,1,00,00017.889,M 
$GPGGA,231737.000,3101.6092,N,12125.4042,E,1,00,00016.663,M 
$GPGGA,231738.000,3101.6090,N,12125.4037,E,1,00,00016.663,M 
$GPGGA,231738.000,3101.6089,N,12125.4032,E,1,00,00016.558,M 
$GPGGA,231739.000,3101.6088,N,12125.4027,E,1,00,00016.052,M 
$GPGGA,231740.000,3101.6087,N,12125.4022,E,1,00,00016.052,M 
$GPGGA,231740.000,3101.6086,N,12125.4017,E,1,00,00016.877,M 
$GPGGA,231741.000,3101.6086,N,12125.4012,E,1,00,00016.878,M 
$GPGGA,231741.000,3101.6086,N,12125.4007,E,1,00,00016.670,M 
$GPGGA,231742.000,3101.6088,N,12125.4003,E,1,00,00015.210,M 
$GPGGA,231747.000,3101.6093,N,12125.3996,E,1,00,00014.086,M 
$GPGGA,231748.000,3101.6098,N,12125.3990,E,1,00,00014.086,M 
$GPGGA,231748.000,3101.6102,N,12125.3984,E,1,00,00018.471,M 
$GPGGA,231749.000,3101.6106,N,12125.3979,E,1,00,00018.472,M 
$GPGGA,231749.000,3101.6110,N,12125.3974,E,1,00,00018.019,M 
$GPGGA,231750.000,3101.6114,N,12125.3970,E,1,00,00019.201,M 
$GPGGA,231751.000,3101.6118,N,12125.3965,E,1,00,00019.202,M 
$GPGGA,231751.000,3101.6121,N,12125.3961,E,1,00,00022.021,M 
$GPGGA,231752.000,3101.6125,N,12125.3956,E,1,00,00022.021,M 
$GPGGA,231752.000,3101.6129,N,12125.3953,E,1,00,00022.807,M 
$GPGGA,231753.000,3101.6133,N,12125.3949,E,1,00,00022.807,M 
$GPGGA,231753.000,3101.6137,N,12125.3945,E,1,00,00024.382,M 
$GPGGA,231754.000,3101.6141,N,12125.3942,E,1,00,00023.413,M 
$GPGGA,231755.000,3101.6145,N,12125.3939,E,1,00,00023.414,M 
$GPGGA,231755.000,3101.6149,N,12125.3936,E,1,00,00024.069,M 
$GPGGA,231756.000,3101.6152,N,12125.3933,E,1,00,00024.069,M 
$GPGGA,231756.000,3101.6156,N,12125.3931,E,1,00,00023.463,M 
$GPGGA,231757.000,3101.6159,N,12125.3928,E,1,00,00023.463,M 
$GPGGA,231757.000,3101.6163,N,12125.3926,E,1,00,00022.718,M 
$GPGGA,231758.000,3101.6166,N,12125.3924,E,1,00,00022.718,M 
$GPGGA,231758.000,3101.6170,N,12125.3921,E,1,00,00022.960,M 
$GPGGA,231759.000,3101.6173,N,12125.3919,E,1,00,00021.355,M 
$GPGGA,231800.000,3101.6177,N,12125.3916,E,1,00,00021.355,M 
$GPGGA,231800.000,3101.6180,N,12125.3914,E,1,00,00024.167,M 
$GPGGA,231801.000,3101.6184,N,12125.3911,E,1,00,00024.168,M 
$GPGGA,231801.000,3101.6187,N,12125.3909,E,1,00,00023.090,M 
$GPGGA,231802.000,3101.6190,N,12125.3906,E,1,00,00023.090,M 
$GPGGA,231802.000,3101.6193,N,12125.3903,E,1,00,00021.753,M 
$GPGGA,231803.000,3101.6197,N,12125.3901,E,1,00,00021.753,M 
$GPGGA,231803.000,3101.6200,N,12125.3899,E,1,00,00023.161,M 
$GPGGA,231804.000,3101.6204,N,12125.3897,E,1,00,00022.918,M 
$GPGGA,231805.000,3101.6207,N,12125.3895,E,1,00,00022.918,M 
$GPGGA,231805.000,3101.6211,N,12125.3893,E,1,00,00022.731,M 
$GPGGA,231806.000,3101.6215,N,12125.3890,E,1,00,00022.731,M 
$GPGGA,231806.000,3101.6219,N,12125.3888,E,1,00,00024.310,M 
$GPGGA,231807.000,3101.6223,N,12125.3885,E,1,00,00024.310,M 
$GPGGA,231807.000,3101.6227,N,12125.3882,E,1,00,00023.269,M 
$GPGGA,231808.000,3101.6232,N,12125.3880,E,1,00,00023.729,M 
$GPGGA,231809.000,3101.6236,N,12125.3877,E,1,00,00023.729,M 
$GPGGA,231809.000,3101.6241,N,12125.3875,E,1,00,00022.618,M 
$GPGGA,231810.000,3101.6246,N,12125.3873,E,1,00,00022.618,M 
$GPGGA,231810.000,3101.6250,N,12125.3871,E,1,00,00022.797,M 
$GPGGA,231811.000,3101.6255,N,12125.3869,E,1,00,00022.797,M 
$GPGGA,231811.000,3101.6260,N,12125.3867,E,1,00,00021.037,M 
$GPGGA,231812.000,3101.6265,N,12125.3865,E,1,00,00021.661,M 
$GPGGA,231813.000,3101.6270,N,12125.3862,E,1,00,00021.661,M 
$GPGGA,231813.000,3101.6275,N,12125.3860,E,1,00,00021.323,M 
$GPGGA,231814.000,3101.6281,N,12125.3857,E,1,00,00021.323,M 
$GPGGA,231814.000,3101.6286,N,12125.3855,E,1,00,00020.894,M 
$GPGGA,231815.000,3101.6291,N,12125.3852,E,1,00,00020.894,M 
$GPGGA,231815.000,3101.6296,N,12125.3850,E,1,00,00022.332,M 
$GPGGA,231816.000,3101.6301,N,12125.3847,E,1,00,00021.888,M 
$GPGGA,231817.000,3101.6306,N,12125.3845,E,1,00,00021.888,M 
$GPGGA,231817.000,3101.6311,N,12125.3842,E,1,00,00021.245,M 
$GPGGA,231818.000,3101.6316,N,12125.3840,E,1,00,00021.245,M 
$GPGGA,231818.000,3101.6321,N,12125.3838,E,1,00,00020.147,M 
$GPGGA,231819.000,3101.6326,N,12125.3836,E,1,00,00020.148,M 
$GPGGA,231819.000,3101.6331,N,12125.3834,E,1,00,00019.985,M 
$GPGGA,231820.000,3101.6336,N,12125.3833,E,1,00,00019.985,M 
$GPGGA,231820.000,3101.6341,N,12125.3831,E,1,00,00019.653,M 
$GPGGA,231821.000,3101.6346,N,12125.3829,E,1,00,00019.146,M 
$GPGGA,231822.000,3101.6350,N,12125.3828,E,1,00,00019.146,M 
$GPGGA,231822.000,3101.6355,N,12125.3826,E,1,00,00020.788,M 
$GPGGA,231823.000,3101.6360,N,12125.3825,E,1,00,00020.788,M 
$GPGGA,231823.000,3101.6364,N,12125.3824,E,1,00,00019.818,M 
$GPGGA,231824.000,3101.6368,N,12125.3823,E,1,00,00019.818,M 
$GPGGA,231824.000,3101.6372,N,12125.3822,E,1,00,00021.829,M 
$GPGGA,231825.000,3101.6376,N,12125.3820,E,1,00,00022.492,M 
$GPGGA,231826.000,3101.6380,N,12125.3819,E,1,00,00022.493,M 
$GPGGA,231826.000,3101.6384,N,12125.3818,E,1,00,00022.903,M 
$GPGGA,231827.000,3101.6387,N,12125.3816,E,1,00,00022.903,M 
$GPGGA,231827.000,3101.6391,N,12125.3815,E,1,00,00020.329,M 
$GPGGA,231828.000,3101.6394,N,12125.3814,E,1,00,00020.329,M 
$GPGGA,231828.000,3101.6398,N,12125.3813,E,1,00,00018.719,M 
$GPGGA,231829.000,3101.6401,N,12125.3812,E,1,00,00017.026,M 
$GPGGA,231830.000,3101.6404,N,12125.3811,E,1,00,00017.026,M 
$GPGGA,231830.000,3101.6408,N,12125.3809,E,1,00,00016.376,M 
$GPGGA,231831.000,3101.6411,N,12125.3808,E,1,00,00016.376,M 
$GPGGA,231831.000,3101.6414,N,12125.3807,E,1,00,00016.123,M 
$GPGGA,231832.000,3101.6417,N,12125.3806,E,1,00,00016.123,M 
$GPGGA,231832.000,3101.6419,N,12125.3804,E,1,00,00017.354,M 
$GPGGA,231833.000,3101.6422,N,12125.3803,E,1,00,00016.889,M 
$GPGGA,231834.000,3101.6426,N,12125.3801,E,1,00,00016.889,M 
$GPGGA,231834.000,3101.6429,N,12125.3799,E,1,00,00015.562,M 
$GPGGA,231835.000,3101.6432,N,12125.3798,E,1,00,00015.562,M 
$GPGGA,231835.000,3101.6435,N,12125.3796,E,1,00,00014.221,M 
$GPGGA,231836.000,3101.6438,N,12125.3794,E,1,00,00014.222,M 
$GPGGA,231836.000,3101.6442,N,12125.3793,E,1,00,00014.245,M 
$GPGGA,231837.000,3101.6445,N,12125.3790,E,1,00,00013.824,M 
$GPGGA,231838.000,3101.6449,N,12125.3788,E,1,00,00013.825,M 
$GPGGA,231838.000,3101.6452,N,12125.3786,E,1,00,00013.128,M 
$GPGGA,231839.000,3101.6455,N,12125.3784,E,1,00,00013.128,M 
$GPGGA,231839.000,3101.6458,N,12125.3783,E,1,00,00013.928,M 
$GPGGA,231840.000,3101.6461,N,12125.3781,E,1,00,00013.928,M 
$GPGGA,231840.000,3101.6465,N,12125.3780,E,1,00,00014.955,M 
$GPGGA,231841.000,3101.6468,N,12125.3778,E,1,00,00013.693,M 
$GPGGA,231842.000,3101.6471,N,12125.3776,E,1,00,00013.693,M 
$GPGGA,231842.000,3101.6475,N,12125.3774,E,1,00,00013.694,M 
$GPGGA,231842.000,3101.6478,N,12125.3772,E,1,00,00013.694,M 
$GPGGA,231842.000,3101.6481,N,12125.3770,E,1,00,00013.993,M 
$GPGGA,231843.000,3101.6484,N,12125.3769,E,1,00,00013.993,M 
$GPGGA,231843.000,3101.6487,N,12125.3767,E,1,00,00016.700,M 
$GPGGA,231845.000,3101.6490,N,12125.3765,E,1,00,00016.700,M 
$GPGGA,231845.000,3101.6494,N,12125.3763,E,1,00,00016.106,M 
$GPGGA,231846.000,3101.6497,N,12125.3761,E,1,00,00016.107,M 
$GPGGA,231846.000,3101.6501,N,12125.3760,E,1,00,00016.107,M 
$GPGGA,231846.000,3101.6504,N,12125.3758,E,1,00,00016.651,M 
$GPGGA,231847.000,3101.6508,N,12125.3756,E,1,00,00016.651,M 
$GPGGA,231847.000,3101.6511,N,12125.3755,E,1,00,00016.662,M 
$GPGGA,231848.000,3101.6514,N,12125.3754,E,1,00,00016.662,M 
$GPGGA,231848.000,3101.6518,N,12125.3753,E,1,00,00017.851,M 
$GPGGA,231849.000,3101.6521,N,12125.3752,E,1,00,00017.851,M 
$GPGGA,231849.000,3101.6525,N,12125.3751,E,1,00,00017.999,M 
$GPGGA,231850.000,3101.6528,N,12125.3750,E,1,00,00019.141,M 
$GPGGA,231852.000,3101.6531,N,12125.3749,E,1,00,00019.141,M 
$GPGGA,231852.000,3101.6534,N,12125.3749,E,1,00,00017.422,M 
$GPGGA,231853.000,3101.6536,N,12125.3750,E,1,00,00019.777,M 
$GPGGA,231855.000,3101.6539,N,12125.3755,E,1,00,00017.408,M 
$GPGGA,231856.000,3101.6543,N,12125.3758,E,1,00,00016.450,M 
$GPGGA,231857.000,3101.6546,N,12125.3760,E,1,00,00016.450,M 
$GPGGA,231857.000,3101.6551,N,12125.3762,E,1,00,00015.461,M 
$GPGGA,231858.000,3101.6555,N,12125.3765,E,1,00,00015.461,M 
$GPGGA,231858.000,3101.6558,N,12125.3767,E,1,00,00015.443,M 
$GPGGA,231859.000,3101.6562,N,12125.3769,E,1,00,00015.443,M 
$GPGGA,231859.000,3101.6565,N,12125.3771,E,1,00,00016.852,M 
$GPGGA,231900.000,3101.6568,N,12125.3773,E,1,00,00016.377,M 
$GPGGA,231901.000,3101.6571,N,12125.3774,E,1,00,00016.377,M 
$GPGGA,231901.000,3101.6574,N,12125.3776,E,1,00,00015.923,M 
$GPGGA,231902.000,3101.6577,N,12125.3778,E,1,00,00015.923,M 
$GPGGA,231902.000,3101.6580,N,12125.3780,E,1,00,00016.593,M 
$GPGGA,231903.000,3101.6583,N,12125.3782,E,1,00,00016.593,M 
$GPGGA,231903.000,3101.6585,N,12125.3784,E,1,00,00018.199,M 
$GPGGA,231904.000,3101.6588,N,12125.3785,E,1,00,00018.199,M 
$GPGGA,231904.000,3101.6591,N,12125.3787,E,1,00,00019.995,M 
$GPGGA,231905.000,3101.6593,N,12125.3790,E,1,00,00019.944,M 
$GPGGA,231906.000,3101.6596,N,12125.3792,E,1,00,00019.944,M 
$GPGGA,231906.000,3101.6598,N,12125.3795,E,1,00,00020.015,M 
$GPGGA,231907.000,3101.6600,N,12125.3798,E,1,00,00020.015,M 
$GPGGA,231907.000,3101.6603,N,12125.3801,E,1,00,00020.018,M 
$GPGGA,231908.000,3101.6605,N,12125.3804,E,1,00,00020.018,M 
$GPGGA,231908.000,3101.6608,N,12125.3806,E,1,00,00020.511,M 
$GPGGA,231909.000,3101.6611,N,12125.3809,E,1,00,00020.511,M 
$GPGGA,231909.000,3101.6613,N,12125.3811,E,1,00,00019.705,M 
$GPGGA,231910.000,3101.6615,N,12125.3814,E,1,00,00020.698,M 
$GPGGA,231911.000,3101.6618,N,12125.3817,E,1,00,00020.698,M 
$GPGGA,231911.000,3101.6620,N,12125.3821,E,1,00,00022.405,M 
$GPGGA,231912.000,3101.6622,N,12125.3824,E,1,00,00022.405,M 
$GPGGA,231912.000,3101.6624,N,12125.3828,E,1,00,00020.930,M 
$GPGGA,231913.000,3101.6627,N,12125.3831,E,1,00,00020.930,M 
$GPGGA,231913.000,3101.6629,N,12125.3835,E,1,00,00020.795,M 
$GPGGA,231914.000,3101.6631,N,12125.3839,E,1,00,00020.795,M 
$GPGGA,231914.000,3101.6633,N,12125.3843,E,1,00,00019.045,M 
$GPGGA,231915.000,3101.6635,N,12125.3847,E,1,00,00018.338,M 
$GPGGA,231916.000,3101.6637,N,12125.3851,E,1,00,00018.338,M 
$GPGGA,231916.000,3101.6639,N,12125.3855,E,1,00,00018.135,M 
$GPGGA,231917.000,3101.6642,N,12125.3859,E,1,00,00018.135,M 
$GPGGA,231917.000,3101.6643,N,12125.3863,E,1,00,00019.634,M 
$GPGGA,231918.000,3101.6645,N,12125.3868,E,1,00,00019.634,M 
$GPGGA,231918.000,3101.6647,N,12125.3871,E,1,00,00019.247,M 
$GPGGA,231919.000,3101.6649,N,12125.3875,E,1,00,00019.655,M 
$GPGGA,231920.000,3101.6651,N,12125.3879,E,1,00,00019.655,M 
$GPGGA,231920.000,3101.6653,N,12125.3883,E,1,00,00019.924,M 
$GPGGA,231921.000,3101.6655,N,12125.3887,E,1,00,00019.924,M 
$GPGGA,231921.000,3101.6657,N,12125.3891,E,1,00,00019.304,M 
$GPGGA,231922.000,3101.6659,N,12125.3896,E,1,00,00019.304,M 
$GPGGA,231922.000,3101.6661,N,12125.3900,E,1,00,00016.977,M 
$GPGGA,231923.000,3101.6663,N,12125.3904,E,1,00,00016.977,M 
$GPGGA,231923.000,3101.6664,N,12125.3909,E,1,00,00017.844,M 
$GPGGA,231924.000,3101.6666,N,12125.3913,E,1,00,00017.846,M 
$GPGGA,231925.000,3101.6668,N,12125.3918,E,1,00,00017.846,M 
$GPGGA,231925.000,3101.6670,N,12125.3923,E,1,00,00016.693,M 
$GPGGA,231926.000,3101.6671,N,12125.3927,E,1,00,00016.693,M 
$GPGGA,231926.000,3101.6673,N,12125.3932,E,1,00,00016.569,M 
$GPGGA,231927.000,3101.6675,N,12125.3937,E,1,00,00016.569,M 
$GPGGA,231927.000,3101.6676,N,12125.3941,E,1,00,00016.825,M 
$GPGGA,231928.000,3101.6678,N,12125.3946,E,1,00,00017.594,M 
$GPGGA,231929.000,3101.6679,N,12125.3951,E,1,00,00017.594,M 
$GPGGA,231929.000,3101.6680,N,12125.3955,E,1,00,00018.460,M 
$GPGGA,231930.000,3101.6681,N,12125.3960,E,1,00,00018.460,M 
$GPGGA,231930.000,3101.6682,N,12125.3965,E,1,00,00017.435,M 
$GPGGA,231931.000,3101.6684,N,12125.3969,E,1,00,00017.435,M 
$GPGGA,231931.000,3101.6685,N,12125.3974,E,1,00,00016.001,M 
$GPGGA,231932.000,3101.6686,N,12125.3978,E,1,00,00016.001,M 
$GPGGA,231932.000,3101.6688,N,12125.3983,E,1,00,00016.855,M 
$GPGGA,231933.000,3101.6689,N,12125.3987,E,1,00,00017.808,M 
$GPGGA,231934.000,3101.6690,N,12125.3992,E,1,00,00017.808,M 
$GPGGA,231934.000,3101.6692,N,12125.3996,E,1,00,00018.817,M 
$GPGGA,231935.000,3101.6693,N,12125.4000,E,1,00,00018.816,M 
$GPGGA,231935.000,3101.6695,N,12125.4004,E,1,00,00018.924,M 
$GPGGA,231936.000,3101.6696,N,12125.4008,E,1,00,00018.924,M 
$GPGGA,231936.000,3101.6697,N,12125.4012,E,1,00,00019.499,M 
$GPGGA,231937.000,3101.6699,N,12125.4016,E,1,00,00018.919,M 
$GPGGA,231938.000,3101.6701,N,12125.4020,E,1,00,00018.918,M 
$GPGGA,231938.000,3101.6702,N,12125.4024,E,1,00,00018.333,M 
$GPGGA,231939.000,3101.6704,N,12125.4028,E,1,00,00018.333,M 
$GPGGA,231939.000,3101.6706,N,12125.4032,E,1,00,00017.711,M 
$GPGGA,231940.000,3101.6708,N,12125.4036,E,1,00,00017.711,M 
$GPGGA,231940.000,3101.6709,N,12125.4039,E,1,00,00017.269,M 
$GPGGA,231941.000,3101.6711,N,12125.4043,E,1,00,00017.269,M 
$GPGGA,231941.000,3101.6713,N,12125.4047,E,1,00,00017.386,M 
$GPGGA,231942.000,3101.6715,N,12125.4051,E,1,00,00018.190,M 
$GPGGA,231943.000,3101.6717,N,12125.4055,E,1,00,00018.190,M 
$GPGGA,231943.000,3101.6719,N,12125.4059,E,1,00,00019.179,M 
$GPGGA,231944.000,3101.6721,N,12125.4063,E,1,00,00019.179,M 
$GPGGA,231944.000,3101.6722,N,12125.4067,E,1,00,00019.506,M 
$GPGGA,231945.000,3101.6724,N,12125.4071,E,1,00,00019.506,M 
$GPGGA,231945.000,3101.6726,N,12125.4075,E,1,00,00017.893,M 
$GPGGA,231946.000,3101.6727,N,12125.4079,E,1,00,00017.893,M 
$GPGGA,231946.000,3101.6729,N,12125.4083,E,1,00,00018.070,M 
$GPGGA,231947.000,3101.6731,N,12125.4088,E,1,00,00018.271,M 
$GPGGA,231948.000,3101.6732,N,12125.4092,E,1,00,00018.271,M 
$GPGGA,231948.000,3101.6734,N,12125.4097,E,1,00,00017.364,M 
$GPGGA,231949.000,3101.6735,N,12125.4101,E,1,00,00017.364,M 
$GPGGA,231949.000,3101.6737,N,12125.4105,E,1,00,00016.180,M 
$GPGGA,231950.000,3101.6738,N,12125.4109,E,1,00,00016.180,M 
$GPGGA,231950.000,3101.6740,N,12125.4114,E,1,00,00015.976,M 
$GPGGA,231951.000,3101.6742,N,12125.4118,E,1,00,00015.976,M 
$GPGGA,231951.000,3101.6744,N,12125.4122,E,1,00,00015.682,M 
$GPGGA,231952.000,3101.6745,N,12125.4126,E,1,00,00015.932,M 
$GPGGA,231953.000,3101.6747,N,12125.4131,E,1,00,00015.932,M 
$GPGGA,231953.000,3101.6749,N,12125.4135,E,1,00,00016.549,M 
$GPGGA,231954.000,3101.6752,N,12125.4140,E,1,00,00016.549,M 
$GPGGA,231954.000,3101.6754,N,12125.4145,E,1,00,00016.488,M 
$GPGGA,231955.000,3101.6756,N,12125.4149,E,1,00,00016.488,M 
$GPGGA,231955.000,3101.6758,N,12125.4154,E,1,00,00016.179,M 
$GPGGA,231956.000,3101.6760,N,12125.4158,E,1,00,00016.179,M 
$GPGGA,231956.000,3101.6762,N,12125.4162,E,1,00,00016.563,M 
$GPGGA,231957.000,3101.6764,N,12125.4165,E,1,00,00015.919,M 
$GPGGA,231958.000,3101.6765,N,12125.4170,E,1,00,00015.919,M 
$GPGGA,231958.000,3101.6767,N,12125.4174,E,1,00,00014.678,M 
$GPGGA,231959.000,3101.6769,N,12125.4179,E,1,00,00014.678,M 
$GPGGA,231959.000,3101.6770,N,12125.4184,E,1,00,00017.250,M 
$GPGGA,232000.000,3101.6772,N,12125.4188,E,1,00,00017.249,M 
$GPGGA,232000.000,3101.6773,N,12125.4193,E,1,00,00017.909,M 
$GPGGA,232001.000,3101.6774,N,12125.4198,E,1,00,00020.666,M 
$GPGGA,232002.000,3101.6774,N,12125.4204,E,1,00,00020.666,M 
$GPGGA,232002.000,3101.6775,N,12125.4209,E,1,00,00020.121,M 
$GPGGA,232003.000,3101.6776,N,12125.4214,E,1,00,00020.121,M 
$GPGGA,232003.000,3101.6777,N,12125.4219,E,1,00,00019.519,M 
$GPGGA,232004.000,3101.6777,N,12125.4224,E,1,00,00019.519,M 
$GPGGA,232004.000,3101.6778,N,12125.4229,E,1,00,00020.927,M 
$GPGGA,232005.000,3101.6778,N,12125.4234,E,1,00,00020.927,M 
$GPGGA,232005.000,3101.6779,N,12125.4239,E,1,00,00020.234,M 
$GPGGA,232006.000,3101.6780,N,12125.4244,E,1,00,00019.765,M 
$GPGGA,232007.000,3101.6781,N,12125.4249,E,1,00,00019.765,M 
$GPGGA,232007.000,3101.6783,N,12125.4253,E,1,00,00020.316,M 
$GPGGA,232008.000,3101.6784,N,12125.4258,E,1,00,00020.316,M 
$GPGGA,232008.000,3101.6785,N,12125.4262,E,1,00,00020.245,M 
$GPGGA,232009.000,3101.6787,N,12125.4267,E,1,00,00020.245,M 
$GPGGA,232009.000,3101.6788,N,12125.4271,E,1,00,00023.879,M 
$GPGGA,232010.000,3101.6790,N,12125.4276,E,1,00,00023.879,M 
$GPGGA,232010.000,3101.6791,N,12125.4280,E,1,00,00023.994,M 
$GPGGA,232011.000,3101.6791,N,12125.4285,E,1,00,00022.394,M 
$GPGGA,232012.000,3101.6792,N,12125.4290,E,1,00,00022.394,M 
$GPGGA,232012.000,3101.6792,N,12125.4295,E,1,00,00023.825,M 
$GPGGA,232013.000,3101.6793,N,12125.4300,E,1,00,00023.825,M 
$GPGGA,232013.000,3101.6793,N,12125.4306,E,1,00,00026.500,M 
$GPGGA,232014.000,3101.6793,N,12125.4311,E,1,00,00026.500,M 
$GPGGA,232014.000,3101.6793,N,12125.4316,E,1,00,00027.819,M 
$GPGGA,232015.000,3101.6793,N,12125.4321,E,1,00,00027.819,M 
$GPGGA,232015.000,3101.6793,N,12125.4326,E,1,00,00027.716,M 
$GPGGA,232016.000,3101.6792,N,12125.4332,E,1,00,00025.295,M 
$GPGGA,232017.000,3101.6792,N,12125.4337,E,1,00,00025.295,M 
$GPGGA,232017.000,3101.6791,N,12125.4342,E,1,00,00025.252,M 
$GPGGA,232018.000,3101.6791,N,12125.4347,E,1,00,00025.252,M 
$GPGGA,232018.000,3101.6790,N,12125.4352,E,1,00,00025.553,M 
$GPGGA,232019.000,3101.6790,N,12125.4357,E,1,00,00025.553,M 
$GPGGA,232019.000,3101.6790,N,12125.4362,E,1,00,00025.278,M 
$GPGGA,232020.000,3101.6790,N,12125.4368,E,1,00,00025.278,M 
$GPGGA,232020.000,3101.6789,N,12125.4373,E,1,00,00025.981,M 
$GPGGA,232021.000,3101.6789,N,12125.4379,E,1,00,00024.444,M 
$GPGGA,232022.000,3101.6789,N,12125.4385,E,1,00,00024.444,M 
$GPGGA,232022.000,3101.6788,N,12125.4391,E,1,00,00024.754,M 
$GPGGA,232023.000,3101.6788,N,12125.4397,E,1,00,00024.754,M 
$GPGGA,232023.000,3101.6788,N,12125.4402,E,1,00,00024.909,M 
$GPGGA,232024.000,3101.6789,N,12125.4407,E,1,00,00024.908,M 
$GPGGA,232024.000,3101.6789,N,12125.4412,E,1,00,00027.154,M 
$GPGGA,232025.000,3101.6789,N,12125.4418,E,1,00,00027.154,M 
$GPGGA,232025.000,3101.6790,N,12125.4423,E,1,00,00026.027,M 
$GPGGA,232026.000,3101.6791,N,12125.4429,E,1,00,00023.312,M 
$GPGGA,232027.000,3101.6793,N,12125.4434,E,1,00,00023.312,M 
$GPGGA,232027.000,3101.6794,N,12125.4439,E,1,00,00022.982,M 
$GPGGA,232028.000,3101.6796,N,12125.4444,E,1,00,00022.982,M 
$GPGGA,232028.000,3101.6798,N,12125.4449,E,1,00,00020.539,M 
$GPGGA,232029.000,3101.6800,N,12125.4453,E,1,00,00020.539,M 
$GPGGA,232029.000,3101.6802,N,12125.4458,E,1,00,00020.477,M 
$GPGGA,232030.000,3101.6804,N,12125.4461,E,1,00,00020.246,M 
$GPGGA,232031.000,3101.6807,N,12125.4466,E,1,00,00020.246,M 
$GPGGA,232031.000,3101.6809,N,12125.4470,E,1,00,00020.849,M 
$GPGGA,232032.000,3101.6812,N,12125.4475,E,1,00,00020.849,M 
$GPGGA,232032.000,3101.6814,N,12125.4479,E,1,00,00021.273,M 
$GPGGA,232033.000,3101.6817,N,12125.4484,E,1,00,00021.273,M 
$GPGGA,232033.000,3101.6819,N,12125.4489,E,1,00,00021.995,M 
$GPGGA,232034.000,3101.6821,N,12125.4494,E,1,00,00021.995,M 
$GPGGA,232034.000,3101.6822,N,12125.4499,E,1,00,00023.357,M 
$GPGGA,232035.000,3101.6824,N,12125.4504,E,1,00,00023.177,M 
$GPGGA,232036.000,3101.6826,N,12125.4510,E,1,00,00023.177,M 
$GPGGA,232036.000,3101.6827,N,12125.4515,E,1,00,00024.551,M 
$GPGGA,232037.000,3101.6829,N,12125.4520,E,1,00,00024.551,M 
$GPGGA,232037.000,3101.6830,N,12125.4526,E,1,00,00025.452,M 
$GPGGA,232038.000,3101.6831,N,12125.4531,E,1,00,00025.452,M 
$GPGGA,232038.000,3101.6832,N,12125.4536,E,1,00,00027.140,M 
$GPGGA,232039.000,3101.6833,N,12125.4541,E,1,00,00027.139,M 
$GPGGA,232039.000,3101.6834,N,12125.4546,E,1,00,00026.242,M 
$GPGGA,232040.000,3101.6835,N,12125.4551,E,1,00,00026.667,M 
$GPGGA,232041.000,3101.6836,N,12125.4556,E,1,00,00026.667,M 
$GPGGA,232041.000,3101.6838,N,12125.4561,E,1,00,00026.078,M 
$GPGGA,232042.000,3101.6839,N,12125.4566,E,1,00,00026.078,M 
$GPGGA,232042.000,3101.6840,N,12125.4570,E,1,00,00026.650,M 
$GPGGA,232043.000,3101.6842,N,12125.4575,E,1,00,00026.650,M 
$GPGGA,232043.000,3101.6843,N,12125.4579,E,1,00,00025.317,M 
$GPGGA,232044.000,3101.6845,N,12125.4584,E,1,00,00025.520,M 
$GPGGA,232045.000,3101.6846,N,12125.4588,E,1,00,00025.520,M 
$GPGGA,232045.000,3101.6847,N,12125.4593,E,1,00,00025.217,M 
$GPGGA,232046.000,3101.6849,N,12125.4597,E,1,00,00025.216,M 
$GPGGA,232046.000,3101.6850,N,12125.4602,E,1,00,00025.899,M 
$GPGGA,232047.000,3101.6852,N,12125.4607,E,1,00,00025.899,M 
$GPGGA,232047.000,3101.6853,N,12125.4612,E,1,00,00026.331,M 
$GPGGA,232048.000,3101.6854,N,12125.4616,E,1,00,00028.121,M 
$GPGGA,232049.000,3101.6856,N,12125.4620,E,1,00,00028.121,M 
$GPGGA,232049.000,3101.6857,N,12125.4625,E,1,00,00028.023,M 
$GPGGA,232050.000,3101.6859,N,12125.4629,E,1,00,00028.023,M 
$GPGGA,232050.000,3101.6861,N,12125.4633,E,1,00,00025.456,M 
$GPGGA,232051.000,3101.6863,N,12125.4638,E,1,00,00025.456,M 
$GPGGA,232051.000,3101.6865,N,12125.4642,E,1,00,00025.219,M 
$GPGGA,232052.000,3101.6866,N,12125.4646,E,1,00,00025.218,M 
$GPGGA,232052.000,3101.6868,N,12125.4650,E,1,00,00024.005,M 
$GPGGA,232053.000,3101.6870,N,12125.4654,E,1,00,00022.556,M 
$GPGGA,232054.000,3101.6873,N,12125.4659,E,1,00,00022.555,M 
$GPGGA,232054.000,3101.6875,N,12125.4663,E,1,00,00021.444,M 
$GPGGA,232055.000,3101.6877,N,12125.4667,E,1,00,00021.444,M 
$GPGGA,232055.000,3101.6880,N,12125.4671,E,1,00,00021.976,M 
$GPGGA,232056.000,3101.6882,N,12125.4675,E,1,00,00021.976,M 
$GPGGA,232056.000,3101.6885,N,12125.4679,E,1,00,00021.423,M 
$GPGGA,232057.000,3101.6887,N,12125.4683,E,1,00,00021.423,M 
$GPGGA,232057.000,3101.6889,N,12125.4687,E,1,00,00019.507,M 
$GPGGA,232058.000,3101.6891,N,12125.4692,E,1,00,00018.602,M 
$GPGGA,232059.000,3101.6893,N,12125.4697,E,1,00,00018.602,M 
$GPGGA,232059.000,3101.6896,N,12125.4701,E,1,00,00018.095,M 
$GPGGA,232100.000,3101.6898,N,12125.4705,E,1,00,00018.095,M 
$GPGGA,232100.000,3101.6901,N,12125.4709,E,1,00,00016.161,M 
$GPGGA,232101.000,3101.6903,N,12125.4713,E,1,00,00016.160,M 
$GPGGA,232101.000,3101.6905,N,12125.4717,E,1,00,00016.134,M 
$GPGGA,232102.000,3101.6907,N,12125.4721,E,1,00,00016.134,M 
$GPGGA,232102.000,3101.6909,N,12125.4725,E,1,00,00016.308,M 
$GPGGA,232103.000,3101.6912,N,12125.4730,E,1,00,00016.308,M 
$GPGGA,232103.000,3101.6914,N,12125.4733,E,1,00,00014.988,M 
$GPGGA,232104.000,3101.6916,N,12125.4737,E,1,00,00013.971,M 
$GPGGA,232105.000,3101.6918,N,12125.4741,E,1,00,00013.971,M 
$GPGGA,232105.000,3101.6920,N,12125.4745,E,1,00,00014.688,M 
$GPGGA,232106.000,3101.6923,N,12125.4749,E,1,00,00014.687,M 
$GPGGA,232106.000,3101.6925,N,12125.4753,E,1,00,00014.641,M 
$GPGGA,232107.000,3101.6927,N,12125.4756,E,1,00,00014.641,M 
$GPGGA,232107.000,3101.6929,N,12125.4760,E,1,00,00014.146,M 
$GPGGA,232108.000,3101.6931,N,12125.4764,E,1,00,00014.146,M 
$GPGGA,232108.000,3101.6933,N,12125.4768,E,1,00,00014.545,M 
$GPGGA,232109.000,3101.6935,N,12125.4771,E,1,00,00015.454,M 
$GPGGA,232110.000,3101.6937,N,12125.4775,E,1,00,00015.454,M 
$GPGGA,232110.000,3101.6939,N,12125.4779,E,1,00,00016.664,M 
$GPGGA,232111.000,3101.6940,N,12125.4784,E,1,00,00016.664,M 
$GPGGA,232111.000,3101.6942,N,12125.4788,E,1,00,00015.996,M 
$GPGGA,232112.000,3101.6943,N,12125.4793,E,1,00,00015.996,M 
$GPGGA,232112.000,3101.6945,N,12125.4797,E,1,00,00015.558,M 
$GPGGA,232113.000,3101.6946,N,12125.4801,E,1,00,00015.558,M 
$GPGGA,232113.000,3101.6947,N,12125.4805,E,1,00,00014.913,M 
$GPGGA,232114.000,3101.6949,N,12125.4809,E,1,00,00015.263,M 
$GPGGA,232115.000,3101.6950,N,12125.4812,E,1,00,00015.263,M 
$GPGGA,232115.000,3101.6952,N,12125.4816,E,1,00,00013.398,M 
$GPGGA,232116.000,3101.6954,N,12125.4820,E,1,00,00013.398,M 
$GPGGA,232116.000,3101.6955,N,12125.4824,E,1,00,00013.384,M 
$GPGGA,232117.000,3101.6957,N,12125.4828,E,1,00,00013.384,M 
$GPGGA,232117.000,3101.6959,N,12125.4832,E,1,00,00012.872,M 
$GPGGA,232118.000,3101.6960,N,12125.4836,E,1,00,00012.872,M 
$GPGGA,232118.000,3101.6962,N,12125.4840,E,1,00,00013.739,M 
$GPGGA,232119.000,3101.6964,N,12125.4845,E,1,00,00012.701,M 
$GPGGA,232120.000,3101.6966,N,12125.4849,E,1,00,00012.700,M 
$GPGGA,232120.000,3101.6968,N,12125.4853,E,1,00,00012.450,M 
$GPGGA,232121.000,3101.6969,N,12125.4857,E,1,00,00012.449,M 
$GPGGA,232121.000,3101.6971,N,12125.4861,E,1,00,00012.970,M 
$GPGGA,232122.000,3101.6972,N,12125.4865,E,1,00,00012.970,M 
$GPGGA,232122.000,3101.6974,N,12125.4870,E,1,00,00012.874,M 
$GPGGA,232123.000,3101.6975,N,12125.4874,E,1,00,00012.470,M 
$GPGGA,232124.000,3101.6976,N,12125.4879,E,1,00,00012.469,M 
$GPGGA,232124.000,3101.6978,N,12125.4884,E,1,00,00014.786,M 
$GPGGA,232125.000,3101.6979,N,12125.4889,E,1,00,00014.786,M 
$GPGGA,232125.000,3101.6980,N,12125.4895,E,1,00,00016.581,M 
$GPGGA,232126.000,3101.6981,N,12125.4900,E,1,00,00016.581,M 
$GPGGA,232126.000,3101.6982,N,12125.4905,E,1,00,00017.360,M 
$GPGGA,232127.000,3101.6983,N,12125.4910,E,1,00,00017.360,M 
$GPGGA,232127.000,3101.6983,N,12125.4915,E,1,00,00018.859,M 
$GPGGA,232128.000,3101.6984,N,12125.4920,E,1,00,00020.338,M 
$GPGGA,232129.000,3101.6985,N,12125.4925,E,1,00,00020.338,M 
$GPGGA,232129.000,3101.6985,N,12125.4931,E,1,00,00019.274,M 
$GPGGA,232130.000,3101.6986,N,12125.4936,E,1,00,00019.273,M 
$GPGGA,232130.000,3101.6986,N,12125.4941,E,1,00,00019.880,M 
$GPGGA,232131.000,3101.6987,N,12125.4946,E,1,00,00019.880,M 
$GPGGA,232131.000,3101.6987,N,12125.4951,E,1,00,00019.961,M 
$GPGGA,232132.000,3101.6988,N,12125.4956,E,1,00,00020.671,M 
$GPGGA,232133.000,3101.6989,N,12125.4960,E,1,00,00020.671,M 
$GPGGA,232133.000,3101.6989,N,12125.4965,E,1,00,00020.531,M 
$GPGGA,232134.000,3101.6990,N,12125.4969,E,1,00,00020.531,M 
$GPGGA,232134.000,3101.6990,N,12125.4974,E,1,00,00020.301,M 
$GPGGA,232135.000,3101.6990,N,12125.4978,E,1,00,00020.301,M 
$GPGGA,232135.000,3101.6991,N,12125.4982,E,1,00,00020.858,M 
$GPGGA,232136.000,3101.6991,N,12125.4986,E,1,00,00020.858,M 
$GPGGA,232136.000,3101.6991,N,12125.4990,E,1,00,00020.212,M 
$GPGGA,232137.000,3101.6991,N,12125.4995,E,1,00,00021.308,M 
$GPGGA,232138.000,3101.6991,N,12125.4999,E,1,00,00021.308,M 
$GPGGA,232138.000,3101.6991,N,12125.5004,E,1,00,00022.778,M 
$GPGGA,232139.000,3101.6991,N,12125.5009,E,1,00,00022.777,M 
$GPGGA,232139.000,3101.6991,N,12125.5014,E,1,00,00021.875,M 
$GPGGA,232140.000,3101.6992,N,12125.5019,E,1,00,00021.874,M 
$GPGGA,232140.000,3101.6992,N,12125.5023,E,1,00,00022.957,M 
$GPGGA,232141.000,3101.6993,N,12125.5028,E,1,00,00022.450,M 
$GPGGA,232142.000,3101.6994,N,12125.5032,E,1,00,00022.449,M 
$GPGGA,232142.000,3101.6994,N,12125.5037,E,1,00,00022.909,M 
$GPGGA,232143.000,3101.6995,N,12125.5041,E,1,00,00022.909,M 
$GPGGA,232143.000,3101.6996,N,12125.5046,E,1,00,00024.098,M 
$GPGGA,232144.000,3101.6996,N,12125.5050,E,1,00,00024.098,M 
$GPGGA,232144.000,3101.6997,N,12125.5055,E,1,00,00026.169,M 
$GPGGA,232145.000,3101.6998,N,12125.5059,E,1,00,00026.169,M 
$GPGGA,232145.000,3101.6998,N,12125.5064,E,1,00,00025.838,M 
$GPGGA,232146.000,3101.6998,N,12125.5068,E,1,00,00024.311,M 
$GPGGA,232147.000,3101.6999,N,12125.5074,E,1,00,00024.311,M 
$GPGGA,232147.000,3101.7000,N,12125.5079,E,1,00,00026.646,M 
$GPGGA,232148.000,3101.7000,N,12125.5084,E,1,00,00026.646,M 
$GPGGA,232148.000,3101.7000,N,12125.5090,E,1,00,00027.801,M 
$GPGGA,232149.000,3101.7001,N,12125.5095,E,1,00,00027.801,M 
$GPGGA,232149.000,3101.7001,N,12125.5101,E,1,00,00026.900,M 
$GPGGA,232150.000,3101.7001,N,12125.5107,E,1,00,00028.952,M 
$GPGGA,232151.000,3101.7001,N,12125.5113,E,1,00,00028.952,M 
$GPGGA,232151.000,3101.7001,N,12125.5118,E,1,00,00028.659,M 
$GPGGA,232152.000,3101.7001,N,12125.5124,E,1,00,00028.659,M 
$GPGGA,232152.000,3101.7001,N,12125.5129,E,1,00,00029.730,M 
$GPGGA,232153.000,3101.7001,N,12125.5135,E,1,00,00029.730,M 
$GPGGA,232153.000,3101.7001,N,12125.5141,E,1,00,00029.139,M 
$GPGGA,232154.000,3101.7001,N,12125.5146,E,1,00,00029.268,M 
$GPGGA,232155.000,3101.7001,N,12125.5152,E,1,00,00029.267,M 
$GPGGA,232155.000,3101.7001,N,12125.5158,E,1,00,00029.691,M 
$GPGGA,232156.000,3101.7000,N,12125.5164,E,1,00,00029.691,M 
$GPGGA,232156.000,3101.7000,N,12125.5169,E,1,00,00029.328,M 
$GPGGA,232157.000,3101.7000,N,12125.5175,E,1,00,00029.328,M 
$GPGGA,232157.000,3101.6999,N,12125.5181,E,1,00,00029.261,M 
$GPGGA,232158.000,3101.6999,N,12125.5187,E,1,00,00029.261,M 
$GPGGA,232158.000,3101.6999,N,12125.5193,E,1,00,00028.347,M 
$GPGGA,232159.000,3101.7000,N,12125.5199,E,1,00,00028.346,M 
$GPGGA,232159.000,3101.7000,N,12125.5204,E,1,00,00028.156,M 
$GPGGA,232200.000,3101.7000,N,12125.5210,E,1,00,00029.889,M 
$GPGGA,232201.000,3101.7000,N,12125.5215,E,1,00,00029.889,M 
$GPGGA,232201.000,3101.7001,N,12125.5220,E,1,00,00031.567,M 
$GPGGA,232202.000,3101.7001,N,12125.5226,E,1,00,00031.567,M 
$GPGGA,232202.000,3101.7001,N,12125.5231,E,1,00,00032.218,M 
$GPGGA,232203.000,3101.7002,N,12125.5235,E,1,00,00032.218,M 
$GPGGA,232203.000,3101.7003,N,12125.5240,E,1,00,00031.753,M 
$GPGGA,232204.000,3101.7004,N,12125.5245,E,1,00,00031.753,M 
$GPGGA,232204.000,3101.7005,N,12125.5250,E,1,00,00032.616,M 
$GPGGA,232205.000,3101.7006,N,12125.5255,E,1,00,00032.884,M 
$GPGGA,232206.000,3101.7008,N,12125.5260,E,1,00,00032.883,M 
$GPGGA,232206.000,3101.7009,N,12125.5265,E,1,00,00033.992,M 
$GPGGA,232207.000,3101.7011,N,12125.5271,E,1,00,00033.992,M 
$GPGGA,232207.000,3101.7013,N,12125.5276,E,1,00,00033.609,M 
$GPGGA,232208.000,3101.7015,N,12125.5282,E,1,00,00033.609,M 
$GPGGA,232208.000,3101.7017,N,12125.5287,E,1,00,00032.326,M 
$GPGGA,232209.000,3101.7019,N,12125.5292,E,1,00,00032.326,M 
$GPGGA,232209.000,3101.7020,N,12125.5297,E,1,00,00033.403,M 
$GPGGA,232210.000,3101.7023,N,12125.5302,E,1,00,00033.916,M 
$GPGGA,232211.000,3101.7024,N,12125.5307,E,1,00,00033.916,M 
$GPGGA,232211.000,3101.7026,N,12125.5311,E,1,00,00035.101,M 
$GPGGA,232212.000,3101.7027,N,12125.5316,E,1,00,00035.101,M 
$GPGGA,232212.000,3101.7028,N,12125.5320,E,1,00,00035.368,M 
$GPGGA,232213.000,3101.7029,N,12125.5325,E,1,00,00035.368,M 
$GPGGA,232213.000,3101.7030,N,12125.5329,E,1,00,00034.744,M 
$GPGGA,232214.000,3101.7030,N,12125.5334,E,1,00,00034.743,M 
$GPGGA,232214.000,3101.7031,N,12125.5338,E,1,00,00033.740,M 
$GPGGA,232215.000,3101.7031,N,12125.5342,E,1,00,00034.084,M 
$GPGGA,232216.000,3101.7032,N,12125.5346,E,1,00,00034.083,M 
$GPGGA,232216.000,3101.7032,N,12125.5351,E,1,00,00033.563,M 
$GPGGA,232217.000,3101.7033,N,12125.5355,E,1,00,00033.563,M 
$GPGGA,232217.000,3101.7033,N,12125.5360,E,1,00,00031.931,M 
$GPGGA,232218.000,3101.7034,N,12125.5365,E,1,00,00031.931,M 
$GPGGA,232218.000,3101.7034,N,12125.5370,E,1,00,00034.668,M 
$GPGGA,232219.000,3101.7035,N,12125.5375,E,1,00,00035.825,M 
$GPGGA,232220.000,3101.7036,N,12125.5379,E,1,00,00035.825,M 
$GPGGA,232220.000,3101.7036,N,12125.5384,E,1,00,00035.182,M 
$GPGGA,232221.000,3101.7037,N,12125.5389,E,1,00,00035.182,M 
$GPGGA,232221.000,3101.7038,N,12125.5394,E,1,00,00035.400,M 
$GPGGA,232222.000,3101.7039,N,12125.5399,E,1,00,00035.400,M 
$GPGGA,232222.000,3101.7040,N,12125.5404,E,1,00,00035.470,M 
$GPGGA,232223.000,3101.7041,N,12125.5408,E,1,00,00035.470,M 
$GPGGA,232223.000,3101.7042,N,12125.5412,E,1,00,00035.485,M 
$GPGGA,232224.000,3101.7044,N,12125.5417,E,1,00,00033.894,M 
$GPGGA,232225.000,3101.7045,N,12125.5421,E,1,00,00033.894,M 
$GPGGA,232225.000,3101.7046,N,12125.5426,E,1,00,00034.827,M 
$GPGGA,232226.000,3101.7048,N,12125.5431,E,1,00,00034.827,M 
$GPGGA,232226.000,3101.7049,N,12125.5435,E,1,00,00035.075,M 
$GPGGA,232227.000,3101.7050,N,12125.5440,E,1,00,00035.075,M 
$GPGGA,232227.000,3101.7051,N,12125.5445,E,1,00,00034.626,M 
$GPGGA,232228.000,3101.7053,N,12125.5450,E,1,00,00034.626,M 
$GPGGA,232228.000,3101.7054,N,12125.5454,E,1,00,00033.030,M 
$GPGGA,232229.000,3101.7055,N,12125.5459,E,1,00,00033.030,M 
$GPGGA,232229.000,3101.7057,N,12125.5463,E,1,00,00033.184,M 
$GPGGA,232230.000,3101.7058,N,12125.5467,E,1,00,00034.268,M 
$GPGGA,232231.000,3101.7059,N,12125.5471,E,1,00,00034.268,M 
$GPGGA,232231.000,3101.7060,N,12125.5476,E,1,00,00033.206,M 
$GPGGA,232232.000,3101.7062,N,12125.5480,E,1,00,00033.206,M 
$GPGGA,232232.000,3101.7062,N,12125.5484,E,1,00,00032.136,M 
$GPGGA,232233.000,3101.7064,N,12125.5489,E,1,00,00032.136,M 
$GPGGA,232233.000,3101.7065,N,12125.5493,E,1,00,00032.774,M 
$GPGGA,232234.000,3101.7066,N,12125.5497,E,1,00,00032.774,M 
$GPGGA,232234.000,3101.7067,N,12125.5502,E,1,00,00032.245,M 
$GPGGA,232235.000,3101.7068,N,12125.5506,E,1,00,00032.245,M 
$GPGGA,232235.000,3101.7069,N,12125.5511,E,1,00,00032.167,M 
$GPGGA,232236.000,3101.7071,N,12125.5516,E,1,00,00030.304,M 
$GPGGA,232237.000,3101.7073,N,12125.5521,E,1,00,00030.303,M 
$GPGGA,232237.000,3101.7075,N,12125.5526,E,1,00,00030.109,M 
$GPGGA,232238.000,3101.7077,N,12125.5531,E,1,00,00030.109,M 
$GPGGA,232238.000,3101.7078,N,12125.5535,E,1,00,00029.810,M 
$GPGGA,232239.000,3101.7080,N,12125.5540,E,1,00,00029.810,M 
$GPGGA,232239.000,3101.7082,N,12125.5544,E,1,00,00029.330,M 
$GPGGA,232240.000,3101.7084,N,12125.5549,E,1,00,00029.330,M 
$GPGGA,232240.000,3101.7087,N,12125.5554,E,1,00,00026.556,M 
$GPGGA,232241.000,3101.7090,N,12125.5558,E,1,00,00024.503,M 
$GPGGA,232242.000,3101.7094,N,12125.5561,E,1,00,00024.503,M 
$GPGGA,232242.000,3101.7099,N,12125.5564,E,1,00,00021.868,M 
$GPGGA,232243.000,3101.7102,N,12125.5565,E,1,00,00017.528,M 
$GPGGA,232245.000,3101.7101,N,12125.5568,E,1,00,00018.360,M 
$GPGGA,232246.000,3101.7102,N,12125.5571,E,1,00,00018.359,M 
$GPGGA,232246.000,3101.7102,N,12125.5574,E,1,00,00017.417,M 
$GPGGA,232247.000,3101.7102,N,12125.5577,E,1,00,00017.438,M 
$GPGGA,232248.000,3101.7103,N,12125.5580,E,1,00,00017.438,M 
$GPGGA,232248.000,3101.7103,N,12125.5583,E,1,00,00017.326,M 
$GPGGA,232249.000,3101.7103,N,12125.5585,E,1,00,00017.326,M 
$GPGGA,232249.000,3101.7103,N,12125.5588,E,1,00,00016.545,M 
$GPGGA,232250.000,3101.7103,N,12125.5591,E,1,00,00016.545,M 
$GPGGA,232250.000,3101.7104,N,12125.5594,E,1,00,00017.534,M 
$GPGGA,232251.000,3101.7103,N,12125.5596,E,1,00,00017.168,M 
$GPGGA,232252.000,3101.7103,N,12125.5598,E,1,00,00017.168,M 
$GPGGA,232252.000,3101.7103,N,12125.5600,E,1,00,00016.479,M 
$GPGGA,232253.000,3101.7103,N,12125.5602,E,1,00,00016.479,M 
$GPGGA,232253.000,3101.7103,N,12125.5604,E,1,00,00017.722,M 
$GPGGA,232254.000,3101.7102,N,12125.5606,E,1,00,00017.722,M 
$GPGGA,232254.000,3101.7102,N,12125.5607,E,1,00,00016.902,M 
$GPGGA,232255.000,3101.7101,N,12125.5609,E,1,00,00018.893,M 
$GPGGA,232256.000,3101.7100,N,12125.5611,E,1,00,00018.893,M 
$GPGGA,232256.000,3101.7099,N,12125.5612,E,1,00,00019.751,M 
$GPGGA,232257.000,3101.7098,N,12125.5614,E,1,00,00019.751,M 
$GPGGA,232257.000,3101.7096,N,12125.5616,E,1,00,00018.801,M 
$GPGGA,232258.000,3101.7095,N,12125.5618,E,1,00,00018.801,M 
$GPGGA,232258.000,3101.7093,N,12125.5619,E,1,00,00020.200,M 
$GPGGA,232259.000,3101.7091,N,12125.5621,E,1,00,00019.860,M 
$GPGGA,232300.000,3101.7089,N,12125.5622,E,1,00,00019.860,M 
$GPGGA,232300.000,3101.7087,N,12125.5624,E,1,00,00018.845,M 
$GPGGA,232301.000,3101.7085,N,12125.5626,E,1,00,00018.845,M 
$GPGGA,232301.000,3101.7083,N,12125.5628,E,1,00,00015.745,M 
$GPGGA,232302.000,3101.7080,N,12125.5629,E,1,00,00015.745,M 
$GPGGA,232302.000,3101.7078,N,12125.5631,E,1,00,00018.072,M 
$GPGGA,232303.000,3101.7075,N,12125.5632,E,1,00,00018.072,M 
$GPGGA,232303.000,3101.7072,N,12125.5633,E,1,00,00019.529,M 
$GPGGA,232304.000,3101.7069,N,12125.5634,E,1,00,00018.281,M 
$GPGGA,232305.000,3101.7066,N,12125.5636,E,1,00,00018.281,M 
