$GPGGA,222447.000,3101.5336,N,12126.5886,E,1,00,00058.750,M 
$GPGGA,222519.000,3101.5373,N,12126.5836,E,1,00,00039.028,M 
$GPGGA,222519.000,3101.5384,N,12126.5819,E,1,00,00039.028,M 
$GPGGA,222520.000,3101.5385,N,12126.5809,E,1,00,00035.023,M 
$GPGGA,222520.000,3101.5385,N,12126.5804,E,1,00,00035.023,M 
$GPGGA,222521.000,3101.5384,N,12126.5798,E,1,00,00032.430,M 
$GPGGA,222522.000,3101.5379,N,12126.5791,E,1,00,00030.815,M 
$GPGGA,222522.000,3101.5376,N,12126.5788,E,1,00,00030.815,M 
$GPGGA,222523.000,3101.5375,N,12126.5780,E,1,00,00029.314,M 
$GPGGA,222523.000,3101.5374,N,12126.5776,E,1,00,00029.314,M 
$GPGGA,222524.000,3101.5371,N,12126.5773,E,1,00,00027.783,M 
$GPGGA,222524.000,3101.5369,N,12126.5771,E,1,00,00027.783,M 
$GPGGA,222525.000,3101.5367,N,12126.5768,E,1,00,00026.351,M 
$GPGGA,222526.000,3101.5360,N,12126.5763,E,1,00,00026.001,M 
$GPGGA,222526.000,3101.5357,N,12126.5760,E,1,00,00026.001,M 
$GPGGA,222527.000,3101.5361,N,12126.5751,E,1,00,00024.299,M 
$GPGGA,222527.000,3101.5361,N,12126.5746,E,1,00,00024.299,M 
$GPGGA,222528.000,3101.5362,N,12126.5742,E,1,00,00024.121,M 
$GPGGA,222528.000,3101.5362,N,12126.5739,E,1,00,00024.121,M 
$GPGGA,222529.000,3101.5361,N,12126.5733,E,1,00,00022.849,M 
$GPGGA,222529.000,3101.5361,N,12126.5730,E,1,00,00022.849,M 
$GPGGA,222530.000,3101.5358,N,12126.5724,E,1,00,00023.832,M 
$GPGGA,222530.000,3101.5357,N,12126.5721,E,1,00,00023.832,M 
$GPGGA,222531.000,3101.5360,N,12126.5709,E,1,00,00025.805,M 
$GPGGA,222532.000,3101.5368,N,12126.5695,E,1,00,00026.199,M 
$GPGGA,222532.000,3101.5370,N,12126.5688,E,1,00,00026.199,M 
$GPGGA,222533.000,3101.5376,N,12126.5676,E,1,00,00027.764,M 
$GPGGA,222533.000,3101.5378,N,12126.5670,E,1,00,00027.764,M 
$GPGGA,222534.000,3101.5378,N,12126.5663,E,1,00,00026.596,M 
$GPGGA,222534.000,3101.5377,N,12126.5659,E,1,00,00026.596,M 
$GPGGA,222535.000,3101.5372,N,12126.5658,E,1,00,00026.685,M 
$GPGGA,222536.000,3101.5373,N,12126.5648,E,1,00,00024.397,M 
$GPGGA,222536.000,3101.5372,N,12126.5644,E,1,00,00024.397,M 
$GPGGA,222537.000,3101.5371,N,12126.5639,E,1,00,00023.571,M 
$GPGGA,222537.000,3101.5370,N,12126.5636,E,1,00,00023.571,M 
$GPGGA,222538.000,3101.5366,N,12126.5632,E,1,00,00022.535,M 
$GPGGA,222538.000,3101.5364,N,12126.5629,E,1,00,00022.535,M 
$GPGGA,222539.000,3101.5358,N,12126.5628,E,1,00,00024.417,M 
$GPGGA,222539.000,3101.5355,N,12126.5626,E,1,00,00024.417,M 
$GPGGA,222540.000,3101.5356,N,12126.5617,E,1,00,00023.961,M 
$GPGGA,222541.000,3101.5354,N,12126.5608,E,1,00,00023.123,M 
$GPGGA,222541.000,3101.5354,N,12126.5603,E,1,00,00023.123,M 
$GPGGA,222542.000,3101.5352,N,12126.5597,E,1,00,00023.736,M 
$GPGGA,222542.000,3101.5351,N,12126.5593,E,1,00,00023.736,M 
$GPGGA,222543.000,3101.5352,N,12126.5587,E,1,00,00024.386,M 
$GPGGA,222544.000,3101.5349,N,12126.5584,E,1,00,00023.496,M 
$GPGGA,222544.000,3101.5348,N,12126.5582,E,1,00,00023.495,M 
$GPGGA,222545.000,3101.5344,N,12126.5578,E,1,00,00023.591,M 
$GPGGA,222545.000,3101.5342,N,12126.5575,E,1,00,00023.590,M 
$GPGGA,222546.000,3101.5342,N,12126.5570,E,1,00,00023.601,M 
$GPGGA,222546.000,3101.5341,N,12126.5568,E,1,00,00023.601,M 
$GPGGA,222547.000,3101.5338,N,12126.5563,E,1,00,00024.026,M 
$GPGGA,222548.000,3101.5335,N,12126.5556,E,1,00,00023.813,M 
$GPGGA,222548.000,3101.5333,N,12126.5553,E,1,00,00023.813,M 
$GPGGA,222549.000,3101.5331,N,12126.5544,E,1,00,00023.832,M 
$GPGGA,222549.000,3101.5330,N,12126.5540,E,1,00,00023.832,M 
$GPGGA,222550.000,3101.5328,N,12126.5536,E,1,00,00025.231,M 
$GPGGA,222550.000,3101.5327,N,12126.5533,E,1,00,00025.231,M 
$GPGGA,222551.000,3101.5327,N,12126.5530,E,1,00,00025.920,M 
$GPGGA,222552.000,3101.5324,N,12126.5525,E,1,00,00025.254,M 
$GPGGA,222552.000,3101.5323,N,12126.5522,E,1,00,00025.254,M 
$GPGGA,222553.000,3101.5322,N,12126.5517,E,1,00,00025.299,M 
$GPGGA,222553.000,3101.5321,N,12126.5514,E,1,00,00025.299,M 
$GPGGA,222554.000,3101.5315,N,12126.5515,E,1,00,00024.398,M 
$GPGGA,222555.000,3101.5312,N,12126.5512,E,1,00,00022.881,M 
$GPGGA,222555.000,3101.5310,N,12126.5510,E,1,00,00022.881,M 
$GPGGA,222556.000,3101.5307,N,12126.5504,E,1,00,00023.242,M 
$GPGGA,222556.000,3101.5305,N,12126.5501,E,1,00,00023.242,M 
$GPGGA,222557.000,3101.5305,N,12126.5498,E,1,00,00023.296,M 
$GPGGA,222557.000,3101.5305,N,12126.5495,E,1,00,00023.296,M 
$GPGGA,222558.000,3101.5301,N,12126.5490,E,1,00,00022.692,M 
$GPGGA,222559.000,3101.5298,N,12126.5483,E,1,00,00024.171,M 
$GPGGA,222559.000,3101.5296,N,12126.5479,E,1,00,00024.171,M 
$GPGGA,222600.000,3101.5294,N,12126.5476,E,1,00,00022.420,M 
$GPGGA,222600.000,3101.5293,N,12126.5473,E,1,00,00022.420,M 
$GPGGA,222601.000,3101.5289,N,12126.5470,E,1,00,00021.610,M 
$GPGGA,222602.000,3101.5282,N,12126.5466,E,1,00,00020.111,M 
$GPGGA,222602.000,3101.5279,N,12126.5464,E,1,00,00020.111,M 
$GPGGA,222603.000,3101.5274,N,12126.5462,E,1,00,00020.685,M 
$GPGGA,222603.000,3101.5272,N,12126.5460,E,1,00,00020.685,M 
$GPGGA,222604.000,3101.5270,N,12126.5454,E,1,00,00020.517,M 
$GPGGA,222604.000,3101.5269,N,12126.5452,E,1,00,00020.517,M 
$GPGGA,222605.000,3101.5267,N,12126.5448,E,1,00,00020.342,M 
$GPGGA,222606.000,3101.5264,N,12126.5442,E,1,00,00020.983,M 
$GPGGA,222606.000,3101.5262,N,12126.5438,E,1,00,00020.983,M 
$GPGGA,222607.000,3101.5264,N,12126.5427,E,1,00,00021.696,M 
$GPGGA,222607.000,3101.5264,N,12126.5421,E,1,00,00021.696,M 
$GPGGA,222608.000,3101.5262,N,12126.5418,E,1,00,00021.819,M 
$GPGGA,222608.000,3101.5260,N,12126.5415,E,1,00,00021.819,M 
$GPGGA,222609.000,3101.5258,N,12126.5412,E,1,00,00022.819,M 
$GPGGA,222610.000,3101.5256,N,12126.5409,E,1,00,00022.528,M 
$GPGGA,222610.000,3101.5255,N,12126.5407,E,1,00,00022.528,M 
$GPGGA,222611.000,3101.5250,N,12126.5404,E,1,00,00019.803,M 
$GPGGA,222611.000,3101.5247,N,12126.5402,E,1,00,00019.803,M 
$GPGGA,222612.000,3101.5248,N,12126.5397,E,1,00,00019.479,M 
$GPGGA,222612.000,3101.5247,N,12126.5394,E,1,00,00019.479,M 
$GPGGA,222613.000,3101.5245,N,12126.5388,E,1,00,00019.529,M 
$GPGGA,222613.000,3101.5244,N,12126.5385,E,1,00,00019.529,M 
$GPGGA,222614.000,3101.5240,N,12126.5382,E,1,00,00020.221,M 
$GPGGA,222615.000,3101.5238,N,12126.5372,E,1,00,00019.813,M 
$GPGGA,222615.000,3101.5238,N,12126.5366,E,1,00,00019.812,M 
$GPGGA,222616.000,3101.5238,N,12126.5360,E,1,00,00021.187,M 
$GPGGA,222616.000,3101.5238,N,12126.5356,E,1,00,00021.187,M 
$GPGGA,222617.000,3101.5238,N,12126.5351,E,1,00,00023.250,M 
$GPGGA,222617.000,3101.5237,N,12126.5348,E,1,00,00023.250,M 
$GPGGA,222618.000,3101.5236,N,12126.5344,E,1,00,00021.724,M 
$GPGGA,222619.000,3101.5235,N,12126.5337,E,1,00,00022.669,M 
$GPGGA,222619.000,3101.5234,N,12126.5334,E,1,00,00022.669,M 
$GPGGA,222620.000,3101.5237,N,12126.5329,E,1,00,00022.677,M 
$GPGGA,222620.000,3101.5238,N,12126.5328,E,1,00,00022.677,M 
$GPGGA,222656.000,3101.5248,N,12126.5313,E,1,00,00029.540,M 
$GPGGA,222657.000,3101.5249,N,12126.5306,E,1,00,00029.293,M 
$GPGGA,222657.000,3101.5250,N,12126.5302,E,1,00,00029.293,M 
$GPGGA,222658.000,3101.5242,N,12126.5299,E,1,00,00025.714,M 
$GPGGA,222658.000,3101.5239,N,12126.5297,E,1,00,00025.714,M 
$GPGGA,222659.000,3101.5233,N,12126.5296,E,1,00,00024.672,M 
$GPGGA,222700.000,3101.5228,N,12126.5290,E,1,00,00025.229,M 
$GPGGA,222700.000,3101.5226,N,12126.5287,E,1,00,00025.229,M 
$GPGGA,222701.000,3101.5224,N,12126.5278,E,1,00,00025.282,M 
$GPGGA,222701.000,3101.5223,N,12126.5273,E,1,00,00025.282,M 
$GPGGA,222702.000,3101.5223,N,12126.5265,E,1,00,00028.403,M 
$GPGGA,222702.000,3101.5223,N,12126.5261,E,1,00,00028.403,M 
$GPGGA,222703.000,3101.5219,N,12126.5260,E,1,00,00028.849,M 
$GPGGA,222703.000,3101.5217,N,12126.5258,E,1,00,00028.849,M 
$GPGGA,222704.000,3101.5216,N,12126.5249,E,1,00,00028.647,M 
$GPGGA,222705.000,3101.5215,N,12126.5242,E,1,00,00027.799,M 
$GPGGA,222705.000,3101.5214,N,12126.5238,E,1,00,00027.799,M 
$GPGGA,222706.000,3101.5215,N,12126.5230,E,1,00,00028.857,M 
$GPGGA,222706.000,3101.5214,N,12126.5227,E,1,00,00028.857,M 
$GPGGA,222707.000,3101.5208,N,12126.5225,E,1,00,00026.409,M 
$GPGGA,222707.000,3101.5205,N,12126.5224,E,1,00,00026.409,M 
$GPGGA,222708.000,3101.5205,N,12126.5215,E,1,00,00029.820,M 
$GPGGA,222708.000,3101.5205,N,12126.5211,E,1,00,00029.820,M 
$GPGGA,222709.000,3101.5206,N,12126.5207,E,1,00,00030.150,M 
$GPGGA,222709.000,3101.5206,N,12126.5204,E,1,00,00030.150,M 
$GPGGA,222710.000,3101.5204,N,12126.5199,E,1,00,00029.840,M 
$GPGGA,222710.000,3101.5203,N,12126.5197,E,1,00,00029.840,M 
$GPGGA,222711.000,3101.5200,N,12126.5190,E,1,00,00029.493,M 
$GPGGA,222712.000,3101.5200,N,12126.5183,E,1,00,00028.571,M 
$GPGGA,222712.000,3101.5200,N,12126.5179,E,1,00,00028.571,M 
$GPGGA,222713.000,3101.5197,N,12126.5172,E,1,00,00027.101,M 
$GPGGA,222713.000,3101.5195,N,12126.5168,E,1,00,00027.101,M 
$GPGGA,222714.000,3101.5194,N,12126.5163,E,1,00,00028.897,M 
$GPGGA,222714.000,3101.5194,N,12126.5160,E,1,00,00028.897,M 
$GPGGA,222715.000,3101.5192,N,12126.5156,E,1,00,00028.083,M 
$GPGGA,222715.000,3101.5191,N,12126.5153,E,1,00,00028.083,M 
$GPGGA,222716.000,3101.5191,N,12126.5151,E,1,00,00026.701,M 
$GPGGA,222717.000,3101.5188,N,12126.5143,E,1,00,00027.133,M 
$GPGGA,222717.000,3101.5187,N,12126.5139,E,1,00,00027.133,M 
$GPGGA,222718.000,3101.5184,N,12126.5133,E,1,00,00026.178,M 
$GPGGA,222718.000,3101.5183,N,12126.5130,E,1,00,00026.178,M 
$GPGGA,222719.000,3101.5180,N,12126.5127,E,1,00,00026.529,M 
$GPGGA,222719.000,3101.5178,N,12126.5125,E,1,00,00026.529,M 
$GPGGA,222720.000,3101.5175,N,12126.5120,E,1,00,00025.919,M 
$GPGGA,222720.000,3101.5174,N,12126.5117,E,1,00,00025.919,M 
$GPGGA,222721.000,3101.5172,N,12126.5113,E,1,00,00024.553,M 
$GPGGA,222722.000,3101.5167,N,12126.5107,E,1,00,00025.066,M 
$GPGGA,222722.000,3101.5165,N,12126.5104,E,1,00,00025.066,M 
$GPGGA,222723.000,3101.5162,N,12126.5102,E,1,00,00025.741,M 
$GPGGA,222723.000,3101.5161,N,12126.5101,E,1,00,00025.741,M 
$GPGGA,222724.000,3101.5156,N,12126.5097,E,1,00,00023.928,M 
$GPGGA,222724.000,3101.5154,N,12126.5094,E,1,00,00023.928,M 
$GPGGA,222725.000,3101.5151,N,12126.5089,E,1,00,00024.948,M 
$GPGGA,222726.000,3101.5150,N,12126.5084,E,1,00,00024.344,M 
$GPGGA,222726.000,3101.5150,N,12126.5081,E,1,00,00024.344,M 
$GPGGA,222727.000,3101.5147,N,12126.5076,E,1,00,00022.806,M 
$GPGGA,222727.000,3101.5145,N,12126.5073,E,1,00,00022.806,M 
$GPGGA,222728.000,3101.5142,N,12126.5069,E,1,00,00021.049,M 
$GPGGA,222728.000,3101.5141,N,12126.5067,E,1,00,00021.049,M 
$GPGGA,222729.000,3101.5143,N,12126.5060,E,1,00,00022.021,M 
$GPGGA,222730.000,3101.5143,N,12126.5052,E,1,00,00020.882,M 
$GPGGA,222730.000,3101.5142,N,12126.5047,E,1,00,00020.882,M 
$GPGGA,222731.000,3101.5143,N,12126.5041,E,1,00,00021.447,M 
$GPGGA,222731.000,3101.5143,N,12126.5037,E,1,00,00021.447,M 
$GPGGA,222732.000,3101.5142,N,12126.5033,E,1,00,00021.120,M 
$GPGGA,222732.000,3101.5142,N,12126.5031,E,1,00,00021.120,M 
$GPGGA,222733.000,3101.5142,N,12126.5026,E,1,00,00020.849,M 
$GPGGA,222733.000,3101.5141,N,12126.5023,E,1,00,00020.849,M 
$GPGGA,222734.000,3101.5138,N,12126.5021,E,1,00,00021.127,M 
$GPGGA,222735.000,3101.5129,N,12126.5017,E,1,00,00020.296,M 
$GPGGA,222735.000,3101.5126,N,12126.5014,E,1,00,00020.296,M 
$GPGGA,222736.000,3101.5127,N,12126.5010,E,1,00,00019.973,M 
$GPGGA,222736.000,3101.5127,N,12126.5007,E,1,00,00019.973,M 
$GPGGA,222737.000,3101.5129,N,12126.4996,E,1,00,00020.887,M 
$GPGGA,222737.000,3101.5130,N,12126.4991,E,1,00,00020.887,M 
$GPGGA,222738.000,3101.5131,N,12126.4986,E,1,00,00021.062,M 
$GPGGA,222738.000,3101.5131,N,12126.4983,E,1,00,00021.062,M 
$GPGGA,222739.000,3101.5131,N,12126.4975,E,1,00,00021.675,M 
$GPGGA,222739.000,3101.5130,N,12126.4971,E,1,00,00021.675,M 
$GPGGA,222740.000,3101.5127,N,12126.4968,E,1,00,00021.878,M 
$GPGGA,222741.000,3101.5123,N,12126.4964,E,1,00,00023.078,M 
$GPGGA,222741.000,3101.5121,N,12126.4961,E,1,00,00023.078,M 
$GPGGA,222742.000,3101.5122,N,12126.4954,E,1,00,00023.615,M 
$GPGGA,222742.000,3101.5123,N,12126.4950,E,1,00,00023.615,M 
$GPGGA,222743.000,3101.5117,N,12126.4945,E,1,00,00023.297,M 
$GPGGA,222743.000,3101.5115,N,12126.4942,E,1,00,00023.297,M 
$GPGGA,222744.000,3101.5113,N,12126.4936,E,1,00,00023.250,M 
$GPGGA,222744.000,3101.5112,N,12126.4933,E,1,00,00023.250,M 
$GPGGA,222745.000,3101.5112,N,12126.4924,E,1,00,00024.885,M 
$GPGGA,222746.000,3101.5109,N,12126.4916,E,1,00,00026.589,M 
$GPGGA,222746.000,3101.5108,N,12126.4913,E,1,00,00026.589,M 
$GPGGA,222747.000,3101.5108,N,12126.4907,E,1,00,00026.344,M 
$GPGGA,222747.000,3101.5107,N,12126.4904,E,1,00,00026.344,M 
$GPGGA,222748.000,3101.5105,N,12126.4899,E,1,00,00026.767,M 
$GPGGA,222748.000,3101.5103,N,12126.4895,E,1,00,00026.767,M 
$GPGGA,222749.000,3101.5100,N,12126.4892,E,1,00,00026.844,M 
$GPGGA,222750.000,3101.5099,N,12126.4886,E,1,00,00028.016,M 
$GPGGA,222750.000,3101.5098,N,12126.4883,E,1,00,00028.016,M 
$GPGGA,222751.000,3101.5096,N,12126.4881,E,1,00,00028.567,M 
$GPGGA,222751.000,3101.5095,N,12126.4880,E,1,00,00028.567,M 
$GPGGA,222752.000,3101.5092,N,12126.4873,E,1,00,00029.589,M 
$GPGGA,222752.000,3101.5091,N,12126.4869,E,1,00,00029.589,M 
$GPGGA,222753.000,3101.5090,N,12126.4864,E,1,00,00029.511,M 
$GPGGA,222754.000,3101.5088,N,12126.4858,E,1,00,00030.282,M 
$GPGGA,222754.000,3101.5086,N,12126.4855,E,1,00,00030.282,M 
$GPGGA,222755.000,3101.5085,N,12126.4849,E,1,00,00030.768,M 
$GPGGA,222755.000,3101.5084,N,12126.4846,E,1,00,00030.768,M 
$GPGGA,222756.000,3101.5084,N,12126.4838,E,1,00,00029.363,M 
$GPGGA,222756.000,3101.5083,N,12126.4834,E,1,00,00029.363,M 
$GPGGA,222757.000,3101.5082,N,12126.4834,E,1,00,00030.765,M 
$GPGGA,222758.000,3101.5080,N,12126.4830,E,1,00,00031.674,M 
$GPGGA,222758.000,3101.5078,N,12126.4828,E,1,00,00031.674,M 
$GPGGA,222759.000,3101.5075,N,12126.4827,E,1,00,00030.711,M 
$GPGGA,222759.000,3101.5073,N,12126.4826,E,1,00,00030.711,M 
$GPGGA,222800.000,3101.5070,N,12126.4820,E,1,00,00031.461,M 
$GPGGA,222800.000,3101.5068,N,12126.4817,E,1,00,00031.461,M 
$GPGGA,222801.000,3101.5066,N,12126.4814,E,1,00,00031.915,M 
$GPGGA,222801.000,3101.5065,N,12126.4812,E,1,00,00031.915,M 
$GPGGA,222802.000,3101.5058,N,12126.4809,E,1,00,00030.075,M 
$GPGGA,222803.000,3101.5054,N,12126.4804,E,1,00,00028.182,M 
$GPGGA,222803.000,3101.5052,N,12126.4802,E,1,00,00028.182,M 
$GPGGA,222804.000,3101.5042,N,12126.4803,E,1,00,00027.614,M 
$GPGGA,222804.000,3101.5038,N,12126.4804,E,1,00,00027.614,M 
$GPGGA,222805.000,3101.5035,N,12126.4800,E,1,00,00024.633,M 
$GPGGA,222806.000,3101.5033,N,12126.4794,E,1,00,00022.426,M 
$GPGGA,222806.000,3101.5032,N,12126.4791,E,1,00,00022.426,M 
$GPGGA,222807.000,3101.5031,N,12126.4786,E,1,00,00022.088,M 
$GPGGA,222807.000,3101.5030,N,12126.4783,E,1,00,00022.088,M 
$GPGGA,222808.000,3101.5028,N,12126.4774,E,1,00,00021.354,M 
$GPGGA,222808.000,3101.5027,N,12126.4770,E,1,00,00021.354,M 
$GPGGA,222809.000,3101.5025,N,12126.4768,E,1,00,00021.600,M 
$GPGGA,222810.000,3101.5026,N,12126.4761,E,1,00,00022.349,M 
$GPGGA,222810.000,3101.5025,N,12126.4757,E,1,00,00022.349,M 
$GPGGA,222811.000,3101.5022,N,12126.4750,E,1,00,00022.107,M 
$GPGGA,222811.000,3101.5021,N,12126.4746,E,1,00,00022.107,M 
$GPGGA,222812.000,3101.5018,N,12126.4741,E,1,00,00021.287,M 
$GPGGA,222812.000,3101.5017,N,12126.4738,E,1,00,00021.287,M 
$GPGGA,222813.000,3101.5012,N,12126.4734,E,1,00,00020.298,M 
$GPGGA,222813.000,3101.5009,N,12126.4732,E,1,00,00020.298,M 
$GPGGA,222814.000,3101.5005,N,12126.4730,E,1,00,00019.060,M 
$GPGGA,222815.000,3101.4999,N,12126.4726,E,1,00,00017.616,M 
$GPGGA,222815.000,3101.4997,N,12126.4723,E,1,00,00017.616,M 
$GPGGA,222816.000,3101.4995,N,12126.4716,E,1,00,00017.772,M 
$GPGGA,222816.000,3101.4995,N,12126.4712,E,1,00,00017.772,M 
$GPGGA,222817.000,3101.4990,N,12126.4709,E,1,00,00015.847,M 
$GPGGA,222817.000,3101.4988,N,12126.4706,E,1,00,00015.847,M 
$GPGGA,222818.000,3101.4985,N,12126.4700,E,1,00,00013.698,M 
$GPGGA,222819.000,3101.4980,N,12126.4696,E,1,00,00015.159,M 
$GPGGA,222819.000,3101.4978,N,12126.4693,E,1,00,00015.159,M 
$GPGGA,222820.000,3101.4975,N,12126.4691,E,1,00,00016.443,M 
$GPGGA,222820.000,3101.4973,N,12126.4689,E,1,00,00016.443,M 
$GPGGA,222821.000,3101.4977,N,12126.4681,E,1,00,00016.336,M 
$GPGGA,222821.000,3101.4978,N,12126.4677,E,1,00,00016.336,M 
$GPGGA,222822.000,3101.4978,N,12126.4672,E,1,00,00016.585,M 
$GPGGA,222822.000,3101.4978,N,12126.4669,E,1,00,00016.585,M 
$GPGGA,222823.000,3101.4982,N,12126.4658,E,1,00,00016.296,M 
$GPGGA,222824.000,3101.4978,N,12126.4652,E,1,00,00017.749,M 
$GPGGA,222824.000,3101.4977,N,12126.4648,E,1,00,00017.749,M 
$GPGGA,222825.000,3101.4978,N,12126.4642,E,1,00,00016.174,M 
$GPGGA,222825.000,3101.4979,N,12126.4638,E,1,00,00016.174,M 
$GPGGA,222826.000,3101.4975,N,12126.4635,E,1,00,00016.563,M 
$GPGGA,222827.000,3101.4967,N,12126.4632,E,1,00,00016.058,M 
$GPGGA,222827.000,3101.4964,N,12126.4629,E,1,00,00016.057,M 
$GPGGA,222828.000,3101.4962,N,12126.4622,E,1,00,00016.002,M 
$GPGGA,222828.000,3101.4961,N,12126.4618,E,1,00,00016.002,M 
$GPGGA,222829.000,3101.4956,N,12126.4613,E,1,00,00016.447,M 
$GPGGA,222829.000,3101.4954,N,12126.4610,E,1,00,00016.446,M 
$GPGGA,222830.000,3101.4952,N,12126.4609,E,1,00,00016.938,M 
$GPGGA,222831.000,3101.4951,N,12126.4606,E,1,00,00015.943,M 
$GPGGA,222831.000,3101.4950,N,12126.4604,E,1,00,00015.943,M 
$GPGGA,222832.000,3101.4951,N,12126.4601,E,1,00,00014.908,M 
$GPGGA,222832.000,3101.4951,N,12126.4599,E,1,00,00014.908,M 
$GPGGA,222833.000,3101.4948,N,12126.4593,E,1,00,00016.477,M 
$GPGGA,222833.000,3101.4947,N,12126.4590,E,1,00,00016.477,M 
$GPGGA,222834.000,3101.4944,N,12126.4582,E,1,00,00015.140,M 
$GPGGA,222835.000,3101.4942,N,12126.4574,E,1,00,00016.026,M 
$GPGGA,222835.000,3101.4941,N,12126.4570,E,1,00,00016.025,M 
$GPGGA,222836.000,3101.4936,N,12126.4565,E,1,00,00016.751,M 
$GPGGA,222836.000,3101.4933,N,12126.4562,E,1,00,00016.751,M 
$GPGGA,222837.000,3101.4930,N,12126.4555,E,1,00,00017.260,M 
$GPGGA,222838.000,3101.4929,N,12126.4548,E,1,00,00016.474,M 
$GPGGA,222838.000,3101.4929,N,12126.4544,E,1,00,00016.474,M 
$GPGGA,222839.000,3101.4930,N,12126.4539,E,1,00,00015.087,M 
$GPGGA,222840.000,3101.4928,N,12126.4533,E,1,00,00015.163,M 
$GPGGA,222907.000,3101.4923,N,12126.4533,E,1,00,00012.761,M 
$GPGGA,222907.000,3101.4922,N,12126.4532,E,1,00,00012.760,M 
$GPGGA,222908.000,3101.4919,N,12126.4528,E,1,00,00012.908,M 
$GPGGA,222909.000,3101.4921,N,12126.4521,E,1,00,00012.735,M 
$GPGGA,222909.000,3101.4921,N,12126.4517,E,1,00,00012.735,M 
$GPGGA,222910.000,3101.4922,N,12126.4514,E,1,00,00013.420,M 
$GPGGA,222910.000,3101.4922,N,12126.4512,E,1,00,00013.420,M 
$GPGGA,222911.000,3101.4920,N,12126.4510,E,1,00,00012.679,M 
$GPGGA,222911.000,3101.4919,N,12126.4509,E,1,00,00012.679,M 
$GPGGA,222912.000,3101.4917,N,12126.4496,E,1,00,00011.686,M 
$GPGGA,222913.000,3101.4915,N,12126.4485,E,1,00,00011.559,M 
$GPGGA,222913.000,3101.4915,N,12126.4479,E,1,00,00011.559,M 
$GPGGA,222914.000,3101.4913,N,12126.4476,E,1,00,00010.508,M 
$GPGGA,222914.000,3101.4913,N,12126.4474,E,1,00,00010.508,M 
$GPGGA,222915.000,3101.4915,N,12126.4471,E,1,00,00012.159,M 
$GPGGA,222915.000,3101.4915,N,12126.4468,E,1,00,00012.159,M 
$GPGGA,222916.000,3101.4916,N,12126.4461,E,1,00,00013.429,M 
$GPGGA,222917.000,3101.4916,N,12126.4454,E,1,00,00013.420,M 
$GPGGA,222917.000,3101.4916,N,12126.4451,E,1,00,00013.420,M 
$GPGGA,222918.000,3101.4914,N,12126.4447,E,1,00,00014.973,M 
$GPGGA,222918.000,3101.4912,N,12126.4445,E,1,00,00014.973,M 
$GPGGA,222919.000,3101.4910,N,12126.4441,E,1,00,00015.267,M 
$GPGGA,222919.000,3101.4909,N,12126.4438,E,1,00,00015.267,M 
$GPGGA,222920.000,3101.4908,N,12126.4434,E,1,00,00016.168,M 
$GPGGA,222920.000,3101.4908,N,12126.4432,E,1,00,00016.168,M 
$GPGGA,222921.000,3101.4907,N,12126.4423,E,1,00,00015.933,M 
$GPGGA,222922.000,3101.4905,N,12126.4417,E,1,00,00015.977,M 
$GPGGA,222922.000,3101.4904,N,12126.4413,E,1,00,00015.977,M 
$GPGGA,222923.000,3101.4901,N,12126.4409,E,1,00,00016.394,M 
$GPGGA,222923.000,3101.4899,N,12126.4407,E,1,00,00016.394,M 
$GPGGA,222924.000,3101.4897,N,12126.4404,E,1,00,00017.842,M 
$GPGGA,222924.000,3101.4896,N,12126.4402,E,1,00,00017.842,M 
$GPGGA,222925.000,3101.4896,N,12126.4393,E,1,00,00017.849,M 
$GPGGA,222926.000,3101.4898,N,12126.4386,E,1,00,00019.038,M 
$GPGGA,222926.000,3101.4899,N,12126.4382,E,1,00,00019.038,M 
$GPGGA,222927.000,3101.4900,N,12126.4372,E,1,00,00017.299,M 
$GPGGA,222927.000,3101.4900,N,12126.4367,E,1,00,00017.298,M 
$GPGGA,222928.000,3101.4899,N,12126.4363,E,1,00,00016.393,M 
$GPGGA,222928.000,3101.4898,N,12126.4360,E,1,00,00016.393,M 
$GPGGA,222929.000,3101.4897,N,12126.4355,E,1,00,00016.142,M 
$GPGGA,222930.000,3101.4895,N,12126.4345,E,1,00,00015.149,M 
$GPGGA,222930.000,3101.4894,N,12126.4341,E,1,00,00015.149,M 
$GPGGA,222931.000,3101.4893,N,12126.4335,E,1,00,00016.136,M 
$GPGGA,222931.000,3101.4892,N,12126.4333,E,1,00,00016.136,M 
$GPGGA,222932.000,3101.4888,N,12126.4326,E,1,00,00015.256,M 
$GPGGA,222932.000,3101.4886,N,12126.4323,E,1,00,00015.255,M 
$GPGGA,222933.000,3101.4883,N,12126.4319,E,1,00,00016.305,M 
$GPGGA,222933.000,3101.4882,N,12126.4316,E,1,00,00016.305,M 
$GPGGA,222934.000,3101.4880,N,12126.4310,E,1,00,00015.661,M 
$GPGGA,222935.000,3101.4874,N,12126.4303,E,1,00,00014.628,M 
$GPGGA,222935.000,3101.4871,N,12126.4300,E,1,00,00014.628,M 
$GPGGA,222936.000,3101.4867,N,12126.4296,E,1,00,00013.675,M 
$GPGGA,222936.000,3101.4865,N,12126.4293,E,1,00,00013.675,M 
$GPGGA,222937.000,3101.4862,N,12126.4289,E,1,00,00013.342,M 
$GPGGA,222937.000,3101.4861,N,12126.4286,E,1,00,00013.342,M 
$GPGGA,222938.000,3101.4862,N,12126.4277,E,1,00,00014.447,M 
$GPGGA,222939.000,3101.4864,N,12126.4269,E,1,00,00013.963,M 
$GPGGA,222939.000,3101.4864,N,12126.4265,E,1,00,00013.963,M 
$GPGGA,222940.000,3101.4864,N,12126.4259,E,1,00,00014.671,M 
$GPGGA,222940.000,3101.4864,N,12126.4256,E,1,00,00014.671,M 
$GPGGA,222941.000,3101.4864,N,12126.4252,E,1,00,00012.426,M 
$GPGGA,222941.000,3101.4864,N,12126.4250,E,1,00,00012.426,M 
$GPGGA,222942.000,3101.4864,N,12126.4243,E,1,00,00014.289,M 
$GPGGA,222942.000,3101.4864,N,12126.4239,E,1,00,00014.289,M 
$GPGGA,222943.000,3101.4859,N,12126.4234,E,1,00,00013.558,M 
$GPGGA,222944.000,3101.4856,N,12126.4230,E,1,00,00014.042,M 
$GPGGA,222944.000,3101.4855,N,12126.4227,E,1,00,00014.042,M 
$GPGGA,222945.000,3101.4856,N,12126.4222,E,1,00,00014.351,M 
$GPGGA,222945.000,3101.4856,N,12126.4220,E,1,00,00014.351,M 
$GPGGA,222946.000,3101.4855,N,12126.4214,E,1,00,00016.038,M 
$GPGGA,222946.000,3101.4854,N,12126.4210,E,1,00,00016.038,M 
$GPGGA,222947.000,3101.4857,N,12126.4205,E,1,00,00017.314,M 
$GPGGA,222948.000,3101.4855,N,12126.4198,E,1,00,00018.143,M 
$GPGGA,222948.000,3101.4853,N,12126.4194,E,1,00,00018.143,M 
$GPGGA,222949.000,3101.4848,N,12126.4192,E,1,00,00017.934,M 
$GPGGA,222949.000,3101.4845,N,12126.4190,E,1,00,00017.934,M 
$GPGGA,222950.000,3101.4845,N,12126.4189,E,1,00,00017.135,M 
$GPGGA,222950.000,3101.4844,N,12126.4188,E,1,00,00017.135,M 
$GPGGA,222951.000,3101.4840,N,12126.4184,E,1,00,00017.151,M 
$GPGGA,222952.000,3101.4838,N,12126.4181,E,1,00,00015.569,M 
$GPGGA,222952.000,3101.4837,N,12126.4178,E,1,00,00015.569,M 
$GPGGA,222953.000,3101.4839,N,12126.4174,E,1,00,00016.820,M 
$GPGGA,222953.000,3101.4839,N,12126.4171,E,1,00,00016.820,M 
$GPGGA,222954.000,3101.4837,N,12126.4163,E,1,00,00019.491,M 
$GPGGA,222954.000,3101.4835,N,12126.4159,E,1,00,00019.491,M 
$GPGGA,222955.000,3101.4833,N,12126.4155,E,1,00,00018.437,M 
$GPGGA,222956.000,3101.4831,N,12126.4147,E,1,00,00019.022,M 
$GPGGA,222956.000,3101.4829,N,12126.4143,E,1,00,00019.022,M 
$GPGGA,222957.000,3101.4828,N,12126.4138,E,1,00,00017.806,M 
$GPGGA,222957.000,3101.4828,N,12126.4135,E,1,00,00017.806,M 
$GPGGA,222958.000,3101.4830,N,12126.4128,E,1,00,00020.309,M 
$GPGGA,222958.000,3101.4831,N,12126.4124,E,1,00,00020.309,M 
$GPGGA,222959.000,3101.4834,N,12126.4115,E,1,00,00021.735,M 
$GPGGA,223000.000,3101.4832,N,12126.4108,E,1,00,00020.461,M 
$GPGGA,223000.000,3101.4830,N,12126.4104,E,1,00,00020.461,M 
$GPGGA,223001.000,3101.4828,N,12126.4096,E,1,00,00018.347,M 
$GPGGA,223001.000,3101.4826,N,12126.4092,E,1,00,00018.347,M 
$GPGGA,223002.000,3101.4823,N,12126.4087,E,1,00,00017.922,M 
$GPGGA,223003.000,3101.4822,N,12126.4080,E,1,00,00017.741,M 
$GPGGA,223003.000,3101.4822,N,12126.4077,E,1,00,00017.741,M 
$GPGGA,223004.000,3101.4823,N,12126.4071,E,1,00,00018.488,M 
$GPGGA,223004.000,3101.4823,N,12126.4068,E,1,00,00018.488,M 
$GPGGA,223005.000,3101.4818,N,12126.4067,E,1,00,00017.628,M 
$GPGGA,223005.000,3101.4817,N,12126.4065,E,1,00,00017.628,M 
$GPGGA,223006.000,3101.4815,N,12126.4057,E,1,00,00018.234,M 
$GPGGA,223007.000,3101.4809,N,12126.4053,E,1,00,00016.986,M 
$GPGGA,223007.000,3101.4805,N,12126.4051,E,1,00,00016.986,M 
$GPGGA,223008.000,3101.4801,N,12126.4046,E,1,00,00015.322,M 
$GPGGA,223008.000,3101.4799,N,12126.4043,E,1,00,00015.322,M 
$GPGGA,223009.000,3101.4798,N,12126.4037,E,1,00,00016.740,M 
$GPGGA,223009.000,3101.4797,N,12126.4034,E,1,00,00016.740,M 
$GPGGA,223010.000,3101.4801,N,12126.4029,E,1,00,00016.861,M 
$GPGGA,223011.000,3101.4800,N,12126.4021,E,1,00,00017.631,M 
$GPGGA,223011.000,3101.4800,N,12126.4018,E,1,00,00017.631,M 
$GPGGA,223012.000,3101.4800,N,12126.4010,E,1,00,00016.628,M 
$GPGGA,223012.000,3101.4800,N,12126.4006,E,1,00,00016.628,M 
$GPGGA,223013.000,3101.4799,N,12126.4000,E,1,00,00017.036,M 
$GPGGA,223013.000,3101.4798,N,12126.3996,E,1,00,00017.036,M 
$GPGGA,223014.000,3101.4802,N,12126.3990,E,1,00,00016.939,M 
$GPGGA,223015.000,3101.4815,N,12126.3975,E,1,00,00019.306,M 
$GPGGA,223015.000,3101.4819,N,12126.3969,E,1,00,00019.306,M 
$GPGGA,223016.000,3101.4822,N,12126.3964,E,1,00,00020.088,M 
$GPGGA,223016.000,3101.4822,N,12126.3961,E,1,00,00020.088,M 
$GPGGA,223017.000,3101.4816,N,12126.3956,E,1,00,00020.126,M 
$GPGGA,223017.000,3101.4813,N,12126.3953,E,1,00,00020.126,M 
$GPGGA,223018.000,3101.4809,N,12126.3952,E,1,00,00018.845,M 
$GPGGA,223019.000,3101.4809,N,12126.3946,E,1,00,00018.527,M 
$GPGGA,223019.000,3101.4808,N,12126.3942,E,1,00,00018.527,M 
$GPGGA,223020.000,3101.4806,N,12126.3936,E,1,00,00018.422,M 
$GPGGA,223020.000,3101.4805,N,12126.3933,E,1,00,00018.422,M 
$GPGGA,223021.000,3101.4811,N,12126.3924,E,1,00,00020.906,M 
$GPGGA,223021.000,3101.4813,N,12126.3919,E,1,00,00020.905,M 
$GPGGA,223022.000,3101.4813,N,12126.3915,E,1,00,00021.410,M 
$GPGGA,223023.000,3101.4813,N,12126.3906,E,1,00,00021.097,M 
$GPGGA,223023.000,3101.4812,N,12126.3902,E,1,00,00021.097,M 
$GPGGA,223024.000,3101.4809,N,12126.3894,E,1,00,00020.775,M 
$GPGGA,223024.000,3101.4808,N,12126.3891,E,1,00,00020.775,M 
$GPGGA,223025.000,3101.4802,N,12126.3889,E,1,00,00020.852,M 
$GPGGA,223025.000,3101.4799,N,12126.3887,E,1,00,00020.852,M 
$GPGGA,223026.000,3101.4792,N,12126.3888,E,1,00,00022.174,M 
$GPGGA,223027.000,3101.4784,N,12126.3885,E,1,00,00022.609,M 
$GPGGA,223027.000,3101.4781,N,12126.3883,E,1,00,00022.609,M 
$GPGGA,223028.000,3101.4776,N,12126.3879,E,1,00,00023.198,M 
$GPGGA,223028.000,3101.4773,N,12126.3877,E,1,00,00023.198,M 
$GPGGA,223029.000,3101.4771,N,12126.3874,E,1,00,00020.793,M 
$GPGGA,223029.000,3101.4770,N,12126.3872,E,1,00,00020.793,M 
$GPGGA,223030.000,3101.4766,N,12126.3870,E,1,00,00021.484,M 
$GPGGA,223031.000,3101.4761,N,12126.3866,E,1,00,00020.679,M 
$GPGGA,223031.000,3101.4758,N,12126.3864,E,1,00,00020.679,M 
$GPGGA,223032.000,3101.4753,N,12126.3860,E,1,00,00021.319,M 
$GPGGA,223032.000,3101.4751,N,12126.3857,E,1,00,00021.319,M 
$GPGGA,223033.000,3101.4746,N,12126.3856,E,1,00,00020.043,M 
$GPGGA,223033.000,3101.4744,N,12126.3854,E,1,00,00020.043,M 
$GPGGA,223034.000,3101.4741,N,12126.3850,E,1,00,00018.442,M 
$GPGGA,223034.000,3101.4739,N,12126.3848,E,1,00,00018.442,M 
$GPGGA,223035.000,3101.4736,N,12126.3845,E,1,00,00017.852,M 
$GPGGA,223036.000,3101.4735,N,12126.3837,E,1,00,00018.178,M 
$GPGGA,223036.000,3101.4734,N,12126.3834,E,1,00,00018.178,M 
$GPGGA,223037.000,3101.4735,N,12126.3825,E,1,00,00017.879,M 
$GPGGA,223037.000,3101.4735,N,12126.3820,E,1,00,00017.879,M 
$GPGGA,223038.000,3101.4736,N,12126.3817,E,1,00,00018.859,M 
$GPGGA,223038.000,3101.4735,N,12126.3815,E,1,00,00018.859,M 
$GPGGA,223039.000,3101.4730,N,12126.3811,E,1,00,00018.431,M 
$GPGGA,223039.000,3101.4727,N,12126.3808,E,1,00,00018.431,M 
$GPGGA,223040.000,3101.4724,N,12126.3802,E,1,00,00020.097,M 
$GPGGA,223041.000,3101.4722,N,12126.3796,E,1,00,00020.350,M 
$GPGGA,223041.000,3101.4721,N,12126.3793,E,1,00,00020.350,M 
$GPGGA,223042.000,3101.4716,N,12126.3787,E,1,00,00018.533,M 
$GPGGA,223042.000,3101.4714,N,12126.3785,E,1,00,00018.533,M 
$GPGGA,223043.000,3101.4714,N,12126.3777,E,1,00,00019.344,M 
$GPGGA,223043.000,3101.4714,N,12126.3773,E,1,00,00019.344,M 
$GPGGA,223044.000,3101.4709,N,12126.3774,E,1,00,00018.028,M 
$GPGGA,223045.000,3101.4706,N,12126.3769,E,1,00,00018.033,M 
$GPGGA,223045.000,3101.4704,N,12126.3766,E,1,00,00018.033,M 
$GPGGA,223046.000,3101.4704,N,12126.3758,E,1,00,00017.408,M 
$GPGGA,223046.000,3101.4704,N,12126.3754,E,1,00,00017.408,M 
$GPGGA,223047.000,3101.4702,N,12126.3750,E,1,00,00017.417,M 
$GPGGA,223047.000,3101.4701,N,12126.3747,E,1,00,00017.417,M 
$GPGGA,223048.000,3101.4696,N,12126.3744,E,1,00,00018.363,M 
$GPGGA,223048.000,3101.4694,N,12126.3741,E,1,00,00018.363,M 
$GPGGA,223049.000,3101.4688,N,12126.3735,E,1,00,00016.279,M 
$GPGGA,223050.000,3101.4681,N,12126.3732,E,1,00,00015.691,M 
$GPGGA,223050.000,3101.4677,N,12126.3729,E,1,00,00015.691,M 
$GPGGA,223051.000,3101.4671,N,12126.3723,E,1,00,00014.857,M 
$GPGGA,223051.000,3101.4668,N,12126.3720,E,1,00,00014.857,M 
$GPGGA,223052.000,3101.4666,N,12126.3714,E,1,00,00014.688,M 
$GPGGA,223052.000,3101.4665,N,12126.3711,E,1,00,00014.688,M 
$GPGGA,223053.000,3101.4662,N,12126.3709,E,1,00,00014.881,M 
$GPGGA,223053.000,3101.4661,N,12126.3707,E,1,00,00014.881,M 
$GPGGA,223054.000,3101.4662,N,12126.3701,E,1,00,00013.960,M 
$GPGGA,223055.000,3101.4661,N,12126.3700,E,1,00,00014.047,M 
$GPGGA,223055.000,3101.4660,N,12126.3699,E,1,00,00014.047,M 
$GPGGA,223056.000,3101.4659,N,12126.3692,E,1,00,00014.971,M 
$GPGGA,223056.000,3101.4658,N,12126.3689,E,1,00,00014.971,M 
$GPGGA,223057.000,3101.4661,N,12126.3679,E,1,00,00016.035,M 
$GPGGA,223057.000,3101.4661,N,12126.3675,E,1,00,00016.035,M 
$GPGGA,223058.000,3101.4661,N,12126.3665,E,1,00,00016.531,M 
$GPGGA,223059.000,3101.4661,N,12126.3655,E,1,00,00017.383,M 
$GPGGA,223059.000,3101.4660,N,12126.3650,E,1,00,00017.383,M 
$GPGGA,223100.000,3101.4662,N,12126.3642,E,1,00,00019.439,M 
$GPGGA,223100.000,3101.4662,N,12126.3638,E,1,00,00019.439,M 
$GPGGA,223101.000,3101.4661,N,12126.3633,E,1,00,00019.269,M 
$GPGGA,223101.000,3101.4660,N,12126.3630,E,1,00,00019.269,M 
$GPGGA,223102.000,3101.4653,N,12126.3628,E,1,00,00018.325,M 
$GPGGA,223102.000,3101.4650,N,12126.3627,E,1,00,00018.325,M 
$GPGGA,223103.000,3101.4648,N,12126.3623,E,1,00,00020.106,M 
$GPGGA,223104.000,3101.4646,N,12126.3620,E,1,00,00017.488,M 
$GPGGA,223104.000,3101.4644,N,12126.3618,E,1,00,00017.488,M 
$GPGGA,223105.000,3101.4646,N,12126.3615,E,1,00,00016.825,M 
$GPGGA,223105.000,3101.4646,N,12126.3613,E,1,00,00016.825,M 
$GPGGA,223106.000,3101.4642,N,12126.3610,E,1,00,00017.450,M 
$GPGGA,223106.000,3101.4640,N,12126.3608,E,1,00,00017.450,M 
$GPGGA,223107.000,3101.4632,N,12126.3606,E,1,00,00018.334,M 
$GPGGA,223107.000,3101.4628,N,12126.3604,E,1,00,00018.334,M 
$GPGGA,223108.000,3101.4623,N,12126.3598,E,1,00,00019.174,M 
$GPGGA,223109.000,3101.4617,N,12126.3590,E,1,00,00018.842,M 
$GPGGA,223109.000,3101.4614,N,12126.3586,E,1,00,00018.842,M 
$GPGGA,223110.000,3101.4614,N,12126.3582,E,1,00,00021.713,M 
$GPGGA,223110.000,3101.4614,N,12126.3580,E,1,00,00021.713,M 
$GPGGA,223111.000,3101.4605,N,12126.3575,E,1,00,00020.065,M 
$GPGGA,223111.000,3101.4601,N,12126.3572,E,1,00,00020.065,M 
$GPGGA,223112.000,3101.4600,N,12126.3565,E,1,00,00020.684,M 
$GPGGA,223113.000,3101.4594,N,12126.3564,E,1,00,00019.533,M 
$GPGGA,223113.000,3101.4591,N,12126.3562,E,1,00,00019.533,M 
$GPGGA,223114.000,3101.4587,N,12126.3557,E,1,00,00019.773,M 
$GPGGA,223114.000,3101.4586,N,12126.3554,E,1,00,00019.773,M 
$GPGGA,223115.000,3101.4583,N,12126.3552,E,1,00,00017.553,M 
$GPGGA,223116.000,3101.4578,N,12126.3549,E,1,00,00016.788,M 
$GPGGA,223142.000,3101.4578,N,12126.3558,E,1,00,00016.941,M 
$GPGGA,223143.000,3101.4581,N,12126.3549,E,1,00,00019.554,M 
$GPGGA,223144.000,3101.4583,N,12126.3539,E,1,00,00020.789,M 
$GPGGA,223144.000,3101.4583,N,12126.3535,E,1,00,00020.789,M 
$GPGGA,223145.000,3101.4579,N,12126.3528,E,1,00,00020.370,M 
$GPGGA,223145.000,3101.4577,N,12126.3524,E,1,00,00020.370,M 
$GPGGA,223146.000,3101.4572,N,12126.3518,E,1,00,00021.366,M 
$GPGGA,223146.000,3101.4570,N,12126.3515,E,1,00,00021.366,M 
$GPGGA,223147.000,3101.4568,N,12126.3507,E,1,00,00022.584,M 
$GPGGA,223147.000,3101.4567,N,12126.3504,E,1,00,00022.584,M 
$GPGGA,223148.000,3101.4563,N,12126.3501,E,1,00,00022.879,M 
$GPGGA,223149.000,3101.4557,N,12126.3497,E,1,00,00023.096,M 
$GPGGA,223149.000,3101.4555,N,12126.3495,E,1,00,00023.096,M 
$GPGGA,223150.000,3101.4558,N,12126.3492,E,1,00,00021.420,M 
$GPGGA,223150.000,3101.4559,N,12126.3490,E,1,00,00021.420,M 
$GPGGA,223151.000,3101.4559,N,12126.3483,E,1,00,00021.106,M 
$GPGGA,223151.000,3101.4558,N,12126.3480,E,1,00,00021.106,M 
$GPGGA,223152.000,3101.4560,N,12126.3475,E,1,00,00019.343,M 
$GPGGA,223152.000,3101.4561,N,12126.3472,E,1,00,00019.343,M 
$GPGGA,223153.000,3101.4556,N,12126.3465,E,1,00,00018.393,M 
$GPGGA,223153.000,3101.4553,N,12126.3462,E,1,00,00018.393,M 
$GPGGA,223154.000,3101.4555,N,12126.3454,E,1,00,00017.815,M 
$GPGGA,223155.000,3101.4553,N,12126.3445,E,1,00,00018.235,M 
$GPGGA,223155.000,3101.4552,N,12126.3440,E,1,00,00018.235,M 
$GPGGA,223156.000,3101.4548,N,12126.3438,E,1,00,00017.889,M 
$GPGGA,223156.000,3101.4546,N,12126.3436,E,1,00,00017.888,M 
$GPGGA,223157.000,3101.4544,N,12126.3430,E,1,00,00017.771,M 
$GPGGA,223157.000,3101.4543,N,12126.3427,E,1,00,00017.771,M 
$GPGGA,223158.000,3101.4539,N,12126.3423,E,1,00,00018.319,M 
$GPGGA,223158.000,3101.4537,N,12126.3420,E,1,00,00018.319,M 
$GPGGA,223159.000,3101.4533,N,12126.3415,E,1,00,00018.440,M 
$GPGGA,223200.000,3101.4532,N,12126.3410,E,1,00,00016.932,M 
$GPGGA,223200.000,3101.4530,N,12126.3407,E,1,00,00016.932,M 
$GPGGA,223201.000,3101.4528,N,12126.3404,E,1,00,00015.953,M 
$GPGGA,223201.000,3101.4526,N,12126.3402,E,1,00,00015.953,M 
$GPGGA,223202.000,3101.4524,N,12126.3395,E,1,00,00015.466,M 
$GPGGA,223202.000,3101.4523,N,12126.3391,E,1,00,00015.466,M 
$GPGGA,223203.000,3101.4522,N,12126.3387,E,1,00,00013.626,M 
$GPGGA,223203.000,3101.4521,N,12126.3385,E,1,00,00013.626,M 
$GPGGA,223204.000,3101.4519,N,12126.3379,E,1,00,00015.526,M 
$GPGGA,223205.000,3101.4522,N,12126.3370,E,1,00,00016.216,M 
$GPGGA,223205.000,3101.4522,N,12126.3366,E,1,00,00016.216,M 
$GPGGA,223206.000,3101.4523,N,12126.3356,E,1,00,00016.139,M 
$GPGGA,223206.000,3101.4523,N,12126.3351,E,1,00,00016.139,M 
$GPGGA,223207.000,3101.4522,N,12126.3350,E,1,00,00015.281,M 
$GPGGA,223207.000,3101.4520,N,12126.3348,E,1,00,00015.281,M 
$GPGGA,223208.000,3101.4516,N,12126.3345,E,1,00,00014.180,M 
$GPGGA,223209.000,3101.4512,N,12126.3336,E,1,00,00014.248,M 
$GPGGA,223209.000,3101.4510,N,12126.3332,E,1,00,00014.248,M 
$GPGGA,223210.000,3101.4512,N,12126.3325,E,1,00,00017.555,M 
$GPGGA,223210.000,3101.4513,N,12126.3322,E,1,00,00017.555,M 
$GPGGA,223211.000,3101.4510,N,12126.3322,E,1,00,00018.580,M 
$GPGGA,223211.000,3101.4509,N,12126.3321,E,1,00,00018.580,M 
$GPGGA,223212.000,3101.4507,N,12126.3319,E,1,00,00018.755,M 
$GPGGA,223213.000,3101.4502,N,12126.3311,E,1,00,00017.640,M 
$GPGGA,223213.000,3101.4500,N,12126.3308,E,1,00,00017.640,M 
$GPGGA,223214.000,3101.4496,N,12126.3301,E,1,00,00019.267,M 
$GPGGA,223214.000,3101.4494,N,12126.3297,E,1,00,00019.267,M 
$GPGGA,223215.000,3101.4490,N,12126.3295,E,1,00,00018.485,M 
$GPGGA,223215.000,3101.4488,N,12126.3293,E,1,00,00018.485,M 
$GPGGA,223216.000,3101.4487,N,12126.3285,E,1,00,00019.329,M 
$GPGGA,223217.000,3101.4486,N,12126.3280,E,1,00,00018.754,M 
$GPGGA,223217.000,3101.4485,N,12126.3277,E,1,00,00018.754,M 
$GPGGA,223218.000,3101.4483,N,12126.3272,E,1,00,00018.084,M 
$GPGGA,223218.000,3101.4481,N,12126.3270,E,1,00,00018.084,M 
$GPGGA,223219.000,3101.4484,N,12126.3264,E,1,00,00017.542,M 
$GPGGA,223219.000,3101.4485,N,12126.3261,E,1,00,00017.542,M 
$GPGGA,223220.000,3101.4484,N,12126.3259,E,1,00,00018.334,M 
$GPGGA,223221.000,3101.4482,N,12126.3253,E,1,00,00017.799,M 
$GPGGA,223221.000,3101.4481,N,12126.3249,E,1,00,00017.799,M 
$GPGGA,223222.000,3101.4473,N,12126.3246,E,1,00,00016.573,M 
$GPGGA,223222.000,3101.4470,N,12126.3244,E,1,00,00016.573,M 
$GPGGA,223223.000,3101.4467,N,12126.3241,E,1,00,00016.122,M 
$GPGGA,223223.000,3101.4465,N,12126.3239,E,1,00,00016.122,M 
$GPGGA,223224.000,3101.4460,N,12126.3235,E,1,00,00016.702,M 
$GPGGA,223225.000,3101.4460,N,12126.3232,E,1,00,00015.198,M 
$GPGGA,223225.000,3101.4459,N,12126.3230,E,1,00,00015.198,M 
$GPGGA,223226.000,3101.4455,N,12126.3223,E,1,00,00012.584,M 
$GPGGA,223226.000,3101.4453,N,12126.3220,E,1,00,00012.584,M 
$GPGGA,223227.000,3101.4449,N,12126.3214,E,1,00,00014.075,M 
$GPGGA,223228.000,3101.4450,N,12126.3209,E,1,00,00012.898,M 
$GPGGA,223228.000,3101.4450,N,12126.3206,E,1,00,00012.898,M 
$GPGGA,223229.000,3101.4447,N,12126.3201,E,1,00,00011.341,M 
$GPGGA,223229.000,3101.4445,N,12126.3198,E,1,00,00011.341,M 
$GPGGA,223230.000,3101.4445,N,12126.3191,E,1,00,00011.965,M 
$GPGGA,223230.000,3101.4444,N,12126.3188,E,1,00,00011.965,M 
$GPGGA,223231.000,3101.4444,N,12126.3181,E,1,00,00011.045,M 
$GPGGA,223232.000,3101.4444,N,12126.3178,E,1,00,00010.219,M 
$GPGGA,223232.000,3101.4443,N,12126.3176,E,1,00,00010.219,M 
$GPGGA,223233.000,3101.4439,N,12126.3171,E,1,00,00010.772,M 
$GPGGA,223233.000,3101.4437,N,12126.3168,E,1,00,00010.772,M 
$GPGGA,223234.000,3101.4440,N,12126.3160,E,1,00,00010.167,M 
$GPGGA,223234.000,3101.4440,N,12126.3157,E,1,00,00010.167,M 
$GPGGA,223235.000,3101.4440,N,12126.3151,E,1,00,00010.972,M 
$GPGGA,223236.000,3101.4439,N,12126.3149,E,1,00,00012.088,M 
$GPGGA,223236.000,3101.4437,N,12126.3148,E,1,00,00012.088,M 
$GPGGA,223237.000,3101.4435,N,12126.3143,E,1,00,00012.582,M 
$GPGGA,223237.000,3101.4434,N,12126.3140,E,1,00,00012.582,M 
$GPGGA,223238.000,3101.4433,N,12126.3131,E,1,00,00012.795,M 
$GPGGA,223238.000,3101.4432,N,12126.3127,E,1,00,00012.795,M 
$GPGGA,223239.000,3101.4437,N,12126.3120,E,1,00,00014.440,M 
$GPGGA,223240.000,3101.4439,N,12126.3111,E,1,00,00016.123,M 
$GPGGA,223240.000,3101.4439,N,12126.3107,E,1,00,00016.123,M 
$GPGGA,223241.000,3101.4437,N,12126.3103,E,1,00,00016.503,M 
$GPGGA,223241.000,3101.4436,N,12126.3100,E,1,00,00016.503,M 
$GPGGA,223242.000,3101.4432,N,12126.3095,E,1,00,00015.833,M 
$GPGGA,223242.000,3101.4431,N,12126.3092,E,1,00,00015.833,M 
$GPGGA,223243.000,3101.4439,N,12126.3079,E,1,00,00017.474,M 
$GPGGA,223244.000,3101.4438,N,12126.3071,E,1,00,00015.230,M 
$GPGGA,223244.000,3101.4437,N,12126.3067,E,1,00,00015.230,M 
$GPGGA,223245.000,3101.4436,N,12126.3060,E,1,00,00016.726,M 
$GPGGA,223245.000,3101.4436,N,12126.3056,E,1,00,00016.726,M 
$GPGGA,223246.000,3101.4434,N,12126.3051,E,1,00,00016.074,M 
$GPGGA,223247.000,3101.4430,N,12126.3051,E,1,00,00014.487,M 
$GPGGA,223247.000,3101.4428,N,12126.3051,E,1,00,00014.487,M 
$GPGGA,223248.000,3101.4423,N,12126.3049,E,1,00,00012.993,M 
$GPGGA,223248.000,3101.4421,N,12126.3048,E,1,00,00012.993,M 
$GPGGA,223249.000,3101.4418,N,12126.3044,E,1,00,00012.871,M 
$GPGGA,223249.000,3101.4416,N,12126.3042,E,1,00,00012.871,M 
$GPGGA,223250.000,3101.4408,N,12126.3037,E,1,00,00013.449,M 
$GPGGA,223251.000,3101.4404,N,12126.3034,E,1,00,00012.164,M 
$GPGGA,223251.000,3101.4402,N,12126.3031,E,1,00,00012.164,M 
$GPGGA,223252.000,3101.4393,N,12126.3031,E,1,00,00011.366,M 
$GPGGA,223252.000,3101.4389,N,12126.3030,E,1,00,00011.366,M 
$GPGGA,223253.000,3101.4388,N,12126.3026,E,1,00,00011.807,M 
$GPGGA,223253.000,3101.4388,N,12126.3024,E,1,00,00011.807,M 
$GPGGA,223254.000,3101.4387,N,12126.3018,E,1,00,00012.009,M 
$GPGGA,223255.000,3101.4389,N,12126.3008,E,1,00,00012.350,M 
$GPGGA,223255.000,3101.4390,N,12126.3003,E,1,00,00012.350,M 
$GPGGA,223256.000,3101.4390,N,12126.2998,E,1,00,00012.538,M 
$GPGGA,223256.000,3101.4390,N,12126.2996,E,1,00,00012.538,M 
$GPGGA,223257.000,3101.4389,N,12126.2988,E,1,00,00013.301,M 
$GPGGA,223258.000,3101.4391,N,12126.2980,E,1,00,00013.979,M 
$GPGGA,223258.000,3101.4391,N,12126.2976,E,1,00,00013.979,M 
$GPGGA,223259.000,3101.4392,N,12126.2967,E,1,00,00014.056,M 
$GPGGA,223259.000,3101.4392,N,12126.2963,E,1,00,00014.056,M 
$GPGGA,223300.000,3101.4387,N,12126.2958,E,1,00,00015.335,M 
$GPGGA,223300.000,3101.4384,N,12126.2955,E,1,00,00015.335,M 
$GPGGA,223301.000,3101.4379,N,12126.2952,E,1,00,00015.738,M 
$GPGGA,223302.000,3101.4376,N,12126.2951,E,1,00,00014.623,M 
$GPGGA,223302.000,3101.4374,N,12126.2950,E,1,00,00014.623,M 
$GPGGA,223303.000,3101.4372,N,12126.2945,E,1,00,00013.976,M 
$GPGGA,223303.000,3101.4371,N,12126.2942,E,1,00,00013.976,M 
$GPGGA,223304.000,3101.4375,N,12126.2935,E,1,00,00013.801,M 
$GPGGA,223304.000,3101.4376,N,12126.2931,E,1,00,00013.801,M 
$GPGGA,223305.000,3101.4380,N,12126.2920,E,1,00,00015.465,M 
$GPGGA,223306.000,3101.4377,N,12126.2915,E,1,00,00016.777,M 
$GPGGA,223306.000,3101.4375,N,12126.2913,E,1,00,00016.777,M 
$GPGGA,223307.000,3101.4375,N,12126.2908,E,1,00,00015.639,M 
$GPGGA,223307.000,3101.4375,N,12126.2905,E,1,00,00015.639,M 
$GPGGA,223308.000,3101.4369,N,12126.2904,E,1,00,00017.106,M 
$GPGGA,223309.000,3101.4368,N,12126.2898,E,1,00,00016.276,M 
$GPGGA,223309.000,3101.4367,N,12126.2895,E,1,00,00016.276,M 
$GPGGA,223310.000,3101.4363,N,12126.2894,E,1,00,00015.720,M 
$GPGGA,223310.000,3101.4361,N,12126.2892,E,1,00,00015.720,M 
$GPGGA,223311.000,3101.4357,N,12126.2888,E,1,00,00016.078,M 
$GPGGA,223311.000,3101.4355,N,12126.2886,E,1,00,00016.078,M 
$GPGGA,223312.000,3101.4350,N,12126.2878,E,1,00,00014.735,M 
$GPGGA,223313.000,3101.4342,N,12126.2875,E,1,00,00015.556,M 
$GPGGA,223313.000,3101.4338,N,12126.2873,E,1,00,00015.556,M 
$GPGGA,223314.000,3101.4337,N,12126.2870,E,1,00,00015.548,M 
$GPGGA,223314.000,3101.4337,N,12126.2869,E,1,00,00015.548,M 
$GPGGA,223315.000,3101.4338,N,12126.2863,E,1,00,00016.651,M 
$GPGGA,223316.000,3101.4335,N,12126.2857,E,1,00,00017.323,M 
$GPGGA,223316.000,3101.4334,N,12126.2854,E,1,00,00017.323,M 
$GPGGA,223317.000,3101.4333,N,12126.2850,E,1,00,00016.130,M 
$GPGGA,223317.000,3101.4332,N,12126.2848,E,1,00,00016.130,M 
$GPGGA,223318.000,3101.4334,N,12126.2841,E,1,00,00016.710,M 
$GPGGA,223318.000,3101.4334,N,12126.2838,E,1,00,00016.710,M 
$GPGGA,223319.000,3101.4328,N,12126.2835,E,1,00,00018.696,M 
$GPGGA,223320.000,3101.4327,N,12126.2828,E,1,00,00018.847,M 
$GPGGA,223320.000,3101.4326,N,12126.2824,E,1,00,00018.847,M 
$GPGGA,223321.000,3101.4326,N,12126.2822,E,1,00,00018.514,M 
$GPGGA,223321.000,3101.4326,N,12126.2820,E,1,00,00018.514,M 
$GPGGA,223322.000,3101.4327,N,12126.2814,E,1,00,00018.804,M 
$GPGGA,223322.000,3101.4327,N,12126.2811,E,1,00,00018.804,M 
$GPGGA,223323.000,3101.4326,N,12126.2802,E,1,00,00020.225,M 
$GPGGA,223324.000,3101.4320,N,12126.2798,E,1,00,00018.512,M 
$GPGGA,223324.000,3101.4318,N,12126.2796,E,1,00,00018.512,M 
$GPGGA,223325.000,3101.4317,N,12126.2789,E,1,00,00018.122,M 
$GPGGA,223325.000,3101.4316,N,12126.2785,E,1,00,00018.122,M 
$GPGGA,223326.000,3101.4314,N,12126.2780,E,1,00,00020.191,M 
$GPGGA,223327.000,3101.4310,N,12126.2775,E,1,00,00020.483,M 
$GPGGA,223327.000,3101.4308,N,12126.2773,E,1,00,00020.483,M 
$GPGGA,223328.000,3101.4303,N,12126.2767,E,1,00,00018.355,M 
$GPGGA,223328.000,3101.4301,N,12126.2764,E,1,00,00018.355,M 
$GPGGA,223329.000,3101.4298,N,12126.2760,E,1,00,00019.268,M 
$GPGGA,223329.000,3101.4296,N,12126.2757,E,1,00,00019.268,M 
$GPGGA,223330.000,3101.4295,N,12126.2753,E,1,00,00019.808,M 
$GPGGA,223331.000,3101.4291,N,12126.2750,E,1,00,00017.700,M 
$GPGGA,223331.000,3101.4289,N,12126.2748,E,1,00,00017.700,M 
$GPGGA,223332.000,3101.4286,N,12126.2743,E,1,00,00017.759,M 
$GPGGA,223332.000,3101.4284,N,12126.2740,E,1,00,00017.759,M 
$GPGGA,223333.000,3101.4282,N,12126.2737,E,1,00,00017.484,M 
$GPGGA,223333.000,3101.4281,N,12126.2735,E,1,00,00017.484,M 
$GPGGA,223334.000,3101.4281,N,12126.2728,E,1,00,00018.789,M 
$GPGGA,223335.000,3101.4285,N,12126.2723,E,1,00,00018.905,M 
$GPGGA,223335.000,3101.4285,N,12126.2720,E,1,00,00018.905,M 
$GPGGA,223336.000,3101.4280,N,12126.2717,E,1,00,00020.345,M 
$GPGGA,223336.000,3101.4277,N,12126.2715,E,1,00,00020.345,M 
$GPGGA,223337.000,3101.4272,N,12126.2714,E,1,00,00021.062,M 
$GPGGA,223338.000,3101.4265,N,12126.2711,E,1,00,00020.054,M 
$GPGGA,223338.000,3101.4262,N,12126.2710,E,1,00,00020.054,M 
$GPGGA,223339.000,3101.4255,N,12126.2704,E,1,00,00020.947,M 
$GPGGA,223339.000,3101.4252,N,12126.2701,E,1,00,00020.947,M 
$GPGGA,223340.000,3101.4250,N,12126.2698,E,1,00,00020.350,M 
$GPGGA,223340.000,3101.4248,N,12126.2696,E,1,00,00020.350,M 
$GPGGA,223341.000,3101.4245,N,12126.2693,E,1,00,00019.104,M 
$GPGGA,223342.000,3101.4241,N,12126.2683,E,1,00,00019.522,M 
$GPGGA,223342.000,3101.4239,N,12126.2679,E,1,00,00019.522,M 
$GPGGA,223343.000,3101.4238,N,12126.2674,E,1,00,00017.678,M 
$GPGGA,223343.000,3101.4237,N,12126.2671,E,1,00,00017.678,M 
$GPGGA,223344.000,3101.4233,N,12126.2667,E,1,00,00016.960,M 
$GPGGA,223345.000,3101.4229,N,12126.2664,E,1,00,00016.565,M 
$GPGGA,223345.000,3101.4227,N,12126.2661,E,1,00,00016.565,M 
$GPGGA,223346.000,3101.4232,N,12126.2652,E,1,00,00017.873,M 
$GPGGA,223346.000,3101.4233,N,12126.2647,E,1,00,00017.873,M 
$GPGGA,223347.000,3101.4230,N,12126.2645,E,1,00,00017.184,M 
$GPGGA,223347.000,3101.4229,N,12126.2643,E,1,00,00017.184,M 
$GPGGA,223348.000,3101.4230,N,12126.2634,E,1,00,00018.276,M 
$GPGGA,223349.000,3101.4232,N,12126.2625,E,1,00,00019.101,M 
$GPGGA,223349.000,3101.4232,N,12126.2621,E,1,00,00019.101,M 
