$GPGGA,225635.000,3101.6624,N,12125.5713,E,1,00,-0013.730,M 
$GPGGA,225636.000,3101.6623,N,12125.5709,E,1,00,-0013.730,M 
$GPGGA,225636.000,3101.6622,N,12125.5705,E,1,00,-0013.730,M 
$GPGGA,225638.000,3101.6621,N,12125.5700,E,1,00,-0013.730,M 
$GPGGA,225638.000,3101.6620,N,12125.5696,E,1,00,-0013.730,M 
$GPGGA,225639.000,3101.6619,N,12125.5691,E,1,00,-0013.730,M 
$GPGGA,225639.000,3101.6618,N,12125.5687,E,1,00,-0013.730,M 
$GPGGA,225640.000,3101.6617,N,12125.5683,E,1,00,-0013.730,M 
$GPGGA,225640.000,3101.6616,N,12125.5678,E,1,00,-0013.729,M 
$GPGGA,225640.000,3101.6615,N,12125.5674,E,1,00,-0013.729,M 
$GPGGA,225642.000,3101.6614,N,12125.5670,E,1,00,-0013.729,M 
$GPGGA,225642.000,3101.6613,N,12125.5665,E,1,00,-0013.729,M 
$GPGGA,225643.000,3101.6612,N,12125.5661,E,1,00,-0013.729,M 
$GPGGA,225643.000,3101.6611,N,12125.5656,E,1,00,-0013.729,M 
$GPGGA,225644.000,3101.6610,N,12125.5652,E,1,00,-0013.729,M 
$GPGGA,225644.000,3101.6608,N,12125.5648,E,1,00,-0013.729,M 
$GPGGA,225645.000,3101.6607,N,12125.5643,E,1,00,-0013.729,M 
$GPGGA,225645.000,3101.6606,N,12125.5639,E,1,00,-0013.728,M 
$GPGGA,225646.000,3101.6605,N,12125.5635,E,1,00,-0013.728,M 
$GPGGA,225647.000,3101.6604,N,12125.5630,E,1,00,-0013.728,M 
$GPGGA,225647.000,3101.6603,N,12125.5626,E,1,00,-0013.728,M 
$GPGGA,225648.000,3101.6602,N,12125.5622,E,1,00,-0013.728,M 
$GPGGA,225648.000,3101.6601,N,12125.5617,E,1,00,-0013.728,M 
$GPGGA,225648.000,3101.6600,N,12125.5613,E,1,00,-0013.728,M 
$GPGGA,225648.000,3101.6599,N,12125.5609,E,1,00,-0013.728,M 
$GPGGA,225649.000,3101.6598,N,12125.5604,E,1,00,-0013.728,M 
$GPGGA,225649.000,3101.6597,N,12125.5600,E,1,00,-0013.728,M 
$GPGGA,225651.000,3101.6596,N,12125.5595,E,1,00,-0013.727,M 
$GPGGA,225651.000,3101.6595,N,12125.5591,E,1,00,-0013.727,M 
$GPGGA,225651.000,3101.6594,N,12125.5587,E,1,00,-0013.727,M 
$GPGGA,225653.000,3101.6593,N,12125.5582,E,1,00,-0013.727,M 
$GPGGA,225653.000,3101.6592,N,12125.5578,E,1,00,-0013.727,M 
$GPGGA,225654.000,3101.6591,N,12125.5573,E,1,00,-0013.727,M 
$GPGGA,225654.000,3101.6590,N,12125.5569,E,1,00,-0013.727,M 
$GPGGA,225654.000,3101.6589,N,12125.5565,E,1,00,-0013.727,M 
$GPGGA,225654.000,3101.6588,N,12125.5560,E,1,00,-0013.727,M 
$GPGGA,225656.000,3101.6588,N,12125.5556,E,1,00,-0013.726,M 
$GPGGA,225657.000,3101.6587,N,12125.5552,E,1,00,-0013.726,M 
$GPGGA,225657.000,3101.6586,N,12125.5548,E,1,00,-0013.726,M 
$GPGGA,225658.000,3101.6585,N,12125.5544,E,1,00,-0013.726,M 
$GPGGA,225658.000,3101.6584,N,12125.5539,E,1,00,-0013.726,M 
$GPGGA,225659.000,3101.6583,N,12125.5535,E,1,00,-0013.726,M 
$GPGGA,225659.000,3101.6582,N,12125.5531,E,1,00,-0013.726,M 
$GPGGA,225700.000,3101.6581,N,12125.5527,E,1,00,-0013.726,M 
$GPGGA,225701.000,3101.6580,N,12125.5522,E,1,00,-0013.726,M 
$GPGGA,225701.000,3101.6579,N,12125.5518,E,1,00,-0013.726,M 
$GPGGA,225702.000,3101.6578,N,12125.5513,E,1,00,-0013.725,M 
$GPGGA,225702.000,3101.6577,N,12125.5509,E,1,00,-0013.725,M 
$GPGGA,225703.000,3101.6576,N,12125.5505,E,1,00,-0013.725,M 
$GPGGA,225703.000,3101.6575,N,12125.5500,E,1,00,-0013.725,M 
$GPGGA,225704.000,3101.6574,N,12125.5496,E,1,00,-0013.725,M 
$GPGGA,225704.000,3101.6573,N,12125.5492,E,1,00,-0013.725,M 
$GPGGA,225705.000,3101.6572,N,12125.5487,E,1,00,-0013.725,M 
$GPGGA,225706.000,3101.6571,N,12125.5483,E,1,00,-0013.725,M 
$GPGGA,225706.000,3101.6570,N,12125.5479,E,1,00,-0013.725,M 
$GPGGA,225707.000,3101.6569,N,12125.5474,E,1,00,-0013.724,M 
$GPGGA,225707.000,3101.6568,N,12125.5470,E,1,00,-0013.724,M 
$GPGGA,225708.000,3101.6567,N,12125.5465,E,1,00,-0013.724,M 
$GPGGA,225708.000,3101.6566,N,12125.5461,E,1,00,-0013.724,M 
$GPGGA,225709.000,3101.6565,N,12125.5457,E,1,00,-0013.724,M 
$GPGGA,225710.000,3101.6565,N,12125.5452,E,1,00,-0013.724,M 
$GPGGA,225710.000,3101.6564,N,12125.5448,E,1,00,-0013.724,M 
$GPGGA,225711.000,3101.6563,N,12125.5444,E,1,00,-0013.724,M 
$GPGGA,225711.000,3101.6562,N,12125.5439,E,1,00,-0013.724,M 
$GPGGA,225712.000,3101.6561,N,12125.5435,E,1,00,-0013.724,M 
$GPGGA,225712.000,3101.6561,N,12125.5430,E,1,00,-0013.723,M 
$GPGGA,225713.000,3101.6560,N,12125.5426,E,1,00,-0013.723,M 
$GPGGA,225713.000,3101.6559,N,12125.5422,E,1,00,-0013.723,M 
$GPGGA,225714.000,3101.6558,N,12125.5417,E,1,00,-0013.723,M 
$GPGGA,225715.000,3101.6557,N,12125.5413,E,1,00,-0013.723,M 
$GPGGA,225715.000,3101.6556,N,12125.5408,E,1,00,-0013.723,M 
$GPGGA,225716.000,3101.6555,N,12125.5404,E,1,00,-0013.723,M 
$GPGGA,225716.000,3101.6553,N,12125.5400,E,1,00,-0013.723,M 
$GPGGA,225717.000,3101.6553,N,12125.5395,E,1,00,-0013.723,M 
$GPGGA,225717.000,3101.6551,N,12125.5391,E,1,00,-0013.722,M 
$GPGGA,225718.000,3101.6550,N,12125.5386,E,1,00,-0013.722,M 
$GPGGA,225718.000,3101.6549,N,12125.5382,E,1,00,-0013.722,M 
$GPGGA,225719.000,3101.6549,N,12125.5378,E,1,00,-0013.722,M 
$GPGGA,225719.000,3101.6547,N,12125.5373,E,1,00,-0013.722,M 
$GPGGA,225720.000,3101.6546,N,12125.5369,E,1,00,-0013.722,M 
$GPGGA,225721.000,3101.6546,N,12125.5364,E,1,00,-0013.722,M 
$GPGGA,225721.000,3101.6545,N,12125.5360,E,1,00,-0013.722,M 
$GPGGA,225722.000,3101.6544,N,12125.5356,E,1,00,-0013.722,M 
$GPGGA,225722.000,3101.6543,N,12125.5351,E,1,00,-0013.721,M 
$GPGGA,225723.000,3101.6542,N,12125.5347,E,1,00,-0013.721,M 
$GPGGA,225723.000,3101.6541,N,12125.5343,E,1,00,-0013.721,M 
$GPGGA,225724.000,3101.6540,N,12125.5338,E,1,00,-0013.721,M 
$GPGGA,225724.000,3101.6539,N,12125.5334,E,1,00,-0013.721,M 
$GPGGA,225725.000,3101.6538,N,12125.5330,E,1,00,-0013.721,M 
$GPGGA,225726.000,3101.6537,N,12125.5325,E,1,00,-0013.721,M 
$GPGGA,225726.000,3101.6536,N,12125.5321,E,1,00,-0013.721,M 
$GPGGA,225727.000,3101.6535,N,12125.5316,E,1,00,-0013.721,M 
$GPGGA,225727.000,3101.6534,N,12125.5312,E,1,00,-0013.720,M 
$GPGGA,225728.000,3101.6533,N,12125.5308,E,1,00,-0013.720,M 
$GPGGA,225728.000,3101.6532,N,12125.5303,E,1,00,-0013.720,M 
$GPGGA,225729.000,3101.6531,N,12125.5299,E,1,00,-0013.720,M 
$GPGGA,225729.000,3101.6530,N,12125.5295,E,1,00,-0013.720,M 
$GPGGA,225730.000,3101.6529,N,12125.5290,E,1,00,-0013.720,M 
$GPGGA,225731.000,3101.6528,N,12125.5286,E,1,00,-0013.720,M 
$GPGGA,225731.000,3101.6527,N,12125.5281,E,1,00,-0013.720,M 
$GPGGA,225732.000,3101.6526,N,12125.5277,E,1,00,-0013.720,M 
$GPGGA,225732.000,3101.6525,N,12125.5273,E,1,00,-0013.719,M 
$GPGGA,225733.000,3101.6524,N,12125.5268,E,1,00,-0013.719,M 
$GPGGA,225733.000,3101.6523,N,12125.5264,E,1,00,-0013.719,M 
$GPGGA,225734.000,3101.6522,N,12125.5260,E,1,00,-0013.719,M 
$GPGGA,225734.000,3101.6521,N,12125.5255,E,1,00,-0013.719,M 
$GPGGA,225735.000,3101.6520,N,12125.5251,E,1,00,-0013.719,M 
$GPGGA,225736.000,3101.6519,N,12125.5247,E,1,00,-0013.719,M 
$GPGGA,225736.000,3101.6518,N,12125.5242,E,1,00,-0013.719,M 
$GPGGA,225737.000,3101.6517,N,12125.5237,E,1,00,-0013.719,M 
$GPGGA,225737.000,3101.6516,N,12125.5233,E,1,00,-0013.718,M 
$GPGGA,225738.000,3101.6515,N,12125.5229,E,1,00,-0013.718,M 
$GPGGA,225738.000,3101.6514,N,12125.5224,E,1,00,-0013.718,M 
$GPGGA,225739.000,3101.6513,N,12125.5220,E,1,00,-0013.718,M 
$GPGGA,225739.000,3101.6512,N,12125.5215,E,1,00,-0013.718,M 
$GPGGA,225740.000,3101.6511,N,12125.5211,E,1,00,-0013.718,M 
$GPGGA,225740.000,3101.6510,N,12125.5207,E,1,00,-0013.718,M 
$GPGGA,225741.000,3101.6509,N,12125.5202,E,1,00,-0013.718,M 
$GPGGA,225742.000,3101.6507,N,12125.5198,E,1,00,-0013.718,M 
$GPGGA,225742.000,3101.6506,N,12125.5194,E,1,00,-0013.717,M 
$GPGGA,225743.000,3101.6505,N,12125.5189,E,1,00,-0013.717,M 
$GPGGA,225743.000,3101.6504,N,12125.5185,E,1,00,-0013.717,M 
$GPGGA,225744.000,3101.6503,N,12125.5180,E,1,00,-0013.717,M 
$GPGGA,225744.000,3101.6502,N,12125.5176,E,1,00,-0013.717,M 
$GPGGA,225745.000,3101.6501,N,12125.5172,E,1,00,-0013.717,M 
$GPGGA,225745.000,3101.6500,N,12125.5167,E,1,00,-0013.717,M 
$GPGGA,225746.000,3101.6499,N,12125.5163,E,1,00,-0013.717,M 
$GPGGA,225746.000,3101.6498,N,12125.5158,E,1,00,-0013.716,M 
$GPGGA,225747.000,3101.6497,N,12125.5154,E,1,00,-0013.716,M 
$GPGGA,225748.000,3101.6496,N,12125.5149,E,1,00,-0013.716,M 
$GPGGA,225748.000,3101.6495,N,12125.5145,E,1,00,-0013.716,M 
$GPGGA,225749.000,3101.6494,N,12125.5140,E,1,00,-0013.716,M 
$GPGGA,225749.000,3101.6493,N,12125.5136,E,1,00,-0013.716,M 
$GPGGA,225750.000,3101.6492,N,12125.5132,E,1,00,-0013.716,M 
$GPGGA,225750.000,3101.6491,N,12125.5128,E,1,00,-0013.716,M 
$GPGGA,225751.000,3101.6490,N,12125.5123,E,1,00,-0013.716,M 
$GPGGA,225751.000,3101.6489,N,12125.5119,E,1,00,-0013.715,M 
$GPGGA,225752.000,3101.6488,N,12125.5114,E,1,00,-0013.715,M 
$GPGGA,225752.000,3101.6486,N,12125.5110,E,1,00,-0013.715,M 
$GPGGA,225753.000,3101.6485,N,12125.5105,E,1,00,-0013.715,M 
$GPGGA,225754.000,3101.6484,N,12125.5101,E,1,00,-0013.715,M 
$GPGGA,225754.000,3101.6483,N,12125.5096,E,1,00,-0013.715,M 
$GPGGA,225755.000,3101.6482,N,12125.5092,E,1,00,-0013.715,M 
$GPGGA,225755.000,3101.6481,N,12125.5088,E,1,00,-0013.715,M 
$GPGGA,225756.000,3101.6480,N,12125.5083,E,1,00,-0013.715,M 
$GPGGA,225756.000,3101.6478,N,12125.5079,E,1,00,-0013.714,M 
$GPGGA,225757.000,3101.6477,N,12125.5075,E,1,00,-0013.714,M 
$GPGGA,225757.000,3101.6476,N,12125.5070,E,1,00,-0013.714,M 
$GPGGA,225758.000,3101.6475,N,12125.5066,E,1,00,-0013.714,M 
$GPGGA,225758.000,3101.6474,N,12125.5062,E,1,00,-0013.714,M 
$GPGGA,225759.000,3101.6473,N,12125.5057,E,1,00,-0013.714,M 
$GPGGA,225800.000,3101.6471,N,12125.5053,E,1,00,-0013.714,M 
$GPGGA,225800.000,3101.6470,N,12125.5049,E,1,00,-0013.714,M 
$GPGGA,225801.000,3101.6469,N,12125.5044,E,1,00,-0013.714,M 
$GPGGA,225801.000,3101.6468,N,12125.5040,E,1,00,-0013.713,M 
$GPGGA,225802.000,3101.6467,N,12125.5036,E,1,00,-0013.713,M 
$GPGGA,225802.000,3101.6465,N,12125.5031,E,1,00,-0013.713,M 
$GPGGA,225803.000,3101.6464,N,12125.5027,E,1,00,-0013.713,M 
$GPGGA,225803.000,3101.6463,N,12125.5023,E,1,00,-0013.713,M 
$GPGGA,225804.000,3101.6461,N,12125.5019,E,1,00,-0013.713,M 
$GPGGA,225805.000,3101.6460,N,12125.5014,E,1,00,-0013.713,M 
$GPGGA,225805.000,3101.6459,N,12125.5010,E,1,00,-0013.713,M 
$GPGGA,225806.000,3101.6458,N,12125.5006,E,1,00,-0013.713,M 
$GPGGA,225806.000,3101.6456,N,12125.5001,E,1,00,-0013.712,M 
$GPGGA,225807.000,3101.6455,N,12125.4997,E,1,00,-0013.712,M 
$GPGGA,225807.000,3101.6454,N,12125.4993,E,1,00,-0013.712,M 
$GPGGA,225808.000,3101.6453,N,12125.4989,E,1,00,-0013.712,M 
$GPGGA,225809.000,3101.6452,N,12125.4985,E,1,00,-0013.712,M 
$GPGGA,225809.000,3101.6450,N,12125.4981,E,1,00,-0013.712,M 
$GPGGA,225810.000,3101.6449,N,12125.4977,E,1,00,-0013.712,M 
$GPGGA,225810.000,3101.6448,N,12125.4972,E,1,00,-0013.712,M 
$GPGGA,225811.000,3101.6447,N,12125.4968,E,1,00,-0013.712,M 
$GPGGA,225811.000,3101.6446,N,12125.4964,E,1,00,-0013.711,M 
$GPGGA,225812.000,3101.6445,N,12125.4959,E,1,00,-0013.711,M 
$GPGGA,225812.000,3101.6443,N,12125.4955,E,1,00,-0013.711,M 
$GPGGA,225813.000,3101.6442,N,12125.4951,E,1,00,-0013.711,M 
$GPGGA,225814.000,3101.6442,N,12125.4950,E,1,00,-0013.711,M 
$GPGGA,225821.000,3101.6441,N,12125.4945,E,1,00,-0013.711,M 
$GPGGA,225822.000,3101.6440,N,12125.4941,E,1,00,-0013.711,M 
$GPGGA,225822.000,3101.6439,N,12125.4937,E,1,00,-0013.711,M 
$GPGGA,225823.000,3101.6437,N,12125.4932,E,1,00,-0013.711,M 
$GPGGA,225823.000,3101.6436,N,12125.4928,E,1,00,-0013.710,M 
$GPGGA,225824.000,3101.6435,N,12125.4923,E,1,00,-0013.710,M 
$GPGGA,225824.000,3101.6434,N,12125.4919,E,1,00,-0013.710,M 
$GPGGA,225825.000,3101.6433,N,12125.4915,E,1,00,-0013.710,M 
$GPGGA,225826.000,3101.6432,N,12125.4911,E,1,00,-0013.710,M 
$GPGGA,225826.000,3101.6430,N,12125.4906,E,1,00,-0013.710,M 
$GPGGA,225827.000,3101.6429,N,12125.4902,E,1,00,-0013.710,M 
$GPGGA,225827.000,3101.6428,N,12125.4897,E,1,00,-0013.710,M 
$GPGGA,225828.000,3101.6427,N,12125.4893,E,1,00,-0013.710,M 
$GPGGA,225828.000,3101.6426,N,12125.4888,E,1,00,-0013.709,M 
$GPGGA,225829.000,3101.6425,N,12125.4884,E,1,00,-0013.709,M 
$GPGGA,225829.000,3101.6423,N,12125.4880,E,1,00,-0013.709,M 
$GPGGA,225830.000,3101.6422,N,12125.4875,E,1,00,-0013.709,M 
$GPGGA,225830.000,3101.6421,N,12125.4871,E,1,00,-0013.709,M 
$GPGGA,225831.000,3101.6420,N,12125.4867,E,1,00,-0013.709,M 
$GPGGA,225832.000,3101.6419,N,12125.4862,E,1,00,-0013.709,M 
$GPGGA,225832.000,3101.6418,N,12125.4858,E,1,00,-0013.709,M 
$GPGGA,225833.000,3101.6417,N,12125.4854,E,1,00,-0013.709,M 
$GPGGA,225833.000,3101.6416,N,12125.4849,E,1,00,-0013.708,M 
$GPGGA,225834.000,3101.6414,N,12125.4845,E,1,00,-0013.708,M 
$GPGGA,225834.000,3101.6413,N,12125.4841,E,1,00,-0013.708,M 
$GPGGA,225835.000,3101.6412,N,12125.4836,E,1,00,-0013.708,M 
$GPGGA,225835.000,3101.6411,N,12125.4832,E,1,00,-0013.708,M 
$GPGGA,225836.000,3101.6409,N,12125.4827,E,1,00,-0013.708,M 
$GPGGA,225836.000,3101.6408,N,12125.4823,E,1,00,-0013.708,M 
$GPGGA,225837.000,3101.6406,N,12125.4819,E,1,00,-0013.708,M 
$GPGGA,225838.000,3101.6405,N,12125.4814,E,1,00,-0013.707,M 
$GPGGA,225838.000,3101.6404,N,12125.4810,E,1,00,-0013.707,M 
$GPGGA,225839.000,3101.6403,N,12125.4805,E,1,00,-0013.707,M 
$GPGGA,225839.000,3101.6402,N,12125.4801,E,1,00,-0013.707,M 
$GPGGA,225840.000,3101.6400,N,12125.4797,E,1,00,-0013.707,M 
$GPGGA,225840.000,3101.6399,N,12125.4792,E,1,00,-0013.707,M 
$GPGGA,225841.000,3101.6398,N,12125.4788,E,1,00,-0013.707,M 
$GPGGA,225841.000,3101.6397,N,12125.4784,E,1,00,-0013.707,M 
$GPGGA,225842.000,3101.6396,N,12125.4779,E,1,00,-0013.707,M 
$GPGGA,225842.000,3101.6395,N,12125.4775,E,1,00,-0013.706,M 
$GPGGA,225843.000,3101.6394,N,12125.4770,E,1,00,-0013.706,M 
$GPGGA,225844.000,3101.6393,N,12125.4766,E,1,00,-0013.706,M 
$GPGGA,225844.000,3101.6392,N,12125.4761,E,1,00,-0013.706,M 
$GPGGA,225845.000,3101.6391,N,12125.4757,E,1,00,-0013.706,M 
$GPGGA,225845.000,3101.6390,N,12125.4753,E,1,00,-0013.706,M 
$GPGGA,225846.000,3101.6389,N,12125.4748,E,1,00,-0013.706,M 
$GPGGA,225846.000,3101.6388,N,12125.4744,E,1,00,-0013.706,M 
$GPGGA,225847.000,3101.6387,N,12125.4739,E,1,00,-0013.705,M 
$GPGGA,225847.000,3101.6386,N,12125.4735,E,1,00,-0013.705,M 
$GPGGA,225848.000,3101.6385,N,12125.4730,E,1,00,-0013.705,M 
$GPGGA,225848.000,3101.6384,N,12125.4726,E,1,00,-0013.705,M 
$GPGGA,225849.000,3101.6383,N,12125.4721,E,1,00,-0013.705,M 
$GPGGA,225849.000,3101.6382,N,12125.4717,E,1,00,-0013.705,M 
$GPGGA,225850.000,3101.6381,N,12125.4713,E,1,00,-0013.705,M 
$GPGGA,225851.000,3101.6381,N,12125.4711,E,1,00,-0013.705,M 
$GPGGA,225853.000,3101.6380,N,12125.4707,E,1,00,-0013.704,M 
$GPGGA,225854.000,3101.6379,N,12125.4703,E,1,00,-0013.704,M 
$GPGGA,225854.000,3101.6379,N,12125.4698,E,1,00,-0013.704,M 
$GPGGA,225855.000,3101.6378,N,12125.4694,E,1,00,-0013.704,M 
$GPGGA,225855.000,3101.6377,N,12125.4689,E,1,00,-0013.704,M 
$GPGGA,225856.000,3101.6376,N,12125.4684,E,1,00,-0013.704,M 
$GPGGA,225856.000,3101.6375,N,12125.4680,E,1,00,-0013.704,M 
$GPGGA,225857.000,3101.6374,N,12125.4675,E,1,00,-0013.704,M 
$GPGGA,225857.000,3101.6373,N,12125.4670,E,1,00,-0013.703,M 
$GPGGA,225858.000,3101.6372,N,12125.4666,E,1,00,-0013.703,M 
$GPGGA,225858.000,3101.6372,N,12125.4662,E,1,00,-0013.703,M 
$GPGGA,225859.000,3101.6371,N,12125.4657,E,1,00,-0013.703,M 
$GPGGA,225859.000,3101.6370,N,12125.4652,E,1,00,-0013.703,M 
$GPGGA,225900.000,3101.6369,N,12125.4648,E,1,00,-0013.703,M 
$GPGGA,225900.000,3101.6368,N,12125.4643,E,1,00,-0013.703,M 
$GPGGA,225901.000,3101.6367,N,12125.4639,E,1,00,-0013.703,M 
$GPGGA,225902.000,3101.6366,N,12125.4634,E,1,00,-0013.702,M 
$GPGGA,225902.000,3101.6365,N,12125.4630,E,1,00,-0013.702,M 
$GPGGA,225903.000,3101.6364,N,12125.4626,E,1,00,-0013.702,M 
$GPGGA,225903.000,3101.6363,N,12125.4621,E,1,00,-0013.702,M 
$GPGGA,225904.000,3101.6362,N,12125.4617,E,1,00,-0013.702,M 
$GPGGA,225904.000,3101.6362,N,12125.4612,E,1,00,-0013.702,M 
$GPGGA,225905.000,3101.6361,N,12125.4608,E,1,00,-0013.702,M 
$GPGGA,225905.000,3101.6360,N,12125.4604,E,1,00,-0013.702,M 
$GPGGA,225906.000,3101.6359,N,12125.4599,E,1,00,-0013.701,M 
$GPGGA,225906.000,3101.6359,N,12125.4595,E,1,00,-0013.701,M 
$GPGGA,225907.000,3101.6358,N,12125.4590,E,1,00,-0013.701,M 
$GPGGA,225908.000,3101.6357,N,12125.4586,E,1,00,-0013.701,M 
$GPGGA,225908.000,3101.6356,N,12125.4581,E,1,00,-0013.701,M 
$GPGGA,225909.000,3101.6355,N,12125.4577,E,1,00,-0013.701,M 
$GPGGA,225909.000,3101.6354,N,12125.4572,E,1,00,-0013.701,M 
$GPGGA,225910.000,3101.6353,N,12125.4568,E,1,00,-0013.701,M 
$GPGGA,225910.000,3101.6352,N,12125.4563,E,1,00,-0013.700,M 
$GPGGA,225911.000,3101.6351,N,12125.4559,E,1,00,-0013.700,M 
$GPGGA,225911.000,3101.6350,N,12125.4554,E,1,00,-0013.700,M 
$GPGGA,225912.000,3101.6350,N,12125.4550,E,1,00,-0013.700,M 
$GPGGA,225912.000,3101.6349,N,12125.4545,E,1,00,-0013.700,M 
$GPGGA,225913.000,3101.6348,N,12125.4541,E,1,00,-0013.700,M 
$GPGGA,225914.000,3101.6347,N,12125.4536,E,1,00,-0013.700,M 
$GPGGA,225914.000,3101.6346,N,12125.4532,E,1,00,-0013.699,M 
$GPGGA,225915.000,3101.6346,N,12125.4528,E,1,00,-0013.699,M 
$GPGGA,225915.000,3101.6345,N,12125.4523,E,1,00,-0013.699,M 
$GPGGA,225916.000,3101.6344,N,12125.4519,E,1,00,-0013.699,M 
$GPGGA,225916.000,3101.6343,N,12125.4514,E,1,00,-0013.699,M 
$GPGGA,225917.000,3101.6342,N,12125.4510,E,1,00,-0013.699,M 
$GPGGA,225917.000,3101.6341,N,12125.4506,E,1,00,-0013.699,M 
$GPGGA,225918.000,3101.6341,N,12125.4501,E,1,00,-0013.699,M 
$GPGGA,225919.000,3101.6340,N,12125.4497,E,1,00,-0013.698,M 
$GPGGA,225919.000,3101.6339,N,12125.4492,E,1,00,-0013.698,M 
$GPGGA,225920.000,3101.6338,N,12125.4488,E,1,00,-0013.698,M 
$GPGGA,225920.000,3101.6338,N,12125.4483,E,1,00,-0013.698,M 
$GPGGA,225921.000,3101.6337,N,12125.4479,E,1,00,-0013.698,M 
$GPGGA,225921.000,3101.6336,N,12125.4474,E,1,00,-0013.698,M 
$GPGGA,225922.000,3101.6335,N,12125.4470,E,1,00,-0013.698,M 
$GPGGA,225922.000,3101.6335,N,12125.4465,E,1,00,-0013.698,M 
$GPGGA,225923.000,3101.6334,N,12125.4461,E,1,00,-0013.697,M 
$GPGGA,225924.000,3101.6333,N,12125.4456,E,1,00,-0013.697,M 
$GPGGA,225924.000,3101.6332,N,12125.4452,E,1,00,-0013.697,M 
$GPGGA,225925.000,3101.6331,N,12125.4447,E,1,00,-0013.697,M 
$GPGGA,225925.000,3101.6331,N,12125.4443,E,1,00,-0013.697,M 
$GPGGA,225926.000,3101.6330,N,12125.4439,E,1,00,-0013.697,M 
$GPGGA,225926.000,3101.6329,N,12125.4435,E,1,00,-0013.697,M 
$GPGGA,225927.000,3101.6328,N,12125.4430,E,1,00,-0013.696,M 
$GPGGA,225927.000,3101.6327,N,12125.4425,E,1,00,-0013.696,M 
$GPGGA,225928.000,3101.6326,N,12125.4421,E,1,00,-0013.696,M 
$GPGGA,225928.000,3101.6325,N,12125.4417,E,1,00,-0013.696,M 
$GPGGA,225929.000,3101.6324,N,12125.4412,E,1,00,-0013.696,M 
$GPGGA,225930.000,3101.6323,N,12125.4408,E,1,00,-0013.696,M 
$GPGGA,225930.000,3101.6323,N,12125.4404,E,1,00,-0013.696,M 
$GPGGA,225931.000,3101.6322,N,12125.4399,E,1,00,-0013.696,M 
$GPGGA,225931.000,3101.6321,N,12125.4395,E,1,00,-0013.695,M 
$GPGGA,225932.000,3101.6321,N,12125.4390,E,1,00,-0013.695,M 
$GPGGA,225932.000,3101.6320,N,12125.4386,E,1,00,-0013.695,M 
$GPGGA,225933.000,3101.6319,N,12125.4382,E,1,00,-0013.695,M 
$GPGGA,225934.000,3101.6318,N,12125.4377,E,1,00,-0013.695,M 
$GPGGA,225934.000,3101.6318,N,12125.4373,E,1,00,-0013.695,M 
$GPGGA,225935.000,3101.6317,N,12125.4368,E,1,00,-0013.695,M 
$GPGGA,225935.000,3101.6316,N,12125.4364,E,1,00,-0013.695,M 
$GPGGA,225936.000,3101.6315,N,12125.4360,E,1,00,-0013.694,M 
$GPGGA,225936.000,3101.6314,N,12125.4355,E,1,00,-0013.694,M 
$GPGGA,225937.000,3101.6314,N,12125.4351,E,1,00,-0013.694,M 
$GPGGA,225937.000,3101.6313,N,12125.4346,E,1,00,-0013.694,M 
$GPGGA,225938.000,3101.6312,N,12125.4342,E,1,00,-0013.694,M 
$GPGGA,225939.000,3101.6311,N,12125.4337,E,1,00,-0013.694,M 
$GPGGA,225939.000,3101.6311,N,12125.4333,E,1,00,-0013.694,M 
$GPGGA,225940.000,3101.6310,N,12125.4328,E,1,00,-0013.693,M 
$GPGGA,225940.000,3101.6309,N,12125.4324,E,1,00,-0013.693,M 
$GPGGA,225941.000,3101.6308,N,12125.4319,E,1,00,-0013.693,M 
$GPGGA,225941.000,3101.6307,N,12125.4315,E,1,00,-0013.693,M 
$GPGGA,225942.000,3101.6307,N,12125.4311,E,1,00,-0013.693,M 
$GPGGA,225942.000,3101.6306,N,12125.4306,E,1,00,-0013.693,M 
$GPGGA,225943.000,3101.6305,N,12125.4302,E,1,00,-0013.693,M 
$GPGGA,225943.000,3101.6304,N,12125.4297,E,1,00,-0013.693,M 
$GPGGA,225944.000,3101.6303,N,12125.4293,E,1,00,-0013.692,M 
$GPGGA,225945.000,3101.6302,N,12125.4288,E,1,00,-0013.692,M 
$GPGGA,225945.000,3101.6301,N,12125.4284,E,1,00,-0013.692,M 
$GPGGA,225946.000,3101.6301,N,12125.4279,E,1,00,-0013.692,M 
$GPGGA,225946.000,3101.6300,N,12125.4275,E,1,00,-0013.692,M 
$GPGGA,225947.000,3101.6299,N,12125.4271,E,1,00,-0013.692,M 
$GPGGA,225947.000,3101.6298,N,12125.4266,E,1,00,-0013.692,M 
$GPGGA,225948.000,3101.6297,N,12125.4262,E,1,00,-0013.691,M 
$GPGGA,225948.000,3101.6297,N,12125.4258,E,1,00,-0013.691,M 
$GPGGA,225949.000,3101.6296,N,12125.4253,E,1,00,-0013.691,M 
$GPGGA,225950.000,3101.6295,N,12125.4249,E,1,00,-0013.691,M 
$GPGGA,225950.000,3101.6294,N,12125.4245,E,1,00,-0013.691,M 
$GPGGA,225951.000,3101.6293,N,12125.4240,E,1,00,-0013.691,M 
$GPGGA,225951.000,3101.6293,N,12125.4236,E,1,00,-0013.691,M 
$GPGGA,225952.000,3101.6292,N,12125.4231,E,1,00,-0013.691,M 
$GPGGA,225952.000,3101.6291,N,12125.4227,E,1,00,-0013.690,M 
$GPGGA,225953.000,3101.6290,N,12125.4223,E,1,00,-0013.690,M 
$GPGGA,225954.000,3101.6289,N,12125.4219,E,1,00,-0013.690,M 
$GPGGA,225954.000,3101.6289,N,12125.4218,E,1,00,-0013.690,M 
$GPGGA,225958.000,3101.6289,N,12125.4213,E,1,00,-0013.690,M 
$GPGGA,225959.000,3101.6288,N,12125.4212,E,1,00,-0013.690,M 
$GPGGA,230004.000,3101.6292,N,12125.4211,E,1,00,-0013.690,M 
$GPGGA,230004.000,3101.6296,N,12125.4210,E,1,00,-0013.690,M 
$GPGGA,230005.000,3101.6300,N,12125.4209,E,1,00,-0013.690,M 
$GPGGA,230005.000,3101.6304,N,12125.4208,E,1,00,-0013.690,M 
$GPGGA,230006.000,3101.6308,N,12125.4208,E,1,00,-0013.690,M 
$GPGGA,230007.000,3101.6311,N,12125.4207,E,1,00,-0013.690,M 
$GPGGA,230007.000,3101.6315,N,12125.4206,E,1,00,-0013.689,M 
$GPGGA,230008.000,3101.6319,N,12125.4205,E,1,00,-0013.689,M 
$GPGGA,230008.000,3101.6323,N,12125.4205,E,1,00,-0013.689,M 
$GPGGA,230009.000,3101.6327,N,12125.4204,E,1,00,-0013.689,M 
$GPGGA,230009.000,3101.6331,N,12125.4203,E,1,00,-0013.689,M 
$GPGGA,230010.000,3101.6335,N,12125.4203,E,1,00,-0013.689,M 
$GPGGA,230010.000,3101.6339,N,12125.4202,E,1,00,-0013.689,M 
$GPGGA,230011.000,3101.6343,N,12125.4201,E,1,00,-0013.689,M 
$GPGGA,230011.000,3101.6347,N,12125.4200,E,1,00,-0013.689,M 
$GPGGA,230012.000,3101.6351,N,12125.4199,E,1,00,-0013.689,M 
$GPGGA,230012.000,3101.6354,N,12125.4198,E,1,00,-0013.689,M 
$GPGGA,230013.000,3101.6358,N,12125.4198,E,1,00,-0013.689,M 
$GPGGA,230014.000,3101.6362,N,12125.4197,E,1,00,-0013.689,M 
$GPGGA,230014.000,3101.6366,N,12125.4197,E,1,00,-0013.689,M 
$GPGGA,230015.000,3101.6370,N,12125.4196,E,1,00,-0013.689,M 
$GPGGA,230015.000,3101.6374,N,12125.4196,E,1,00,-0013.688,M 
$GPGGA,230016.000,3101.6378,N,12125.4195,E,1,00,-0013.688,M 
$GPGGA,230016.000,3101.6382,N,12125.4194,E,1,00,-0013.688,M 
$GPGGA,230017.000,3101.6386,N,12125.4193,E,1,00,-0013.688,M 
$GPGGA,230017.000,3101.6390,N,12125.4193,E,1,00,-0013.688,M 
$GPGGA,230018.000,3101.6394,N,12125.4192,E,1,00,-0013.688,M 
$GPGGA,230018.000,3101.6397,N,12125.4191,E,1,00,-0013.688,M 
$GPGGA,230019.000,3101.6401,N,12125.4191,E,1,00,-0013.688,M 
$GPGGA,230020.000,3101.6405,N,12125.4190,E,1,00,-0013.688,M 
$GPGGA,230020.000,3101.6409,N,12125.4189,E,1,00,-0013.688,M 
$GPGGA,230021.000,3101.6413,N,12125.4189,E,1,00,-0013.688,M 
$GPGGA,230021.000,3101.6417,N,12125.4188,E,1,00,-0013.688,M 
$GPGGA,230022.000,3101.6421,N,12125.4187,E,1,00,-0013.688,M 
$GPGGA,230022.000,3101.6425,N,12125.4187,E,1,00,-0013.688,M 
$GPGGA,230023.000,3101.6429,N,12125.4186,E,1,00,-0013.688,M 
$GPGGA,230023.000,3101.6433,N,12125.4185,E,1,00,-0013.687,M 
$GPGGA,230024.000,3101.6436,N,12125.4185,E,1,00,-0013.687,M 
$GPGGA,230024.000,3101.6440,N,12125.4184,E,1,00,-0013.687,M 
$GPGGA,230025.000,3101.6444,N,12125.4183,E,1,00,-0013.687,M 
$GPGGA,230026.000,3101.6448,N,12125.4183,E,1,00,-0013.687,M 
$GPGGA,230026.000,3101.6452,N,12125.4182,E,1,00,-0013.687,M 
$GPGGA,230027.000,3101.6456,N,12125.4181,E,1,00,-0013.687,M 
$GPGGA,230027.000,3101.6460,N,12125.4180,E,1,00,-0013.687,M 
$GPGGA,230028.000,3101.6464,N,12125.4180,E,1,00,-0013.687,M 
$GPGGA,230028.000,3101.6468,N,12125.4179,E,1,00,-0013.687,M 
$GPGGA,230029.000,3101.6472,N,12125.4178,E,1,00,-0013.687,M 
$GPGGA,230029.000,3101.6476,N,12125.4177,E,1,00,-0013.687,M 
$GPGGA,230030.000,3101.6480,N,12125.4177,E,1,00,-0013.687,M 
$GPGGA,230030.000,3101.6484,N,12125.4176,E,1,00,-0013.687,M 
$GPGGA,230031.000,3101.6488,N,12125.4175,E,1,00,-0013.687,M 
$GPGGA,230031.000,3101.6492,N,12125.4175,E,1,00,-0013.686,M 
$GPGGA,230032.000,3101.6496,N,12125.4174,E,1,00,-0013.686,M 
$GPGGA,230033.000,3101.6499,N,12125.4173,E,1,00,-0013.686,M 
$GPGGA,230033.000,3101.6503,N,12125.4173,E,1,00,-0013.686,M 
$GPGGA,230034.000,3101.6507,N,12125.4172,E,1,00,-0013.686,M 
$GPGGA,230034.000,3101.6511,N,12125.4171,E,1,00,-0013.686,M 
$GPGGA,230035.000,3101.6515,N,12125.4170,E,1,00,-0013.686,M 
$GPGGA,230035.000,3101.6519,N,12125.4170,E,1,00,-0013.686,M 
$GPGGA,230036.000,3101.6523,N,12125.4169,E,1,00,-0013.686,M 
$GPGGA,230036.000,3101.6527,N,12125.4168,E,1,00,-0013.686,M 
$GPGGA,230037.000,3101.6531,N,12125.4167,E,1,00,-0013.686,M 
$GPGGA,230037.000,3101.6535,N,12125.4166,E,1,00,-0013.686,M 
$GPGGA,230038.000,3101.6539,N,12125.4165,E,1,00,-0013.686,M 
$GPGGA,230038.000,3101.6543,N,12125.4165,E,1,00,-0013.686,M 
$GPGGA,230039.000,3101.6546,N,12125.4164,E,1,00,-0013.685,M 
$GPGGA,230040.000,3101.6550,N,12125.4163,E,1,00,-0013.685,M 
$GPGGA,230040.000,3101.6554,N,12125.4162,E,1,00,-0013.685,M 
$GPGGA,230041.000,3101.6558,N,12125.4161,E,1,00,-0013.685,M 
$GPGGA,230041.000,3101.6562,N,12125.4160,E,1,00,-0013.685,M 
$GPGGA,230042.000,3101.6566,N,12125.4159,E,1,00,-0013.685,M 
$GPGGA,230042.000,3101.6570,N,12125.4157,E,1,00,-0013.685,M 
$GPGGA,230043.000,3101.6574,N,12125.4156,E,1,00,-0013.685,M 
$GPGGA,230043.000,3101.6577,N,12125.4155,E,1,00,-0013.685,M 
$GPGGA,230044.000,3101.6581,N,12125.4154,E,1,00,-0013.685,M 
$GPGGA,230044.000,3101.6585,N,12125.4153,E,1,00,-0013.685,M 
$GPGGA,230045.000,3101.6589,N,12125.4153,E,1,00,-0013.685,M 
$GPGGA,230045.000,3101.6593,N,12125.4152,E,1,00,-0013.685,M 
$GPGGA,230046.000,3101.6597,N,12125.4151,E,1,00,-0013.684,M 
$GPGGA,230047.000,3101.6601,N,12125.4150,E,1,00,-0013.684,M 
$GPGGA,230047.000,3101.6605,N,12125.4149,E,1,00,-0013.684,M 
$GPGGA,230048.000,3101.6609,N,12125.4148,E,1,00,-0013.684,M 
$GPGGA,230048.000,3101.6613,N,12125.4147,E,1,00,-0013.684,M 
$GPGGA,230049.000,3101.6617,N,12125.4147,E,1,00,-0013.684,M 
$GPGGA,230049.000,3101.6621,N,12125.4146,E,1,00,-0013.684,M 
$GPGGA,230050.000,3101.6624,N,12125.4145,E,1,00,-0013.684,M 
$GPGGA,230050.000,3101.6628,N,12125.4145,E,1,00,-0013.684,M 
$GPGGA,230051.000,3101.6632,N,12125.4144,E,1,00,-0013.684,M 
$GPGGA,230051.000,3101.6636,N,12125.4143,E,1,00,-0013.684,M 
$GPGGA,230052.000,3101.6640,N,12125.4143,E,1,00,-0013.684,M 
$GPGGA,230053.000,3101.6644,N,12125.4142,E,1,00,-0013.684,M 
$GPGGA,230053.000,3101.6648,N,12125.4141,E,1,00,-0013.683,M 
$GPGGA,230054.000,3101.6652,N,12125.4141,E,1,00,-0013.683,M 
$GPGGA,230054.000,3101.6656,N,12125.4140,E,1,00,-0013.683,M 
$GPGGA,230055.000,3101.6660,N,12125.4140,E,1,00,-0013.683,M 
$GPGGA,230055.000,3101.6664,N,12125.4139,E,1,00,-0013.683,M 
$GPGGA,230056.000,3101.6668,N,12125.4138,E,1,00,-0013.683,M 
$GPGGA,230056.000,3101.6672,N,12125.4138,E,1,00,-0013.683,M 
$GPGGA,230057.000,3101.6676,N,12125.4137,E,1,00,-0013.683,M 
$GPGGA,230057.000,3101.6679,N,12125.4136,E,1,00,-0013.683,M 
$GPGGA,230058.000,3101.6683,N,12125.4136,E,1,00,-0013.683,M 
$GPGGA,230058.000,3101.6687,N,12125.4135,E,1,00,-0013.683,M 
$GPGGA,230059.000,3101.6691,N,12125.4135,E,1,00,-0013.683,M 
$GPGGA,230100.000,3101.6695,N,12125.4134,E,1,00,-0013.683,M 
$GPGGA,230100.000,3101.6699,N,12125.4133,E,1,00,-0013.683,M 
$GPGGA,230101.000,3101.6702,N,12125.4132,E,1,00,-0013.683,M 
$GPGGA,230101.000,3101.6706,N,12125.4132,E,1,00,-0013.682,M 
$GPGGA,230102.000,3101.6710,N,12125.4131,E,1,00,-0013.682,M 
$GPGGA,230102.000,3101.6715,N,12125.4130,E,1,00,-0013.682,M 
$GPGGA,230103.000,3101.6718,N,12125.4129,E,1,00,-0013.682,M 
$GPGGA,230103.000,3101.6722,N,12125.4128,E,1,00,-0013.682,M 
$GPGGA,230104.000,3101.6727,N,12125.4127,E,1,00,-0013.682,M 
$GPGGA,230104.000,3101.6731,N,12125.4126,E,1,00,-0013.682,M 
$GPGGA,230105.000,3101.6735,N,12125.4126,E,1,00,-0013.682,M 
$GPGGA,230105.000,3101.6739,N,12125.4125,E,1,00,-0013.682,M 
$GPGGA,230106.000,3101.6743,N,12125.4124,E,1,00,-0013.682,M 
$GPGGA,230106.000,3101.6747,N,12125.4123,E,1,00,-0013.682,M 
$GPGGA,230107.000,3101.6751,N,12125.4122,E,1,00,-0013.682,M 
$GPGGA,230108.000,3101.6755,N,12125.4122,E,1,00,-0013.681,M 
$GPGGA,230108.000,3101.6759,N,12125.4121,E,1,00,-0013.681,M 
$GPGGA,230109.000,3101.6762,N,12125.4120,E,1,00,-0013.681,M 
$GPGGA,230109.000,3101.6766,N,12125.4120,E,1,00,-0013.681,M 
$GPGGA,230110.000,3101.6770,N,12125.4119,E,1,00,-0013.681,M 
$GPGGA,230110.000,3101.6774,N,12125.4118,E,1,00,-0013.681,M 
$GPGGA,230111.000,3101.6778,N,12125.4117,E,1,00,-0013.681,M 
$GPGGA,230111.000,3101.6782,N,12125.4116,E,1,00,-0013.681,M 
$GPGGA,230112.000,3101.6786,N,12125.4116,E,1,00,-0013.681,M 
$GPGGA,230112.000,3101.6790,N,12125.4115,E,1,00,-0013.681,M 
$GPGGA,230113.000,3101.6794,N,12125.4114,E,1,00,-0013.681,M 
$GPGGA,230113.000,3101.6798,N,12125.4113,E,1,00,-0013.681,M 
$GPGGA,230114.000,3101.6803,N,12125.4112,E,1,00,-0013.681,M 
$GPGGA,230114.000,3101.6806,N,12125.4112,E,1,00,-0013.680,M 
$GPGGA,230115.000,3101.6811,N,12125.4111,E,1,00,-0013.680,M 
$GPGGA,230115.000,3101.6815,N,12125.4110,E,1,00,-0013.680,M 
$GPGGA,230116.000,3101.6819,N,12125.4109,E,1,00,-0013.680,M 
$GPGGA,230116.000,3101.6822,N,12125.4109,E,1,00,-0013.680,M 
$GPGGA,230117.000,3101.6826,N,12125.4108,E,1,00,-0013.680,M 
$GPGGA,230118.000,3101.6830,N,12125.4107,E,1,00,-0013.680,M 
$GPGGA,230118.000,3101.6834,N,12125.4106,E,1,00,-0013.680,M 
$GPGGA,230119.000,3101.6838,N,12125.4106,E,1,00,-0013.680,M 
$GPGGA,230119.000,3101.6842,N,12125.4105,E,1,00,-0013.680,M 
$GPGGA,230120.000,3101.6846,N,12125.4104,E,1,00,-0013.680,M 
$GPGGA,230120.000,3101.6850,N,12125.4104,E,1,00,-0013.680,M 
$GPGGA,230121.000,3101.6854,N,12125.4103,E,1,00,-0013.680,M 
$GPGGA,230121.000,3101.6858,N,12125.4102,E,1,00,-0013.679,M 
$GPGGA,230122.000,3101.6862,N,12125.4101,E,1,00,-0013.679,M 
$GPGGA,230122.000,3101.6866,N,12125.4101,E,1,00,-0013.679,M 
$GPGGA,230123.000,3101.6870,N,12125.4100,E,1,00,-0013.679,M 
$GPGGA,230123.000,3101.6874,N,12125.4099,E,1,00,-0013.679,M 
$GPGGA,230124.000,3101.6878,N,12125.4099,E,1,00,-0013.679,M 
$GPGGA,230124.000,3101.6882,N,12125.4098,E,1,00,-0013.679,M 
$GPGGA,230125.000,3101.6886,N,12125.4097,E,1,00,-0013.679,M 
$GPGGA,230126.000,3101.6890,N,12125.4097,E,1,00,-0013.679,M 
$GPGGA,230126.000,3101.6894,N,12125.4096,E,1,00,-0013.679,M 
$GPGGA,230127.000,3101.6898,N,12125.4095,E,1,00,-0013.679,M 
$GPGGA,230127.000,3101.6902,N,12125.4095,E,1,00,-0013.679,M 
$GPGGA,230128.000,3101.6906,N,12125.4094,E,1,00,-0013.679,M 
$GPGGA,230128.000,3101.6910,N,12125.4094,E,1,00,-0013.678,M 
$GPGGA,230129.000,3101.6914,N,12125.4093,E,1,00,-0013.678,M 
$GPGGA,230129.000,3101.6918,N,12125.4092,E,1,00,-0013.678,M 
$GPGGA,230130.000,3101.6922,N,12125.4092,E,1,00,-0013.678,M 
$GPGGA,230130.000,3101.6926,N,12125.4091,E,1,00,-0013.678,M 
$GPGGA,230131.000,3101.6930,N,12125.4091,E,1,00,-0013.678,M 
$GPGGA,230131.000,3101.6934,N,12125.4090,E,1,00,-0013.678,M 
$GPGGA,230132.000,3101.6938,N,12125.4090,E,1,00,-0013.678,M 
$GPGGA,230132.000,3101.6942,N,12125.4089,E,1,00,-0013.678,M 
$GPGGA,230133.000,3101.6946,N,12125.4088,E,1,00,-0013.678,M 
$GPGGA,230134.000,3101.6950,N,12125.4088,E,1,00,-0013.678,M 
$GPGGA,230134.000,3101.6954,N,12125.4087,E,1,00,-0013.678,M 
$GPGGA,230135.000,3101.6957,N,12125.4086,E,1,00,-0013.678,M 
$GPGGA,230135.000,3101.6962,N,12125.4086,E,1,00,-0013.677,M 
$GPGGA,230136.000,3101.6966,N,12125.4085,E,1,00,-0013.677,M 
$GPGGA,230136.000,3101.6969,N,12125.4085,E,1,00,-0013.677,M 
$GPGGA,230137.000,3101.6973,N,12125.4084,E,1,00,-0013.677,M 
$GPGGA,230137.000,3101.6977,N,12125.4084,E,1,00,-0013.677,M 
$GPGGA,230138.000,3101.6981,N,12125.4083,E,1,00,-0013.677,M 
$GPGGA,230138.000,3101.6985,N,12125.4082,E,1,00,-0013.677,M 
$GPGGA,230139.000,3101.6989,N,12125.4082,E,1,00,-0013.677,M 
$GPGGA,230139.000,3101.6993,N,12125.4081,E,1,00,-0013.677,M 
$GPGGA,230140.000,3101.6997,N,12125.4080,E,1,00,-0013.677,M 
$GPGGA,230141.000,3101.7001,N,12125.4080,E,1,00,-0013.677,M 
$GPGGA,230141.000,3101.7005,N,12125.4079,E,1,00,-0013.677,M 
$GPGGA,230142.000,3101.7009,N,12125.4078,E,1,00,-0013.677,M 
$GPGGA,230142.000,3101.7013,N,12125.4077,E,1,00,-0013.676,M 
$GPGGA,230143.000,3101.7017,N,12125.4077,E,1,00,-0013.676,M 
$GPGGA,230143.000,3101.7021,N,12125.4076,E,1,00,-0013.676,M 
$GPGGA,230144.000,3101.7025,N,12125.4075,E,1,00,-0013.676,M 
$GPGGA,230144.000,3101.7029,N,12125.4075,E,1,00,-0013.676,M 
$GPGGA,230145.000,3101.7033,N,12125.4074,E,1,00,-0013.676,M 
$GPGGA,230145.000,3101.7036,N,12125.4074,E,1,00,-0013.676,M 
$GPGGA,230146.000,3101.7041,N,12125.4073,E,1,00,-0013.676,M 
$GPGGA,230146.000,3101.7045,N,12125.4073,E,1,00,-0013.676,M 
$GPGGA,230147.000,3101.7049,N,12125.4072,E,1,00,-0013.676,M 
$GPGGA,230147.000,3101.7053,N,12125.4072,E,1,00,-0013.676,M 
$GPGGA,230148.000,3101.7056,N,12125.4071,E,1,00,-0013.676,M 
$GPGGA,230149.000,3101.7061,N,12125.4071,E,1,00,-0013.676,M 
$GPGGA,230149.000,3101.7065,N,12125.4070,E,1,00,-0013.675,M 
$GPGGA,230150.000,3101.7068,N,12125.4070,E,1,00,-0013.675,M 
$GPGGA,230150.000,3101.7072,N,12125.4069,E,1,00,-0013.675,M 
$GPGGA,230151.000,3101.7076,N,12125.4069,E,1,00,-0013.675,M 
$GPGGA,230151.000,3101.7080,N,12125.4068,E,1,00,-0013.675,M 
$GPGGA,230152.000,3101.7084,N,12125.4068,E,1,00,-0013.675,M 
$GPGGA,230152.000,3101.7088,N,12125.4067,E,1,00,-0013.675,M 
$GPGGA,230153.000,3101.7092,N,12125.4067,E,1,00,-0013.675,M 
$GPGGA,230153.000,3101.7096,N,12125.4066,E,1,00,-0013.675,M 
$GPGGA,230154.000,3101.7100,N,12125.4066,E,1,00,-0013.675,M 
$GPGGA,230154.000,3101.7104,N,12125.4065,E,1,00,-0013.675,M 
$GPGGA,230155.000,3101.7108,N,12125.4065,E,1,00,-0013.675,M 
$GPGGA,230156.000,3101.7112,N,12125.4064,E,1,00,-0013.675,M 
$GPGGA,230156.000,3101.7116,N,12125.4064,E,1,00,-0013.674,M 
$GPGGA,230157.000,3101.7120,N,12125.4063,E,1,00,-0013.674,M 
$GPGGA,230157.000,3101.7124,N,12125.4063,E,1,00,-0013.674,M 
$GPGGA,230158.000,3101.7128,N,12125.4062,E,1,00,-0013.674,M 
$GPGGA,230158.000,3101.7132,N,12125.4061,E,1,00,-0013.674,M 
$GPGGA,230159.000,3101.7136,N,12125.4061,E,1,00,-0013.674,M 
$GPGGA,230159.000,3101.7140,N,12125.4060,E,1,00,-0013.674,M 
$GPGGA,230200.000,3101.7144,N,12125.4059,E,1,00,-0013.674,M 
$GPGGA,230200.000,3101.7148,N,12125.4059,E,1,00,-0013.674,M 
$GPGGA,230201.000,3101.7152,N,12125.4058,E,1,00,-0013.674,M 
$GPGGA,230201.000,3101.7156,N,12125.4058,E,1,00,-0013.674,M 
$GPGGA,230202.000,3101.7160,N,12125.4057,E,1,00,-0013.674,M 
$GPGGA,230202.000,3101.7164,N,12125.4056,E,1,00,-0013.674,M 
$GPGGA,230203.000,3101.7168,N,12125.4056,E,1,00,-0013.673,M 
$GPGGA,230204.000,3101.7172,N,12125.4055,E,1,00,-0013.673,M 
$GPGGA,230204.000,3101.7176,N,12125.4055,E,1,00,-0013.673,M 
$GPGGA,230205.000,3101.7179,N,12125.4054,E,1,00,-0013.673,M 
$GPGGA,230205.000,3101.7183,N,12125.4053,E,1,00,-0013.673,M 
$GPGGA,230206.000,3101.7188,N,12125.4052,E,1,00,-0013.673,M 
$GPGGA,230206.000,3101.7191,N,12125.4052,E,1,00,-0013.673,M 
$GPGGA,230207.000,3101.7195,N,12125.4051,E,1,00,-0013.673,M 
$GPGGA,230207.000,3101.7199,N,12125.4050,E,1,00,-0013.673,M 
$GPGGA,230208.000,3101.7203,N,12125.4050,E,1,00,-0013.673,M 
$GPGGA,230208.000,3101.7207,N,12125.4050,E,1,00,-0013.673,M 
$GPGGA,230209.000,3101.7211,N,12125.4049,E,1,00,-0013.673,M 
$GPGGA,230209.000,3101.7215,N,12125.4048,E,1,00,-0013.672,M 
$GPGGA,230210.000,3101.7219,N,12125.4048,E,1,00,-0013.672,M 
$GPGGA,230210.000,3101.7223,N,12125.4047,E,1,00,-0013.672,M 
$GPGGA,230211.000,3101.7227,N,12125.4047,E,1,00,-0013.672,M 
$GPGGA,230211.000,3101.7231,N,12125.4046,E,1,00,-0013.672,M 
$GPGGA,230212.000,3101.7235,N,12125.4046,E,1,00,-0013.672,M 
$GPGGA,230213.000,3101.7239,N,12125.4045,E,1,00,-0013.672,M 
$GPGGA,230213.000,3101.7243,N,12125.4045,E,1,00,-0013.672,M 
$GPGGA,230214.000,3101.7247,N,12125.4044,E,1,00,-0013.672,M 
$GPGGA,230214.000,3101.7251,N,12125.4044,E,1,00,-0013.672,M 
$GPGGA,230215.000,3101.7255,N,12125.4043,E,1,00,-0013.672,M 
$GPGGA,230215.000,3101.7259,N,12125.4043,E,1,00,-0013.672,M 
$GPGGA,230216.000,3101.7263,N,12125.4042,E,1,00,-0013.672,M 
$GPGGA,230216.000,3101.7267,N,12125.4042,E,1,00,-0013.671,M 
$GPGGA,230217.000,3101.7271,N,12125.4042,E,1,00,-0013.671,M 
$GPGGA,230217.000,3101.7275,N,12125.4041,E,1,00,-0013.671,M 
$GPGGA,230218.000,3101.7279,N,12125.4041,E,1,00,-0013.671,M 
$GPGGA,230218.000,3101.7283,N,12125.4040,E,1,00,-0013.671,M 
$GPGGA,230219.000,3101.7287,N,12125.4040,E,1,00,-0013.671,M 
$GPGGA,230220.000,3101.7291,N,12125.4039,E,1,00,-0013.671,M 
$GPGGA,230220.000,3101.7295,N,12125.4039,E,1,00,-0013.671,M 
$GPGGA,230221.000,3101.7299,N,12125.4038,E,1,00,-0013.671,M 
$GPGGA,230221.000,3101.7303,N,12125.4038,E,1,00,-0013.671,M 
$GPGGA,230222.000,3101.7307,N,12125.4037,E,1,00,-0013.671,M 
$GPGGA,230222.000,3101.7311,N,12125.4037,E,1,00,-0013.671,M 
$GPGGA,230223.000,3101.7315,N,12125.4036,E,1,00,-0013.670,M 
$GPGGA,230223.000,3101.7319,N,12125.4036,E,1,00,-0013.670,M 
$GPGGA,230224.000,3101.7323,N,12125.4036,E,1,00,-0013.670,M 
$GPGGA,230224.000,3101.7327,N,12125.4035,E,1,00,-0013.670,M 
$GPGGA,230225.000,3101.7331,N,12125.4035,E,1,00,-0013.670,M 
$GPGGA,230225.000,3101.7335,N,12125.4034,E,1,00,-0013.670,M 
$GPGGA,230226.000,3101.7339,N,12125.4033,E,1,00,-0013.670,M 
$GPGGA,230226.000,3101.7343,N,12125.4033,E,1,00,-0013.670,M 
$GPGGA,230227.000,3101.7347,N,12125.4033,E,1,00,-0013.670,M 
$GPGGA,230228.000,3101.7351,N,12125.4032,E,1,00,-0013.670,M 
$GPGGA,230228.000,3101.7355,N,12125.4032,E,1,00,-0013.670,M 
$GPGGA,230229.000,3101.7359,N,12125.4031,E,1,00,-0013.670,M 
$GPGGA,230229.000,3101.7363,N,12125.4030,E,1,00,-0013.670,M 
$GPGGA,230230.000,3101.7367,N,12125.4030,E,1,00,-0013.669,M 
$GPGGA,230230.000,3101.7371,N,12125.4029,E,1,00,-0013.669,M 
$GPGGA,230231.000,3101.7375,N,12125.4028,E,1,00,-0013.669,M 
$GPGGA,230231.000,3101.7378,N,12125.4028,E,1,00,-0013.669,M 
$GPGGA,230232.000,3101.7382,N,12125.4027,E,1,00,-0013.669,M 
$GPGGA,230232.000,3101.7386,N,12125.4027,E,1,00,-0013.669,M 
$GPGGA,230233.000,3101.7391,N,12125.4026,E,1,00,-0013.669,M 
$GPGGA,230233.000,3101.7395,N,12125.4025,E,1,00,-0013.669,M 
$GPGGA,230234.000,3101.7399,N,12125.4025,E,1,00,-0013.669,M 
$GPGGA,230234.000,3101.7402,N,12125.4024,E,1,00,-0013.669,M 
$GPGGA,230235.000,3101.7406,N,12125.4023,E,1,00,-0013.669,M 
$GPGGA,230236.000,3101.7410,N,12125.4022,E,1,00,-0013.668,M 
$GPGGA,230236.000,3101.7414,N,12125.4022,E,1,00,-0013.668,M 
$GPGGA,230237.000,3101.7418,N,12125.4021,E,1,00,-0013.668,M 
$GPGGA,230237.000,3101.7422,N,12125.4021,E,1,00,-0013.668,M 
$GPGGA,230238.000,3101.7426,N,12125.4020,E,1,00,-0013.668,M 
$GPGGA,230238.000,3101.7430,N,12125.4019,E,1,00,-0013.668,M 
$GPGGA,230239.000,3101.7434,N,12125.4019,E,1,00,-0013.668,M 
$GPGGA,230239.000,3101.7438,N,12125.4018,E,1,00,-0013.668,M 
$GPGGA,230240.000,3101.7442,N,12125.4018,E,1,00,-0013.668,M 
$GPGGA,230240.000,3101.7446,N,12125.4017,E,1,00,-0013.668,M 
$GPGGA,230241.000,3101.7450,N,12125.4016,E,1,00,-0013.668,M 
$GPGGA,230241.000,3101.7454,N,12125.4016,E,1,00,-0013.668,M 
$GPGGA,230242.000,3101.7458,N,12125.4015,E,1,00,-0013.667,M 
$GPGGA,230243.000,3101.7462,N,12125.4015,E,1,00,-0013.667,M 
$GPGGA,230243.000,3101.7466,N,12125.4014,E,1,00,-0013.667,M 
$GPGGA,230244.000,3101.7470,N,12125.4013,E,1,00,-0013.667,M 
$GPGGA,230244.000,3101.7474,N,12125.4013,E,1,00,-0013.667,M 
$GPGGA,230245.000,3101.7477,N,12125.4012,E,1,00,-0013.667,M 
$GPGGA,230245.000,3101.7481,N,12125.4011,E,1,00,-0013.667,M 
$GPGGA,230246.000,3101.7485,N,12125.4011,E,1,00,-0013.667,M 
$GPGGA,230246.000,3101.7489,N,12125.4010,E,1,00,-0013.667,M 
$GPGGA,230247.000,3101.7492,N,12125.4010,E,1,00,-0013.667,M 
$GPGGA,230248.000,3101.7493,N,12125.4009,E,1,00,-0013.667,M 
$GPGGA,230251.000,3101.7493,N,12125.4014,E,1,00,-0013.667,M 
$GPGGA,230252.000,3101.7494,N,12125.4019,E,1,00,-0013.667,M 
$GPGGA,230252.000,3101.7494,N,12125.4023,E,1,00,-0013.667,M 
$GPGGA,230253.000,3101.7494,N,12125.4028,E,1,00,-0013.667,M 
$GPGGA,230253.000,3101.7494,N,12125.4033,E,1,00,-0013.667,M 
$GPGGA,230254.000,3101.7495,N,12125.4037,E,1,00,-0013.668,M 
$GPGGA,230254.000,3101.7495,N,12125.4042,E,1,00,-0013.668,M 
$GPGGA,230255.000,3101.7495,N,12125.4047,E,1,00,-0013.668,M 
$GPGGA,230256.000,3101.7496,N,12125.4051,E,1,00,-0013.668,M 
$GPGGA,230256.000,3101.7496,N,12125.4056,E,1,00,-0013.668,M 
$GPGGA,230257.000,3101.7496,N,12125.4061,E,1,00,-0013.668,M 
$GPGGA,230257.000,3101.7496,N,12125.4065,E,1,00,-0013.668,M 
$GPGGA,230258.000,3101.7497,N,12125.4070,E,1,00,-0013.669,M 
$GPGGA,230258.000,3101.7497,N,12125.4074,E,1,00,-0013.669,M 
$GPGGA,230259.000,3101.7497,N,12125.4079,E,1,00,-0013.669,M 
$GPGGA,230259.000,3101.7497,N,12125.4083,E,1,00,-0013.669,M 
$GPGGA,230300.000,3101.7497,N,12125.4088,E,1,00,-0013.669,M 
$GPGGA,230300.000,3101.7498,N,12125.4093,E,1,00,-0013.669,M 
$GPGGA,230301.000,3101.7498,N,12125.4097,E,1,00,-0013.669,M 
$GPGGA,230301.000,3101.7498,N,12125.4102,E,1,00,-0013.670,M 
$GPGGA,230302.000,3101.7498,N,12125.4107,E,1,00,-0013.670,M 
$GPGGA,230303.000,3101.7499,N,12125.4111,E,1,00,-0013.670,M 
$GPGGA,230303.000,3101.7499,N,12125.4116,E,1,00,-0013.670,M 
$GPGGA,230304.000,3101.7499,N,12125.4120,E,1,00,-0013.670,M 
$GPGGA,230304.000,3101.7499,N,12125.4125,E,1,00,-0013.670,M 
$GPGGA,230305.000,3101.7499,N,12125.4129,E,1,00,-0013.671,M 
$GPGGA,230305.000,3101.7499,N,12125.4134,E,1,00,-0013.671,M 
$GPGGA,230306.000,3101.7499,N,12125.4139,E,1,00,-0013.671,M 
$GPGGA,230306.000,3101.7500,N,12125.4143,E,1,00,-0013.671,M 
$GPGGA,230307.000,3101.7500,N,12125.4148,E,1,00,-0013.671,M 
$GPGGA,230307.000,3101.7500,N,12125.4152,E,1,00,-0013.671,M 
$GPGGA,230308.000,3101.7500,N,12125.4157,E,1,00,-0013.671,M 
$GPGGA,230309.000,3101.7500,N,12125.4161,E,1,00,-0013.672,M 
$GPGGA,230309.000,3101.7501,N,12125.4166,E,1,00,-0013.672,M 
$GPGGA,230310.000,3101.7501,N,12125.4171,E,1,00,-0013.672,M 
$GPGGA,230310.000,3101.7501,N,12125.4175,E,1,00,-0013.672,M 
$GPGGA,230311.000,3101.7501,N,12125.4180,E,1,00,-0013.672,M 
$GPGGA,230311.000,3101.7501,N,12125.4184,E,1,00,-0013.672,M 
$GPGGA,230312.000,3101.7501,N,12125.4189,E,1,00,-0013.672,M 
$GPGGA,230312.000,3101.7501,N,12125.4194,E,1,00,-0013.673,M 
$GPGGA,230313.000,3101.7501,N,12125.4198,E,1,00,-0013.673,M 
$GPGGA,230313.000,3101.7502,N,12125.4202,E,1,00,-0013.673,M 
$GPGGA,230314.000,3101.7501,N,12125.4207,E,1,00,-0013.673,M 
$GPGGA,230315.000,3101.7502,N,12125.4212,E,1,00,-0013.673,M 
$GPGGA,230315.000,3101.7502,N,12125.4216,E,1,00,-0013.673,M 
$GPGGA,230316.000,3101.7502,N,12125.4221,E,1,00,-0013.673,M 
$GPGGA,230316.000,3101.7502,N,12125.4226,E,1,00,-0013.674,M 
$GPGGA,230317.000,3101.7502,N,12125.4230,E,1,00,-0013.674,M 
$GPGGA,230317.000,3101.7502,N,12125.4235,E,1,00,-0013.674,M 
$GPGGA,230318.000,3101.7502,N,12125.4239,E,1,00,-0013.674,M 
$GPGGA,230318.000,3101.7502,N,12125.4244,E,1,00,-0013.674,M 
$GPGGA,230319.000,3101.7502,N,12125.4248,E,1,00,-0013.674,M 
$GPGGA,230320.000,3101.7502,N,12125.4253,E,1,00,-0013.674,M 
$GPGGA,230320.000,3101.7502,N,12125.4257,E,1,00,-0013.675,M 
$GPGGA,230321.000,3101.7502,N,12125.4262,E,1,00,-0013.675,M 
$GPGGA,230321.000,3101.7502,N,12125.4266,E,1,00,-0013.675,M 
$GPGGA,230322.000,3101.7503,N,12125.4271,E,1,00,-0013.675,M 
$GPGGA,230322.000,3101.7503,N,12125.4275,E,1,00,-0013.675,M 
$GPGGA,230323.000,3101.7503,N,12125.4280,E,1,00,-0013.675,M 
$GPGGA,230323.000,3101.7503,N,12125.4285,E,1,00,-0013.675,M 
$GPGGA,230324.000,3101.7503,N,12125.4289,E,1,00,-0013.676,M 
$GPGGA,230325.000,3101.7503,N,12125.4294,E,1,00,-0013.676,M 
$GPGGA,230325.000,3101.7503,N,12125.4298,E,1,00,-0013.676,M 
$GPGGA,230326.000,3101.7503,N,12125.4303,E,1,00,-0013.676,M 
$GPGGA,230326.000,3101.7503,N,12125.4307,E,1,00,-0013.676,M 
$GPGGA,230327.000,3101.7503,N,12125.4312,E,1,00,-0013.676,M 
$GPGGA,230327.000,3101.7503,N,12125.4317,E,1,00,-0013.676,M 
$GPGGA,230328.000,3101.7504,N,12125.4321,E,1,00,-0013.677,M 
$GPGGA,230328.000,3101.7504,N,12125.4326,E,1,00,-0013.677,M 
$GPGGA,230329.000,3101.7504,N,12125.4331,E,1,00,-0013.677,M 
$GPGGA,230329.000,3101.7504,N,12125.4335,E,1,00,-0013.677,M 
$GPGGA,230330.000,3101.7504,N,12125.4340,E,1,00,-0013.677,M 
$GPGGA,230330.000,3101.7504,N,12125.4344,E,1,00,-0013.677,M 
$GPGGA,230331.000,3101.7504,N,12125.4349,E,1,00,-0013.678,M 
$GPGGA,230332.000,3101.7504,N,12125.4354,E,1,00,-0013.678,M 
$GPGGA,230332.000,3101.7504,N,12125.4358,E,1,00,-0013.678,M 
$GPGGA,230333.000,3101.7504,N,12125.4363,E,1,00,-0013.678,M 
$GPGGA,230333.000,3101.7504,N,12125.4367,E,1,00,-0013.678,M 
$GPGGA,230334.000,3101.7504,N,12125.4372,E,1,00,-0013.678,M 
$GPGGA,230334.000,3101.7504,N,12125.4377,E,1,00,-0013.678,M 
$GPGGA,230335.000,3101.7503,N,12125.4381,E,1,00,-0013.679,M 
$GPGGA,230335.000,3101.7503,N,12125.4386,E,1,00,-0013.679,M 
$GPGGA,230336.000,3101.7503,N,12125.4391,E,1,00,-0013.679,M 
$GPGGA,230336.000,3101.7503,N,12125.4395,E,1,00,-0013.679,M 
$GPGGA,230337.000,3101.7503,N,12125.4400,E,1,00,-0013.679,M 
$GPGGA,230337.000,3101.7503,N,12125.4404,E,1,00,-0013.679,M 
$GPGGA,230338.000,3101.7503,N,12125.4409,E,1,00,-0013.679,M 
$GPGGA,230339.000,3101.7502,N,12125.4414,E,1,00,-0013.680,M 
$GPGGA,230339.000,3101.7502,N,12125.4418,E,1,00,-0013.680,M 
$GPGGA,230340.000,3101.7502,N,12125.4423,E,1,00,-0013.680,M 
$GPGGA,230340.000,3101.7502,N,12125.4427,E,1,00,-0013.680,M 
$GPGGA,230341.000,3101.7502,N,12125.4432,E,1,00,-0013.680,M 
$GPGGA,230341.000,3101.7502,N,12125.4437,E,1,00,-0013.680,M 
$GPGGA,230342.000,3101.7501,N,12125.4441,E,1,00,-0013.680,M 
$GPGGA,230342.000,3101.7501,N,12125.4446,E,1,00,-0013.681,M 
$GPGGA,230343.000,3101.7501,N,12125.4451,E,1,00,-0013.681,M 
$GPGGA,230343.000,3101.7501,N,12125.4456,E,1,00,-0013.681,M 
$GPGGA,230344.000,3101.7501,N,12125.4461,E,1,00,-0013.681,M 
$GPGGA,230344.000,3101.7501,N,12125.4465,E,1,00,-0013.681,M 
$GPGGA,230345.000,3101.7501,N,12125.4470,E,1,00,-0013.681,M 
$GPGGA,230345.000,3101.7501,N,12125.4474,E,1,00,-0013.682,M 
$GPGGA,230346.000,3101.7501,N,12125.4479,E,1,00,-0013.682,M 
$GPGGA,230346.000,3101.7501,N,12125.4484,E,1,00,-0013.682,M 
$GPGGA,230347.000,3101.7501,N,12125.4488,E,1,00,-0013.682,M 
$GPGGA,230348.000,3101.7501,N,12125.4493,E,1,00,-0013.682,M 
$GPGGA,230348.000,3101.7501,N,12125.4497,E,1,00,-0013.682,M 
$GPGGA,230349.000,3101.7500,N,12125.4502,E,1,00,-0013.682,M 
$GPGGA,230349.000,3101.7500,N,12125.4507,E,1,00,-0013.683,M 
$GPGGA,230350.000,3101.7500,N,12125.4511,E,1,00,-0013.683,M 
$GPGGA,230350.000,3101.7500,N,12125.4516,E,1,00,-0013.683,M 
$GPGGA,230351.000,3101.7500,N,12125.4521,E,1,00,-0013.683,M 
$GPGGA,230351.000,3101.7500,N,12125.4525,E,1,00,-0013.683,M 
$GPGGA,230352.000,3101.7500,N,12125.4530,E,1,00,-0013.683,M 
$GPGGA,230352.000,3101.7500,N,12125.4534,E,1,00,-0013.683,M 
$GPGGA,230353.000,3101.7499,N,12125.4538,E,1,00,-0013.684,M 
$GPGGA,230354.000,3101.7499,N,12125.4542,E,1,00,-0013.684,M 
$GPGGA,230354.000,3101.7499,N,12125.4546,E,1,00,-0013.684,M 
$GPGGA,230355.000,3101.7499,N,12125.4548,E,1,00,-0013.684,M 
$GPGGA,230403.000,3101.7499,N,12125.4552,E,1,00,-0013.684,M 
$GPGGA,230404.000,3101.7498,N,12125.4556,E,1,00,-0013.684,M 
$GPGGA,230404.000,3101.7498,N,12125.4561,E,1,00,-0013.684,M 
$GPGGA,230405.000,3101.7498,N,12125.4565,E,1,00,-0013.684,M 
$GPGGA,230406.000,3101.7498,N,12125.4570,E,1,00,-0013.685,M 
$GPGGA,230406.000,3101.7498,N,12125.4574,E,1,00,-0013.685,M 
$GPGGA,230407.000,3101.7497,N,12125.4579,E,1,00,-0013.685,M 
$GPGGA,230407.000,3101.7497,N,12125.4584,E,1,00,-0013.685,M 
$GPGGA,230408.000,3101.7497,N,12125.4588,E,1,00,-0013.685,M 
$GPGGA,230408.000,3101.7497,N,12125.4593,E,1,00,-0013.685,M 
$GPGGA,230409.000,3101.7497,N,12125.4597,E,1,00,-0013.685,M 
$GPGGA,230409.000,3101.7497,N,12125.4601,E,1,00,-0013.686,M 
$GPGGA,230410.000,3101.7497,N,12125.4605,E,1,00,-0013.686,M 
$GPGGA,230411.000,3101.7497,N,12125.4610,E,1,00,-0013.686,M 
$GPGGA,230411.000,3101.7497,N,12125.4614,E,1,00,-0013.686,M 
$GPGGA,230412.000,3101.7497,N,12125.4615,E,1,00,-0013.686,M 
$GPGGA,230422.000,3101.7497,N,12125.4620,E,1,00,-0013.686,M 
$GPGGA,230422.000,3101.7496,N,12125.4624,E,1,00,-0013.686,M 
$GPGGA,230423.000,3101.7496,N,12125.4628,E,1,00,-0013.686,M 
$GPGGA,230424.000,3101.7496,N,12125.4632,E,1,00,-0013.687,M 
$GPGGA,230424.000,3101.7496,N,12125.4637,E,1,00,-0013.687,M 
$GPGGA,230425.000,3101.7496,N,12125.4641,E,1,00,-0013.687,M 
$GPGGA,230426.000,3101.7496,N,12125.4645,E,1,00,-0013.687,M 
$GPGGA,230426.000,3101.7496,N,12125.4649,E,1,00,-0013.687,M 
$GPGGA,230427.000,3101.7496,N,12125.4653,E,1,00,-0013.687,M 
$GPGGA,230427.000,3101.7496,N,12125.4657,E,1,00,-0013.687,M 
$GPGGA,230428.000,3101.7496,N,12125.4662,E,1,00,-0013.687,M 
$GPGGA,230429.000,3101.7495,N,12125.4666,E,1,00,-0013.688,M 
$GPGGA,230429.000,3101.7495,N,12125.4670,E,1,00,-0013.688,M 
$GPGGA,230430.000,3101.7495,N,12125.4675,E,1,00,-0013.688,M 
$GPGGA,230430.000,3101.7495,N,12125.4679,E,1,00,-0013.688,M 
$GPGGA,230431.000,3101.7495,N,12125.4683,E,1,00,-0013.688,M 
$GPGGA,230432.000,3101.7495,N,12125.4688,E,1,00,-0013.688,M 
$GPGGA,230432.000,3101.7495,N,12125.4692,E,1,00,-0013.688,M 
$GPGGA,230433.000,3101.7495,N,12125.4696,E,1,00,-0013.688,M 
$GPGGA,230433.000,3101.7495,N,12125.4700,E,1,00,-0013.689,M 
$GPGGA,230434.000,3101.7495,N,12125.4705,E,1,00,-0013.689,M 
$GPGGA,230435.000,3101.7495,N,12125.4709,E,1,00,-0013.689,M 
$GPGGA,230435.000,3101.7495,N,12125.4713,E,1,00,-0013.689,M 
$GPGGA,230436.000,3101.7495,N,12125.4718,E,1,00,-0013.689,M 
$GPGGA,230436.000,3101.7495,N,12125.4722,E,1,00,-0013.689,M 
$GPGGA,230437.000,3101.7495,N,12125.4726,E,1,00,-0013.689,M 
$GPGGA,230437.000,3101.7495,N,12125.4731,E,1,00,-0013.690,M 
$GPGGA,230438.000,3101.7495,N,12125.4735,E,1,00,-0013.690,M 
$GPGGA,230439.000,3101.7495,N,12125.4739,E,1,00,-0013.690,M 
$GPGGA,230439.000,3101.7495,N,12125.4743,E,1,00,-0013.690,M 
$GPGGA,230440.000,3101.7495,N,12125.4748,E,1,00,-0013.690,M 
$GPGGA,230440.000,3101.7495,N,12125.4752,E,1,00,-0013.690,M 
$GPGGA,230441.000,3101.7495,N,12125.4756,E,1,00,-0013.690,M 
$GPGGA,230442.000,3101.7495,N,12125.4760,E,1,00,-0013.690,M 
$GPGGA,230442.000,3101.7495,N,12125.4765,E,1,00,-0013.691,M 
$GPGGA,230443.000,3101.7495,N,12125.4769,E,1,00,-0013.691,M 
$GPGGA,230443.000,3101.7495,N,12125.4773,E,1,00,-0013.691,M 
$GPGGA,230444.000,3101.7495,N,12125.4777,E,1,00,-0013.691,M 
$GPGGA,230445.000,3101.7495,N,12125.4782,E,1,00,-0013.691,M 
$GPGGA,230445.000,3101.7495,N,12125.4786,E,1,00,-0013.691,M 
$GPGGA,230446.000,3101.7495,N,12125.4790,E,1,00,-0013.691,M 
$GPGGA,230447.000,3101.7495,N,12125.4794,E,1,00,-0013.691,M 
$GPGGA,230447.000,3101.7495,N,12125.4799,E,1,00,-0013.692,M 
$GPGGA,230448.000,3101.7496,N,12125.4803,E,1,00,-0013.692,M 
$GPGGA,230448.000,3101.7496,N,12125.4807,E,1,00,-0013.692,M 
$GPGGA,230449.000,3101.7496,N,12125.4812,E,1,00,-0013.692,M 
$GPGGA,230449.000,3101.7496,N,12125.4816,E,1,00,-0013.692,M 
$GPGGA,230450.000,3101.7496,N,12125.4820,E,1,00,-0013.692,M 
$GPGGA,230451.000,3101.7496,N,12125.4825,E,1,00,-0013.692,M 
$GPGGA,230451.000,3101.7496,N,12125.4829,E,1,00,-0013.692,M 
$GPGGA,230452.000,3101.7496,N,12125.4833,E,1,00,-0013.693,M 
$GPGGA,230452.000,3101.7496,N,12125.4838,E,1,00,-0013.693,M 
$GPGGA,230453.000,3101.7495,N,12125.4842,E,1,00,-0013.693,M 
$GPGGA,230454.000,3101.7495,N,12125.4847,E,1,00,-0013.693,M 
$GPGGA,230454.000,3101.7495,N,12125.4851,E,1,00,-0013.693,M 
$GPGGA,230455.000,3101.7495,N,12125.4855,E,1,00,-0013.693,M 
$GPGGA,230455.000,3101.7495,N,12125.4860,E,1,00,-0013.693,M 
$GPGGA,230456.000,3101.7495,N,12125.4864,E,1,00,-0013.694,M 
$GPGGA,230456.000,3101.7495,N,12125.4869,E,1,00,-0013.694,M 
$GPGGA,230457.000,3101.7495,N,12125.4873,E,1,00,-0013.694,M 
$GPGGA,230458.000,3101.7495,N,12125.4878,E,1,00,-0013.694,M 
$GPGGA,230458.000,3101.7495,N,12125.4882,E,1,00,-0013.694,M 
$GPGGA,230459.000,3101.7495,N,12125.4886,E,1,00,-0013.694,M 
$GPGGA,230459.000,3101.7494,N,12125.4891,E,1,00,-0013.694,M 
$GPGGA,230500.000,3101.7494,N,12125.4895,E,1,00,-0013.695,M 
$GPGGA,230500.000,3101.7494,N,12125.4899,E,1,00,-0013.695,M 
$GPGGA,230501.000,3101.7494,N,12125.4904,E,1,00,-0013.695,M 
$GPGGA,230502.000,3101.7494,N,12125.4909,E,1,00,-0013.695,M 
$GPGGA,230502.000,3101.7494,N,12125.4913,E,1,00,-0013.695,M 
$GPGGA,230503.000,3101.7494,N,12125.4918,E,1,00,-0013.695,M 
$GPGGA,230503.000,3101.7494,N,12125.4922,E,1,00,-0013.695,M 
$GPGGA,230504.000,3101.7493,N,12125.4927,E,1,00,-0013.695,M 
$GPGGA,230504.000,3101.7493,N,12125.4931,E,1,00,-0013.696,M 
$GPGGA,230505.000,3101.7493,N,12125.4935,E,1,00,-0013.696,M 
$GPGGA,230505.000,3101.7493,N,12125.4940,E,1,00,-0013.696,M 
$GPGGA,230506.000,3101.7493,N,12125.4944,E,1,00,-0013.696,M 
$GPGGA,230507.000,3101.7493,N,12125.4949,E,1,00,-0013.696,M 
$GPGGA,230507.000,3101.7493,N,12125.4953,E,1,00,-0013.696,M 
$GPGGA,230508.000,3101.7493,N,12125.4957,E,1,00,-0013.696,M 
$GPGGA,230508.000,3101.7493,N,12125.4962,E,1,00,-0013.696,M 
$GPGGA,230509.000,3101.7493,N,12125.4966,E,1,00,-0013.697,M 
$GPGGA,230510.000,3101.7493,N,12125.4970,E,1,00,-0013.697,M 
$GPGGA,230510.000,3101.7493,N,12125.4975,E,1,00,-0013.697,M 
$GPGGA,230511.000,3101.7492,N,12125.4979,E,1,00,-0013.697,M 
$GPGGA,230511.000,3101.7492,N,12125.4983,E,1,00,-0013.697,M 
$GPGGA,230512.000,3101.7492,N,12125.4988,E,1,00,-0013.697,M 
$GPGGA,230512.000,3101.7492,N,12125.4992,E,1,00,-0013.697,M 
$GPGGA,230513.000,3101.7491,N,12125.4996,E,1,00,-0013.698,M 
$GPGGA,230514.000,3101.7491,N,12125.5000,E,1,00,-0013.698,M 
$GPGGA,230514.000,3101.7491,N,12125.5005,E,1,00,-0013.698,M 
$GPGGA,230515.000,3101.7491,N,12125.5009,E,1,00,-0013.698,M 
$GPGGA,230515.000,3101.7491,N,12125.5013,E,1,00,-0013.698,M 
$GPGGA,230516.000,3101.7491,N,12125.5018,E,1,00,-0013.698,M 
$GPGGA,230517.000,3101.7491,N,12125.5022,E,1,00,-0013.698,M 
$GPGGA,230517.000,3101.7491,N,12125.5026,E,1,00,-0013.698,M 
$GPGGA,230518.000,3101.7491,N,12125.5031,E,1,00,-0013.699,M 
$GPGGA,230518.000,3101.7491,N,12125.5035,E,1,00,-0013.699,M 
$GPGGA,230519.000,3101.7491,N,12125.5039,E,1,00,-0013.699,M 
$GPGGA,230520.000,3101.7491,N,12125.5044,E,1,00,-0013.699,M 
$GPGGA,230520.000,3101.7490,N,12125.5048,E,1,00,-0013.699,M 
$GPGGA,230521.000,3101.7490,N,12125.5053,E,1,00,-0013.699,M 
$GPGGA,230521.000,3101.7490,N,12125.5057,E,1,00,-0013.699,M 
$GPGGA,230522.000,3101.7490,N,12125.5061,E,1,00,-0013.699,M 
$GPGGA,230522.000,3101.7489,N,12125.5066,E,1,00,-0013.700,M 
$GPGGA,230523.000,3101.7489,N,12125.5070,E,1,00,-0013.700,M 
$GPGGA,230524.000,3101.7489,N,12125.5075,E,1,00,-0013.700,M 
$GPGGA,230524.000,3101.7489,N,12125.5079,E,1,00,-0013.700,M 
$GPGGA,230525.000,3101.7488,N,12125.5083,E,1,00,-0013.700,M 
$GPGGA,230525.000,3101.7488,N,12125.5088,E,1,00,-0013.700,M 
$GPGGA,230526.000,3101.7488,N,12125.5092,E,1,00,-0013.700,M 
$GPGGA,230526.000,3101.7488,N,12125.5096,E,1,00,-0013.701,M 
$GPGGA,230527.000,3101.7487,N,12125.5101,E,1,00,-0013.701,M 
$GPGGA,230528.000,3101.7487,N,12125.5105,E,1,00,-0013.701,M 
$GPGGA,230528.000,3101.7487,N,12125.5110,E,1,00,-0013.701,M 
$GPGGA,230529.000,3101.7487,N,12125.5114,E,1,00,-0013.701,M 
$GPGGA,230529.000,3101.7486,N,12125.5118,E,1,00,-0013.701,M 
$GPGGA,230530.000,3101.7486,N,12125.5123,E,1,00,-0013.701,M 
$GPGGA,230531.000,3101.7486,N,12125.5127,E,1,00,-0013.701,M 
$GPGGA,230531.000,3101.7486,N,12125.5131,E,1,00,-0013.702,M 
$GPGGA,230532.000,3101.7485,N,12125.5136,E,1,00,-0013.702,M 
$GPGGA,230532.000,3101.7485,N,12125.5140,E,1,00,-0013.702,M 
$GPGGA,230533.000,3101.7485,N,12125.5145,E,1,00,-0013.702,M 
$GPGGA,230533.000,3101.7485,N,12125.5149,E,1,00,-0013.702,M 
$GPGGA,230534.000,3101.7484,N,12125.5153,E,1,00,-0013.702,M 
$GPGGA,230535.000,3101.7484,N,12125.5158,E,1,00,-0013.702,M 
$GPGGA,230535.000,3101.7484,N,12125.5162,E,1,00,-0013.702,M 
$GPGGA,230536.000,3101.7484,N,12125.5166,E,1,00,-0013.703,M 
$GPGGA,230536.000,3101.7483,N,12125.5171,E,1,00,-0013.703,M 
$GPGGA,230537.000,3101.7483,N,12125.5175,E,1,00,-0013.703,M 
$GPGGA,230537.000,3101.7483,N,12125.5179,E,1,00,-0013.703,M 
$GPGGA,230538.000,3101.7483,N,12125.5184,E,1,00,-0013.703,M 
$GPGGA,230539.000,3101.7483,N,12125.5188,E,1,00,-0013.703,M 
$GPGGA,230539.000,3101.7482,N,12125.5192,E,1,00,-0013.703,M 
$GPGGA,230540.000,3101.7482,N,12125.5197,E,1,00,-0013.703,M 
$GPGGA,230540.000,3101.7482,N,12125.5201,E,1,00,-0013.704,M 
$GPGGA,230541.000,3101.7482,N,12125.5206,E,1,00,-0013.704,M 
$GPGGA,230542.000,3101.7482,N,12125.5210,E,1,00,-0013.704,M 
$GPGGA,230542.000,3101.7482,N,12125.5215,E,1,00,-0013.704,M 
$GPGGA,230543.000,3101.7481,N,12125.5219,E,1,00,-0013.704,M 
$GPGGA,230543.000,3101.7481,N,12125.5224,E,1,00,-0013.704,M 
$GPGGA,230544.000,3101.7481,N,12125.5228,E,1,00,-0013.704,M 
$GPGGA,230544.000,3101.7480,N,12125.5232,E,1,00,-0013.705,M 
$GPGGA,230545.000,3101.7480,N,12125.5236,E,1,00,-0013.705,M 
$GPGGA,230546.000,3101.7480,N,12125.5241,E,1,00,-0013.705,M 
$GPGGA,230546.000,3101.7479,N,12125.5245,E,1,00,-0013.705,M 
$GPGGA,230547.000,3101.7479,N,12125.5250,E,1,00,-0013.705,M 
$GPGGA,230547.000,3101.7479,N,12125.5254,E,1,00,-0013.705,M 
$GPGGA,230548.000,3101.7478,N,12125.5258,E,1,00,-0013.705,M 
$GPGGA,230548.000,3101.7478,N,12125.5263,E,1,00,-0013.705,M 
$GPGGA,230549.000,3101.7478,N,12125.5267,E,1,00,-0013.706,M 
$GPGGA,230550.000,3101.7478,N,12125.5271,E,1,00,-0013.706,M 
$GPGGA,230550.000,3101.7477,N,12125.5276,E,1,00,-0013.706,M 
$GPGGA,230551.000,3101.7477,N,12125.5280,E,1,00,-0013.706,M 
$GPGGA,230551.000,3101.7477,N,12125.5284,E,1,00,-0013.706,M 
$GPGGA,230552.000,3101.7477,N,12125.5289,E,1,00,-0013.706,M 
$GPGGA,230552.000,3101.7476,N,12125.5293,E,1,00,-0013.706,M 
$GPGGA,230553.000,3101.7476,N,12125.5298,E,1,00,-0013.706,M 
$GPGGA,230554.000,3101.7476,N,12125.5302,E,1,00,-0013.707,M 
$GPGGA,230554.000,3101.7476,N,12125.5307,E,1,00,-0013.707,M 
$GPGGA,230555.000,3101.7475,N,12125.5311,E,1,00,-0013.707,M 
$GPGGA,230555.000,3101.7475,N,12125.5315,E,1,00,-0013.707,M 
$GPGGA,230556.000,3101.7475,N,12125.5320,E,1,00,-0013.707,M 
$GPGGA,230557.000,3101.7475,N,12125.5324,E,1,00,-0013.707,M 
$GPGGA,230557.000,3101.7474,N,12125.5328,E,1,00,-0013.707,M 
$GPGGA,230558.000,3101.7474,N,12125.5333,E,1,00,-0013.707,M 
$GPGGA,230558.000,3101.7474,N,12125.5337,E,1,00,-0013.708,M 
$GPGGA,230559.000,3101.7474,N,12125.5342,E,1,00,-0013.708,M 
$GPGGA,230559.000,3101.7474,N,12125.5346,E,1,00,-0013.708,M 
$GPGGA,230600.000,3101.7473,N,12125.5350,E,1,00,-0013.708,M 
$GPGGA,230601.000,3101.7473,N,12125.5355,E,1,00,-0013.708,M 
$GPGGA,230601.000,3101.7473,N,12125.5359,E,1,00,-0013.708,M 
$GPGGA,230602.000,3101.7472,N,12125.5363,E,1,00,-0013.708,M 
$GPGGA,230602.000,3101.7472,N,12125.5368,E,1,00,-0013.708,M 
$GPGGA,230603.000,3101.7472,N,12125.5372,E,1,00,-0013.709,M 
$GPGGA,230603.000,3101.7471,N,12125.5377,E,1,00,-0013.709,M 
$GPGGA,230604.000,3101.7471,N,12125.5381,E,1,00,-0013.709,M 
$GPGGA,230605.000,3101.7471,N,12125.5385,E,1,00,-0013.709,M 
$GPGGA,230605.000,3101.7470,N,12125.5390,E,1,00,-0013.709,M 
$GPGGA,230606.000,3101.7470,N,12125.5394,E,1,00,-0013.709,M 
$GPGGA,230606.000,3101.7470,N,12125.5398,E,1,00,-0013.709,M 
$GPGGA,230607.000,3101.7470,N,12125.5403,E,1,00,-0013.709,M 
