$GPGGA,225635.000,3101.6781,N,12125.7522,E,1,00,00028.744,M 
$GPGGA,225636.000,3101.6778,N,12125.7518,E,1,00,00028.744,M 
$GPGGA,225636.000,3101.6776,N,12125.7515,E,1,00,00012.720,M 
$GPGGA,225638.000,3101.6774,N,12125.7511,E,1,00,00012.720,M 
$GPGGA,225638.000,3101.6771,N,12125.7508,E,1,00,00008.942,M 
$GPGGA,225639.000,3101.6769,N,12125.7504,E,1,00,00008.942,M 
$GPGGA,225639.000,3101.6766,N,12125.7501,E,1,00,00006.073,M 
$GPGGA,225640.000,3101.6764,N,12125.7497,E,1,00,00006.073,M 
$GPGGA,225640.000,3101.6762,N,12125.7493,E,1,00,00006.073,M 
$GPGGA,225640.000,3101.6759,N,12125.7490,E,1,00,-0000.519,M 
$GPGGA,225642.000,3101.6757,N,12125.7486,E,1,00,-0000.519,M 
$GPGGA,225642.000,3101.6755,N,12125.7482,E,1,00,00002.167,M 
$GPGGA,225643.000,3101.6752,N,12125.7479,E,1,00,00002.167,M 
$GPGGA,225643.000,3101.6750,N,12125.7475,E,1,00,00003.392,M 
$GPGGA,225644.000,3101.6747,N,12125.7472,E,1,00,00003.392,M 
$GPGGA,225644.000,3101.6745,N,12125.7468,E,1,00,00005.551,M 
$GPGGA,225645.000,3101.6742,N,12125.7465,E,1,00,00005.551,M 
$GPGGA,225645.000,3101.6740,N,12125.7461,E,1,00,00005.575,M 
$GPGGA,225646.000,3101.6738,N,12125.7457,E,1,00,00006.496,M 
$GPGGA,225647.000,3101.6735,N,12125.7454,E,1,00,00006.496,M 
$GPGGA,225647.000,3101.6733,N,12125.7450,E,1,00,00006.288,M 
$GPGGA,225648.000,3101.6731,N,12125.7447,E,1,00,00006.288,M 
$GPGGA,225648.000,3101.6728,N,12125.7443,E,1,00,00006.288,M 
$GPGGA,225648.000,3101.6726,N,12125.7439,E,1,00,00006.288,M 
$GPGGA,225648.000,3101.6724,N,12125.7436,E,1,00,00007.361,M 
$GPGGA,225649.000,3101.6722,N,12125.7432,E,1,00,00007.361,M 
$GPGGA,225649.000,3101.6719,N,12125.7429,E,1,00,00008.847,M 
$GPGGA,225651.000,3101.6717,N,12125.7425,E,1,00,00008.847,M 
$GPGGA,225651.000,3101.6714,N,12125.7421,E,1,00,00008.847,M 
$GPGGA,225651.000,3101.6712,N,12125.7418,E,1,00,00008.081,M 
$GPGGA,225653.000,3101.6710,N,12125.7414,E,1,00,00008.081,M 
$GPGGA,225653.000,3101.6707,N,12125.7410,E,1,00,00009.274,M 
$GPGGA,225654.000,3101.6705,N,12125.7407,E,1,00,00009.274,M 
$GPGGA,225654.000,3101.6703,N,12125.7403,E,1,00,00009.274,M 
$GPGGA,225654.000,3101.6700,N,12125.7400,E,1,00,00009.274,M 
$GPGGA,225654.000,3101.6698,N,12125.7396,E,1,00,00008.863,M 
$GPGGA,225656.000,3101.6696,N,12125.7392,E,1,00,00008.729,M 
$GPGGA,225657.000,3101.6694,N,12125.7389,E,1,00,00008.729,M 
$GPGGA,225657.000,3101.6692,N,12125.7385,E,1,00,00009.495,M 
$GPGGA,225658.000,3101.6689,N,12125.7382,E,1,00,00009.495,M 
$GPGGA,225658.000,3101.6687,N,12125.7378,E,1,00,00009.362,M 
$GPGGA,225659.000,3101.6685,N,12125.7375,E,1,00,00009.362,M 
$GPGGA,225659.000,3101.6682,N,12125.7372,E,1,00,00008.712,M 
$GPGGA,225700.000,3101.6680,N,12125.7368,E,1,00,00010.832,M 
$GPGGA,225701.000,3101.6678,N,12125.7364,E,1,00,00010.832,M 
$GPGGA,225701.000,3101.6675,N,12125.7361,E,1,00,00011.328,M 
$GPGGA,225702.000,3101.6673,N,12125.7357,E,1,00,00011.328,M 
$GPGGA,225702.000,3101.6671,N,12125.7353,E,1,00,00010.004,M 
$GPGGA,225703.000,3101.6669,N,12125.7350,E,1,00,00010.004,M 
$GPGGA,225703.000,3101.6666,N,12125.7346,E,1,00,00008.477,M 
$GPGGA,225704.000,3101.6664,N,12125.7343,E,1,00,00008.477,M 
$GPGGA,225704.000,3101.6662,N,12125.7339,E,1,00,00008.609,M 
$GPGGA,225705.000,3101.6659,N,12125.7335,E,1,00,00009.792,M 
$GPGGA,225706.000,3101.6657,N,12125.7332,E,1,00,00009.792,M 
$GPGGA,225706.000,3101.6655,N,12125.7328,E,1,00,00008.663,M 
$GPGGA,225707.000,3101.6652,N,12125.7325,E,1,00,00008.664,M 
$GPGGA,225707.000,3101.6650,N,12125.7321,E,1,00,00007.897,M 
$GPGGA,225708.000,3101.6648,N,12125.7317,E,1,00,00007.897,M 
$GPGGA,225708.000,3101.6646,N,12125.7314,E,1,00,00007.604,M 
$GPGGA,225709.000,3101.6643,N,12125.7310,E,1,00,00006.986,M 
$GPGGA,225710.000,3101.6641,N,12125.7306,E,1,00,00006.986,M 
$GPGGA,225710.000,3101.6639,N,12125.7303,E,1,00,00007.533,M 
$GPGGA,225711.000,3101.6637,N,12125.7299,E,1,00,00007.533,M 
$GPGGA,225711.000,3101.6635,N,12125.7295,E,1,00,00007.649,M 
$GPGGA,225712.000,3101.6633,N,12125.7291,E,1,00,00007.649,M 
$GPGGA,225712.000,3101.6630,N,12125.7288,E,1,00,00007.907,M 
$GPGGA,225713.000,3101.6628,N,12125.7284,E,1,00,00007.907,M 
$GPGGA,225713.000,3101.6626,N,12125.7280,E,1,00,00007.433,M 
$GPGGA,225714.000,3101.6624,N,12125.7276,E,1,00,00008.897,M 
$GPGGA,225715.000,3101.6621,N,12125.7273,E,1,00,00008.897,M 
$GPGGA,225715.000,3101.6619,N,12125.7269,E,1,00,00009.598,M 
$GPGGA,225716.000,3101.6616,N,12125.7266,E,1,00,00009.598,M 
$GPGGA,225716.000,3101.6614,N,12125.7262,E,1,00,00008.776,M 
$GPGGA,225717.000,3101.6612,N,12125.7258,E,1,00,00008.776,M 
$GPGGA,225717.000,3101.6609,N,12125.7255,E,1,00,00008.472,M 
$GPGGA,225718.000,3101.6607,N,12125.7251,E,1,00,00008.472,M 
$GPGGA,225718.000,3101.6604,N,12125.7247,E,1,00,00008.368,M 
$GPGGA,225719.000,3101.6602,N,12125.7244,E,1,00,00008.368,M 
$GPGGA,225719.000,3101.6600,N,12125.7240,E,1,00,00007.602,M 
$GPGGA,225720.000,3101.6597,N,12125.7236,E,1,00,00007.383,M 
$GPGGA,225721.000,3101.6595,N,12125.7233,E,1,00,00007.383,M 
$GPGGA,225721.000,3101.6593,N,12125.7229,E,1,00,00007.062,M 
$GPGGA,225722.000,3101.6591,N,12125.7226,E,1,00,00007.062,M 
$GPGGA,225722.000,3101.6588,N,12125.7222,E,1,00,00006.665,M 
$GPGGA,225723.000,3101.6586,N,12125.7218,E,1,00,00006.665,M 
$GPGGA,225723.000,3101.6584,N,12125.7215,E,1,00,00007.847,M 
$GPGGA,225724.000,3101.6581,N,12125.7211,E,1,00,00007.847,M 
$GPGGA,225724.000,3101.6579,N,12125.7207,E,1,00,00009.550,M 
$GPGGA,225725.000,3101.6577,N,12125.7204,E,1,00,00009.259,M 
$GPGGA,225726.000,3101.6574,N,12125.7200,E,1,00,00009.259,M 
$GPGGA,225726.000,3101.6572,N,12125.7197,E,1,00,00009.071,M 
$GPGGA,225727.000,3101.6570,N,12125.7193,E,1,00,00009.071,M 
$GPGGA,225727.000,3101.6567,N,12125.7189,E,1,00,00008.960,M 
$GPGGA,225728.000,3101.6565,N,12125.7186,E,1,00,00008.960,M 
$GPGGA,225728.000,3101.6563,N,12125.7182,E,1,00,00008.077,M 
$GPGGA,225729.000,3101.6560,N,12125.7179,E,1,00,00008.077,M 
$GPGGA,225729.000,3101.6558,N,12125.7175,E,1,00,00008.360,M 
$GPGGA,225730.000,3101.6556,N,12125.7171,E,1,00,00008.595,M 
$GPGGA,225731.000,3101.6553,N,12125.7168,E,1,00,00008.595,M 
$GPGGA,225731.000,3101.6551,N,12125.7164,E,1,00,00008.346,M 
$GPGGA,225732.000,3101.6548,N,12125.7160,E,1,00,00008.346,M 
$GPGGA,225732.000,3101.6546,N,12125.7157,E,1,00,00006.957,M 
$GPGGA,225733.000,3101.6544,N,12125.7153,E,1,00,00006.957,M 
$GPGGA,225733.000,3101.6542,N,12125.7150,E,1,00,00007.814,M 
$GPGGA,225734.000,3101.6539,N,12125.7146,E,1,00,00007.814,M 
$GPGGA,225734.000,3101.6537,N,12125.7142,E,1,00,00007.424,M 
$GPGGA,225735.000,3101.6535,N,12125.7139,E,1,00,00008.616,M 
$GPGGA,225736.000,3101.6532,N,12125.7135,E,1,00,00008.616,M 
$GPGGA,225736.000,3101.6530,N,12125.7132,E,1,00,00009.231,M 
$GPGGA,225737.000,3101.6528,N,12125.7128,E,1,00,00009.231,M 
$GPGGA,225737.000,3101.6525,N,12125.7124,E,1,00,00008.856,M 
$GPGGA,225738.000,3101.6523,N,12125.7120,E,1,00,00008.856,M 
$GPGGA,225738.000,3101.6520,N,12125.7117,E,1,00,00008.072,M 
$GPGGA,225739.000,3101.6518,N,12125.7113,E,1,00,00008.072,M 
$GPGGA,225739.000,3101.6516,N,12125.7109,E,1,00,00008.907,M 
$GPGGA,225740.000,3101.6513,N,12125.7106,E,1,00,00008.907,M 
$GPGGA,225740.000,3101.6511,N,12125.7102,E,1,00,00007.723,M 
$GPGGA,225741.000,3101.6509,N,12125.7099,E,1,00,00007.950,M 
$GPGGA,225742.000,3101.6506,N,12125.7095,E,1,00,00007.950,M 
$GPGGA,225742.000,3101.6504,N,12125.7092,E,1,00,00007.588,M 
$GPGGA,225743.000,3101.6501,N,12125.7088,E,1,00,00007.588,M 
$GPGGA,225743.000,3101.6499,N,12125.7084,E,1,00,00008.218,M 
$GPGGA,225744.000,3101.6496,N,12125.7081,E,1,00,00008.218,M 
$GPGGA,225744.000,3101.6494,N,12125.7077,E,1,00,00007.534,M 
$GPGGA,225745.000,3101.6492,N,12125.7074,E,1,00,00007.534,M 
$GPGGA,225745.000,3101.6489,N,12125.7070,E,1,00,00009.577,M 
$GPGGA,225746.000,3101.6487,N,12125.7066,E,1,00,00009.577,M 
$GPGGA,225746.000,3101.6485,N,12125.7062,E,1,00,00008.430,M 
$GPGGA,225747.000,3101.6482,N,12125.7059,E,1,00,00008.492,M 
$GPGGA,225748.000,3101.6480,N,12125.7055,E,1,00,00008.492,M 
$GPGGA,225748.000,3101.6477,N,12125.7051,E,1,00,00006.979,M 
$GPGGA,225749.000,3101.6475,N,12125.7048,E,1,00,00006.979,M 
$GPGGA,225749.000,3101.6473,N,12125.7044,E,1,00,00007.750,M 
$GPGGA,225750.000,3101.6470,N,12125.7041,E,1,00,00007.750,M 
$GPGGA,225750.000,3101.6468,N,12125.7037,E,1,00,00007.759,M 
$GPGGA,225751.000,3101.6465,N,12125.7033,E,1,00,00007.759,M 
$GPGGA,225751.000,3101.6463,N,12125.7030,E,1,00,00007.431,M 
$GPGGA,225752.000,3101.6461,N,12125.7026,E,1,00,00007.431,M 
$GPGGA,225752.000,3101.6458,N,12125.7022,E,1,00,00007.560,M 
$GPGGA,225753.000,3101.6456,N,12125.7019,E,1,00,00007.238,M 
$GPGGA,225754.000,3101.6454,N,12125.7015,E,1,00,00007.238,M 
$GPGGA,225754.000,3101.6451,N,12125.7012,E,1,00,00007.815,M 
$GPGGA,225755.000,3101.6448,N,12125.7008,E,1,00,00007.815,M 
$GPGGA,225755.000,3101.6446,N,12125.7005,E,1,00,00007.128,M 
$GPGGA,225756.000,3101.6443,N,12125.7001,E,1,00,00007.128,M 
$GPGGA,225756.000,3101.6441,N,12125.6997,E,1,00,00007.369,M 
$GPGGA,225757.000,3101.6438,N,12125.6994,E,1,00,00007.369,M 
$GPGGA,225757.000,3101.6436,N,12125.6990,E,1,00,00007.220,M 
$GPGGA,225758.000,3101.6433,N,12125.6987,E,1,00,00007.220,M 
$GPGGA,225758.000,3101.6431,N,12125.6983,E,1,00,00008.231,M 
$GPGGA,225759.000,3101.6428,N,12125.6980,E,1,00,00007.944,M 
$GPGGA,225800.000,3101.6426,N,12125.6976,E,1,00,00007.944,M 
$GPGGA,225800.000,3101.6424,N,12125.6973,E,1,00,00007.453,M 
$GPGGA,225801.000,3101.6421,N,12125.6969,E,1,00,00007.453,M 
$GPGGA,225801.000,3101.6418,N,12125.6966,E,1,00,00007.583,M 
$GPGGA,225802.000,3101.6416,N,12125.6962,E,1,00,00007.583,M 
$GPGGA,225802.000,3101.6413,N,12125.6959,E,1,00,00007.631,M 
$GPGGA,225803.000,3101.6411,N,12125.6956,E,1,00,00007.631,M 
$GPGGA,225803.000,3101.6408,N,12125.6952,E,1,00,00007.451,M 
$GPGGA,225804.000,3101.6406,N,12125.6949,E,1,00,00007.545,M 
$GPGGA,225805.000,3101.6403,N,12125.6945,E,1,00,00007.545,M 
$GPGGA,225805.000,3101.6401,N,12125.6942,E,1,00,00006.809,M 
$GPGGA,225806.000,3101.6398,N,12125.6939,E,1,00,00006.809,M 
$GPGGA,225806.000,3101.6395,N,12125.6935,E,1,00,00006.301,M 
$GPGGA,225807.000,3101.6393,N,12125.6932,E,1,00,00006.301,M 
$GPGGA,225807.000,3101.6390,N,12125.6929,E,1,00,00007.509,M 
$GPGGA,225808.000,3101.6388,N,12125.6925,E,1,00,00007.270,M 
$GPGGA,225809.000,3101.6386,N,12125.6922,E,1,00,00007.270,M 
$GPGGA,225809.000,3101.6383,N,12125.6919,E,1,00,00008.186,M 
$GPGGA,225810.000,3101.6381,N,12125.6915,E,1,00,00008.186,M 
$GPGGA,225810.000,3101.6378,N,12125.6912,E,1,00,00008.570,M 
$GPGGA,225811.000,3101.6376,N,12125.6908,E,1,00,00008.570,M 
$GPGGA,225811.000,3101.6373,N,12125.6905,E,1,00,00008.729,M 
$GPGGA,225812.000,3101.6371,N,12125.6901,E,1,00,00008.729,M 
$GPGGA,225812.000,3101.6369,N,12125.6898,E,1,00,00008.680,M 
$GPGGA,225813.000,3101.6366,N,12125.6894,E,1,00,00008.037,M 
$GPGGA,225814.000,3101.6365,N,12125.6893,E,1,00,00006.295,M 
$GPGGA,225821.000,3101.6363,N,12125.6890,E,1,00,00006.051,M 
$GPGGA,225822.000,3101.6360,N,12125.6886,E,1,00,00006.051,M 
$GPGGA,225822.000,3101.6358,N,12125.6883,E,1,00,00006.560,M 
$GPGGA,225823.000,3101.6355,N,12125.6879,E,1,00,00006.560,M 
$GPGGA,225823.000,3101.6353,N,12125.6876,E,1,00,00007.946,M 
$GPGGA,225824.000,3101.6350,N,12125.6872,E,1,00,00007.946,M 
$GPGGA,225824.000,3101.6348,N,12125.6869,E,1,00,00006.781,M 
$GPGGA,225825.000,3101.6346,N,12125.6865,E,1,00,00008.347,M 
$GPGGA,225826.000,3101.6343,N,12125.6862,E,1,00,00008.347,M 
$GPGGA,225826.000,3101.6341,N,12125.6858,E,1,00,00006.716,M 
$GPGGA,225827.000,3101.6338,N,12125.6854,E,1,00,00006.716,M 
$GPGGA,225827.000,3101.6336,N,12125.6851,E,1,00,00004.487,M 
$GPGGA,225828.000,3101.6333,N,12125.6847,E,1,00,00004.487,M 
$GPGGA,225828.000,3101.6331,N,12125.6844,E,1,00,00006.597,M 
$GPGGA,225829.000,3101.6328,N,12125.6840,E,1,00,00006.597,M 
$GPGGA,225829.000,3101.6326,N,12125.6837,E,1,00,00008.348,M 
$GPGGA,225830.000,3101.6323,N,12125.6833,E,1,00,00008.348,M 
$GPGGA,225830.000,3101.6321,N,12125.6829,E,1,00,00010.382,M 
$GPGGA,225831.000,3101.6318,N,12125.6826,E,1,00,00012.244,M 
$GPGGA,225832.000,3101.6316,N,12125.6822,E,1,00,00012.244,M 
$GPGGA,225832.000,3101.6314,N,12125.6819,E,1,00,00014.769,M 
$GPGGA,225833.000,3101.6311,N,12125.6815,E,1,00,00014.769,M 
$GPGGA,225833.000,3101.6309,N,12125.6812,E,1,00,00016.263,M 
$GPGGA,225834.000,3101.6306,N,12125.6808,E,1,00,00016.264,M 
$GPGGA,225834.000,3101.6303,N,12125.6805,E,1,00,00015.372,M 
$GPGGA,225835.000,3101.6301,N,12125.6801,E,1,00,00015.372,M 
$GPGGA,225835.000,3101.6298,N,12125.6798,E,1,00,00015.968,M 
$GPGGA,225836.000,3101.6295,N,12125.6794,E,1,00,00015.968,M 
$GPGGA,225836.000,3101.6293,N,12125.6791,E,1,00,00014.713,M 
$GPGGA,225837.000,3101.6290,N,12125.6788,E,1,00,00014.908,M 
$GPGGA,225838.000,3101.6288,N,12125.6784,E,1,00,00014.908,M 
$GPGGA,225838.000,3101.6285,N,12125.6781,E,1,00,00015.636,M 
$GPGGA,225839.000,3101.6282,N,12125.6777,E,1,00,00015.636,M 
$GPGGA,225839.000,3101.6280,N,12125.6773,E,1,00,00016.568,M 
$GPGGA,225840.000,3101.6277,N,12125.6770,E,1,00,00016.568,M 
$GPGGA,225840.000,3101.6275,N,12125.6766,E,1,00,00017.559,M 
$GPGGA,225841.000,3101.6272,N,12125.6763,E,1,00,00017.559,M 
$GPGGA,225841.000,3101.6270,N,12125.6759,E,1,00,00018.496,M 
$GPGGA,225842.000,3101.6268,N,12125.6756,E,1,00,00018.496,M 
$GPGGA,225842.000,3101.6265,N,12125.6752,E,1,00,00019.591,M 
$GPGGA,225843.000,3101.6263,N,12125.6748,E,1,00,00020.736,M 
$GPGGA,225844.000,3101.6260,N,12125.6745,E,1,00,00020.736,M 
$GPGGA,225844.000,3101.6258,N,12125.6741,E,1,00,00021.930,M 
$GPGGA,225845.000,3101.6256,N,12125.6737,E,1,00,00021.930,M 
$GPGGA,225845.000,3101.6253,N,12125.6733,E,1,00,00023.174,M 
$GPGGA,225846.000,3101.6251,N,12125.6730,E,1,00,00023.174,M 
$GPGGA,225846.000,3101.6248,N,12125.6726,E,1,00,00024.468,M 
$GPGGA,225847.000,3101.6246,N,12125.6722,E,1,00,00024.468,M 
$GPGGA,225847.000,3101.6244,N,12125.6719,E,1,00,00025.811,M 
$GPGGA,225848.000,3101.6242,N,12125.6715,E,1,00,00025.811,M 
$GPGGA,225848.000,3101.6239,N,12125.6711,E,1,00,00026.969,M 
$GPGGA,225849.000,3101.6237,N,12125.6707,E,1,00,00026.969,M 
$GPGGA,225849.000,3101.6235,N,12125.6704,E,1,00,00027.966,M 
$GPGGA,225850.000,3101.6233,N,12125.6700,E,1,00,00029.084,M 
$GPGGA,225851.000,3101.6232,N,12125.6699,E,1,00,00017.837,M 
$GPGGA,225853.000,3101.6230,N,12125.6695,E,1,00,00012.222,M 
$GPGGA,225854.000,3101.6228,N,12125.6692,E,1,00,00012.222,M 
$GPGGA,225854.000,3101.6225,N,12125.6688,E,1,00,00008.756,M 
$GPGGA,225855.000,3101.6223,N,12125.6684,E,1,00,00008.756,M 
$GPGGA,225855.000,3101.6221,N,12125.6680,E,1,00,00007.880,M 
$GPGGA,225856.000,3101.6218,N,12125.6676,E,1,00,00007.880,M 
$GPGGA,225856.000,3101.6216,N,12125.6672,E,1,00,00006.710,M 
$GPGGA,225857.000,3101.6214,N,12125.6668,E,1,00,00006.710,M 
$GPGGA,225857.000,3101.6212,N,12125.6664,E,1,00,00013.258,M 
$GPGGA,225858.000,3101.6209,N,12125.6661,E,1,00,00013.258,M 
$GPGGA,225858.000,3101.6207,N,12125.6657,E,1,00,00012.015,M 
$GPGGA,225859.000,3101.6205,N,12125.6653,E,1,00,00012.015,M 
$GPGGA,225859.000,3101.6202,N,12125.6649,E,1,00,00010.355,M 
$GPGGA,225900.000,3101.6200,N,12125.6646,E,1,00,00010.355,M 
$GPGGA,225900.000,3101.6198,N,12125.6642,E,1,00,00010.517,M 
$GPGGA,225901.000,3101.6195,N,12125.6638,E,1,00,00009.016,M 
$GPGGA,225902.000,3101.6193,N,12125.6634,E,1,00,00009.016,M 
$GPGGA,225902.000,3101.6191,N,12125.6631,E,1,00,00008.909,M 
$GPGGA,225903.000,3101.6189,N,12125.6627,E,1,00,00008.909,M 
$GPGGA,225903.000,3101.6186,N,12125.6623,E,1,00,00007.908,M 
$GPGGA,225904.000,3101.6184,N,12125.6619,E,1,00,00007.908,M 
$GPGGA,225904.000,3101.6182,N,12125.6616,E,1,00,00009.512,M 
$GPGGA,225905.000,3101.6180,N,12125.6612,E,1,00,00009.512,M 
$GPGGA,225905.000,3101.6178,N,12125.6608,E,1,00,00010.142,M 
$GPGGA,225906.000,3101.6176,N,12125.6604,E,1,00,00010.142,M 
$GPGGA,225906.000,3101.6173,N,12125.6600,E,1,00,00010.343,M 
$GPGGA,225907.000,3101.6171,N,12125.6597,E,1,00,00009.357,M 
$GPGGA,225908.000,3101.6169,N,12125.6593,E,1,00,00009.357,M 
$GPGGA,225908.000,3101.6167,N,12125.6589,E,1,00,00010.446,M 
$GPGGA,225909.000,3101.6164,N,12125.6585,E,1,00,00010.446,M 
$GPGGA,225909.000,3101.6162,N,12125.6582,E,1,00,00010.394,M 
$GPGGA,225910.000,3101.6160,N,12125.6578,E,1,00,00010.394,M 
$GPGGA,225910.000,3101.6158,N,12125.6574,E,1,00,00009.748,M 
$GPGGA,225911.000,3101.6155,N,12125.6570,E,1,00,00009.748,M 
$GPGGA,225911.000,3101.6153,N,12125.6566,E,1,00,00009.757,M 
$GPGGA,225912.000,3101.6151,N,12125.6563,E,1,00,00009.757,M 
$GPGGA,225912.000,3101.6149,N,12125.6559,E,1,00,00008.618,M 
$GPGGA,225913.000,3101.6146,N,12125.6555,E,1,00,00009.403,M 
$GPGGA,225914.000,3101.6144,N,12125.6552,E,1,00,00009.403,M 
$GPGGA,225914.000,3101.6142,N,12125.6548,E,1,00,00008.653,M 
$GPGGA,225915.000,3101.6140,N,12125.6544,E,1,00,00008.653,M 
$GPGGA,225915.000,3101.6138,N,12125.6540,E,1,00,00009.211,M 
$GPGGA,225916.000,3101.6136,N,12125.6536,E,1,00,00009.211,M 
$GPGGA,225916.000,3101.6133,N,12125.6533,E,1,00,00008.848,M 
$GPGGA,225917.000,3101.6131,N,12125.6529,E,1,00,00008.848,M 
$GPGGA,225917.000,3101.6129,N,12125.6525,E,1,00,00008.171,M 
$GPGGA,225918.000,3101.6127,N,12125.6521,E,1,00,00009.268,M 
$GPGGA,225919.000,3101.6125,N,12125.6518,E,1,00,00009.268,M 
$GPGGA,225919.000,3101.6122,N,12125.6514,E,1,00,00009.720,M 
$GPGGA,225920.000,3101.6120,N,12125.6510,E,1,00,00009.720,M 
$GPGGA,225920.000,3101.6118,N,12125.6506,E,1,00,00008.223,M 
$GPGGA,225921.000,3101.6116,N,12125.6502,E,1,00,00008.223,M 
$GPGGA,225921.000,3101.6114,N,12125.6499,E,1,00,00008.683,M 
$GPGGA,225922.000,3101.6112,N,12125.6495,E,1,00,00008.683,M 
$GPGGA,225922.000,3101.6110,N,12125.6491,E,1,00,00008.395,M 
$GPGGA,225923.000,3101.6108,N,12125.6487,E,1,00,00008.253,M 
$GPGGA,225924.000,3101.6105,N,12125.6483,E,1,00,00008.253,M 
$GPGGA,225924.000,3101.6103,N,12125.6480,E,1,00,00007.347,M 
$GPGGA,225925.000,3101.6101,N,12125.6476,E,1,00,00007.347,M 
$GPGGA,225925.000,3101.6099,N,12125.6472,E,1,00,00007.113,M 
$GPGGA,225926.000,3101.6096,N,12125.6469,E,1,00,00007.113,M 
$GPGGA,225926.000,3101.6094,N,12125.6465,E,1,00,00006.500,M 
$GPGGA,225927.000,3101.6092,N,12125.6461,E,1,00,00006.501,M 
$GPGGA,225927.000,3101.6090,N,12125.6457,E,1,00,00007.430,M 
$GPGGA,225928.000,3101.6088,N,12125.6454,E,1,00,00007.430,M 
$GPGGA,225928.000,3101.6085,N,12125.6450,E,1,00,00007.377,M 
$GPGGA,225929.000,3101.6083,N,12125.6446,E,1,00,00006.273,M 
$GPGGA,225930.000,3101.6081,N,12125.6443,E,1,00,00006.273,M 
$GPGGA,225930.000,3101.6079,N,12125.6439,E,1,00,00006.379,M 
$GPGGA,225931.000,3101.6076,N,12125.6435,E,1,00,00006.379,M 
$GPGGA,225931.000,3101.6074,N,12125.6431,E,1,00,00006.318,M 
$GPGGA,225932.000,3101.6072,N,12125.6428,E,1,00,00006.318,M 
$GPGGA,225932.000,3101.6070,N,12125.6424,E,1,00,00005.934,M 
$GPGGA,225933.000,3101.6068,N,12125.6420,E,1,00,00007.125,M 
$GPGGA,225934.000,3101.6066,N,12125.6416,E,1,00,00007.125,M 
$GPGGA,225934.000,3101.6064,N,12125.6413,E,1,00,00006.483,M 
$GPGGA,225935.000,3101.6062,N,12125.6409,E,1,00,00006.483,M 
$GPGGA,225935.000,3101.6060,N,12125.6405,E,1,00,00006.417,M 
$GPGGA,225936.000,3101.6057,N,12125.6401,E,1,00,00006.417,M 
$GPGGA,225936.000,3101.6055,N,12125.6398,E,1,00,00008.210,M 
$GPGGA,225937.000,3101.6053,N,12125.6394,E,1,00,00008.210,M 
$GPGGA,225937.000,3101.6051,N,12125.6390,E,1,00,00007.485,M 
$GPGGA,225938.000,3101.6049,N,12125.6386,E,1,00,00009.199,M 
$GPGGA,225939.000,3101.6047,N,12125.6382,E,1,00,00009.199,M 
$GPGGA,225939.000,3101.6045,N,12125.6378,E,1,00,00008.472,M 
$GPGGA,225940.000,3101.6043,N,12125.6375,E,1,00,00008.473,M 
$GPGGA,225940.000,3101.6040,N,12125.6371,E,1,00,00008.755,M 
$GPGGA,225941.000,3101.6038,N,12125.6367,E,1,00,00008.755,M 
$GPGGA,225941.000,3101.6036,N,12125.6364,E,1,00,00007.662,M 
$GPGGA,225942.000,3101.6034,N,12125.6360,E,1,00,00007.662,M 
$GPGGA,225942.000,3101.6032,N,12125.6356,E,1,00,00009.733,M 
$GPGGA,225943.000,3101.6029,N,12125.6352,E,1,00,00009.733,M 
$GPGGA,225943.000,3101.6027,N,12125.6348,E,1,00,00010.144,M 
$GPGGA,225944.000,3101.6025,N,12125.6345,E,1,00,00008.808,M 
$GPGGA,225945.000,3101.6023,N,12125.6341,E,1,00,00008.808,M 
$GPGGA,225945.000,3101.6020,N,12125.6337,E,1,00,00009.241,M 
$GPGGA,225946.000,3101.6018,N,12125.6333,E,1,00,00009.241,M 
$GPGGA,225946.000,3101.6016,N,12125.6330,E,1,00,00008.330,M 
$GPGGA,225947.000,3101.6014,N,12125.6326,E,1,00,00008.330,M 
$GPGGA,225947.000,3101.6012,N,12125.6322,E,1,00,00009.411,M 
$GPGGA,225948.000,3101.6010,N,12125.6319,E,1,00,00009.411,M 
$GPGGA,225948.000,3101.6007,N,12125.6315,E,1,00,00009.213,M 
$GPGGA,225949.000,3101.6005,N,12125.6311,E,1,00,00008.435,M 
$GPGGA,225950.000,3101.6003,N,12125.6308,E,1,00,00008.435,M 
$GPGGA,225950.000,3101.6001,N,12125.6304,E,1,00,00009.274,M 
$GPGGA,225951.000,3101.5999,N,12125.6300,E,1,00,00009.274,M 
$GPGGA,225951.000,3101.5997,N,12125.6296,E,1,00,00009.578,M 
$GPGGA,225952.000,3101.5994,N,12125.6293,E,1,00,00009.578,M 
$GPGGA,225952.000,3101.5992,N,12125.6289,E,1,00,00010.938,M 
$GPGGA,225953.000,3101.5990,N,12125.6286,E,1,00,00010.298,M 
$GPGGA,225954.000,3101.5988,N,12125.6283,E,1,00,00010.298,M 
$GPGGA,225954.000,3101.5988,N,12125.6281,E,1,00,00012.331,M 
$GPGGA,225958.000,3101.5986,N,12125.6277,E,1,00,00012.566,M 
$GPGGA,225959.000,3101.5985,N,12125.6276,E,1,00,00012.451,M 
$GPGGA,230004.000,3101.5988,N,12125.6274,E,1,00,00012.451,M 
$GPGGA,230004.000,3101.5991,N,12125.6271,E,1,00,00014.381,M 
$GPGGA,230005.000,3101.5995,N,12125.6269,E,1,00,00014.381,M 
$GPGGA,230005.000,3101.5998,N,12125.6266,E,1,00,00014.684,M 
$GPGGA,230006.000,3101.6002,N,12125.6264,E,1,00,00015.799,M 
$GPGGA,230007.000,3101.6005,N,12125.6261,E,1,00,00015.800,M 
$GPGGA,230007.000,3101.6008,N,12125.6259,E,1,00,00015.613,M 
$GPGGA,230008.000,3101.6012,N,12125.6257,E,1,00,00015.613,M 
$GPGGA,230008.000,3101.6015,N,12125.6254,E,1,00,00016.628,M 
$GPGGA,230009.000,3101.6018,N,12125.6252,E,1,00,00016.628,M 
$GPGGA,230009.000,3101.6022,N,12125.6249,E,1,00,00017.370,M 
$GPGGA,230010.000,3101.6025,N,12125.6247,E,1,00,00017.370,M 
$GPGGA,230010.000,3101.6029,N,12125.6245,E,1,00,00016.864,M 
$GPGGA,230011.000,3101.6032,N,12125.6242,E,1,00,00016.864,M 
$GPGGA,230011.000,3101.6035,N,12125.6240,E,1,00,00018.450,M 
$GPGGA,230012.000,3101.6039,N,12125.6237,E,1,00,00018.450,M 
$GPGGA,230012.000,3101.6042,N,12125.6235,E,1,00,00016.288,M 
$GPGGA,230013.000,3101.6045,N,12125.6233,E,1,00,00015.793,M 
$GPGGA,230014.000,3101.6049,N,12125.6231,E,1,00,00015.793,M 
$GPGGA,230014.000,3101.6052,N,12125.6228,E,1,00,00014.400,M 
$GPGGA,230015.000,3101.6056,N,12125.6226,E,1,00,00014.400,M 
$GPGGA,230015.000,3101.6059,N,12125.6224,E,1,00,00014.339,M 
$GPGGA,230016.000,3101.6063,N,12125.6221,E,1,00,00014.339,M 
$GPGGA,230016.000,3101.6066,N,12125.6219,E,1,00,00013.155,M 
$GPGGA,230017.000,3101.6069,N,12125.6217,E,1,00,00013.155,M 
$GPGGA,230017.000,3101.6073,N,12125.6214,E,1,00,00014.446,M 
$GPGGA,230018.000,3101.6076,N,12125.6212,E,1,00,00014.446,M 
$GPGGA,230018.000,3101.6079,N,12125.6210,E,1,00,00014.822,M 
$GPGGA,230019.000,3101.6083,N,12125.6207,E,1,00,00012.635,M 
$GPGGA,230020.000,3101.6086,N,12125.6205,E,1,00,00012.635,M 
$GPGGA,230020.000,3101.6090,N,12125.6203,E,1,00,00010.825,M 
$GPGGA,230021.000,3101.6093,N,12125.6200,E,1,00,00010.825,M 
$GPGGA,230021.000,3101.6096,N,12125.6198,E,1,00,00009.841,M 
$GPGGA,230022.000,3101.6100,N,12125.6196,E,1,00,00009.841,M 
$GPGGA,230022.000,3101.6103,N,12125.6193,E,1,00,00010.508,M 
$GPGGA,230023.000,3101.6107,N,12125.6191,E,1,00,00010.508,M 
$GPGGA,230023.000,3101.6110,N,12125.6189,E,1,00,00008.593,M 
$GPGGA,230024.000,3101.6113,N,12125.6186,E,1,00,00008.593,M 
$GPGGA,230024.000,3101.6117,N,12125.6184,E,1,00,00009.273,M 
$GPGGA,230025.000,3101.6120,N,12125.6182,E,1,00,00009.029,M 
$GPGGA,230026.000,3101.6124,N,12125.6179,E,1,00,00009.030,M 
$GPGGA,230026.000,3101.6127,N,12125.6177,E,1,00,00011.217,M 
$GPGGA,230027.000,3101.6131,N,12125.6175,E,1,00,00011.217,M 
$GPGGA,230027.000,3101.6134,N,12125.6172,E,1,00,00011.718,M 
$GPGGA,230028.000,3101.6138,N,12125.6170,E,1,00,00011.718,M 
$GPGGA,230028.000,3101.6141,N,12125.6167,E,1,00,00012.862,M 
$GPGGA,230029.000,3101.6144,N,12125.6165,E,1,00,00012.862,M 
$GPGGA,230029.000,3101.6148,N,12125.6163,E,1,00,00011.075,M 
$GPGGA,230030.000,3101.6151,N,12125.6160,E,1,00,00011.075,M 
$GPGGA,230030.000,3101.6155,N,12125.6158,E,1,00,00010.457,M 
$GPGGA,230031.000,3101.6158,N,12125.6156,E,1,00,00010.457,M 
$GPGGA,230031.000,3101.6161,N,12125.6153,E,1,00,00009.493,M 
$GPGGA,230032.000,3101.6165,N,12125.6151,E,1,00,00009.030,M 
$GPGGA,230033.000,3101.6168,N,12125.6149,E,1,00,00009.030,M 
$GPGGA,230033.000,3101.6172,N,12125.6146,E,1,00,00010.028,M 
$GPGGA,230034.000,3101.6175,N,12125.6144,E,1,00,00010.029,M 
$GPGGA,230034.000,3101.6178,N,12125.6141,E,1,00,00010.080,M 
$GPGGA,230035.000,3101.6182,N,12125.6139,E,1,00,00010.080,M 
$GPGGA,230035.000,3101.6185,N,12125.6137,E,1,00,00010.541,M 
$GPGGA,230036.000,3101.6189,N,12125.6134,E,1,00,00010.541,M 
$GPGGA,230036.000,3101.6192,N,12125.6132,E,1,00,00009.645,M 
$GPGGA,230037.000,3101.6195,N,12125.6129,E,1,00,00009.645,M 
$GPGGA,230037.000,3101.6199,N,12125.6127,E,1,00,00009.884,M 
$GPGGA,230038.000,3101.6202,N,12125.6124,E,1,00,00009.884,M 
$GPGGA,230038.000,3101.6205,N,12125.6122,E,1,00,00009.023,M 
$GPGGA,230039.000,3101.6209,N,12125.6119,E,1,00,00009.245,M 
$GPGGA,230040.000,3101.6212,N,12125.6116,E,1,00,00009.246,M 
$GPGGA,230040.000,3101.6215,N,12125.6114,E,1,00,00009.364,M 
$GPGGA,230041.000,3101.6218,N,12125.6111,E,1,00,00009.364,M 
$GPGGA,230041.000,3101.6222,N,12125.6109,E,1,00,00008.694,M 
$GPGGA,230042.000,3101.6225,N,12125.6106,E,1,00,00008.694,M 
$GPGGA,230042.000,3101.6228,N,12125.6103,E,1,00,00007.792,M 
$GPGGA,230043.000,3101.6232,N,12125.6101,E,1,00,00007.792,M 
$GPGGA,230043.000,3101.6235,N,12125.6098,E,1,00,00006.846,M 
$GPGGA,230044.000,3101.6238,N,12125.6095,E,1,00,00006.846,M 
$GPGGA,230044.000,3101.6241,N,12125.6093,E,1,00,00005.786,M 
$GPGGA,230045.000,3101.6245,N,12125.6090,E,1,00,00005.786,M 
$GPGGA,230045.000,3101.6248,N,12125.6088,E,1,00,00006.864,M 
$GPGGA,230046.000,3101.6251,N,12125.6085,E,1,00,00006.386,M 
$GPGGA,230047.000,3101.6255,N,12125.6083,E,1,00,00006.386,M 
$GPGGA,230047.000,3101.6258,N,12125.6080,E,1,00,00007.760,M 
$GPGGA,230048.000,3101.6262,N,12125.6078,E,1,00,00007.761,M 
$GPGGA,230048.000,3101.6265,N,12125.6075,E,1,00,00008.069,M 
$GPGGA,230049.000,3101.6268,N,12125.6073,E,1,00,00008.069,M 
$GPGGA,230049.000,3101.6272,N,12125.6070,E,1,00,00007.287,M 
$GPGGA,230050.000,3101.6275,N,12125.6068,E,1,00,00007.287,M 
$GPGGA,230050.000,3101.6279,N,12125.6066,E,1,00,00009.194,M 
$GPGGA,230051.000,3101.6282,N,12125.6063,E,1,00,00009.194,M 
$GPGGA,230051.000,3101.6285,N,12125.6061,E,1,00,00008.949,M 
$GPGGA,230052.000,3101.6289,N,12125.6059,E,1,00,00009.087,M 
$GPGGA,230053.000,3101.6292,N,12125.6057,E,1,00,00009.087,M 
$GPGGA,230053.000,3101.6295,N,12125.6054,E,1,00,00008.140,M 
$GPGGA,230054.000,3101.6299,N,12125.6052,E,1,00,00008.140,M 
$GPGGA,230054.000,3101.6302,N,12125.6050,E,1,00,00008.210,M 
$GPGGA,230055.000,3101.6306,N,12125.6047,E,1,00,00008.210,M 
$GPGGA,230055.000,3101.6310,N,12125.6045,E,1,00,00007.814,M 
$GPGGA,230056.000,3101.6313,N,12125.6043,E,1,00,00007.814,M 
$GPGGA,230056.000,3101.6316,N,12125.6041,E,1,00,00006.875,M 
$GPGGA,230057.000,3101.6320,N,12125.6038,E,1,00,00006.875,M 
$GPGGA,230057.000,3101.6323,N,12125.6036,E,1,00,00007.786,M 
$GPGGA,230058.000,3101.6327,N,12125.6034,E,1,00,00007.786,M 
$GPGGA,230058.000,3101.6330,N,12125.6032,E,1,00,00008.278,M 
$GPGGA,230059.000,3101.6333,N,12125.6030,E,1,00,00008.821,M 
$GPGGA,230100.000,3101.6336,N,12125.6027,E,1,00,00008.821,M 
$GPGGA,230100.000,3101.6340,N,12125.6025,E,1,00,00009.149,M 
$GPGGA,230101.000,3101.6343,N,12125.6022,E,1,00,00009.149,M 
$GPGGA,230101.000,3101.6347,N,12125.6020,E,1,00,00010.818,M 
$GPGGA,230102.000,3101.6350,N,12125.6018,E,1,00,00010.819,M 
$GPGGA,230102.000,3101.6354,N,12125.6015,E,1,00,00010.174,M 
$GPGGA,230103.000,3101.6357,N,12125.6012,E,1,00,00010.174,M 
$GPGGA,230103.000,3101.6360,N,12125.6010,E,1,00,00010.627,M 
$GPGGA,230104.000,3101.6364,N,12125.6007,E,1,00,00010.627,M 
$GPGGA,230104.000,3101.6367,N,12125.6005,E,1,00,00011.380,M 
$GPGGA,230105.000,3101.6371,N,12125.6002,E,1,00,00011.380,M 
$GPGGA,230105.000,3101.6374,N,12125.6000,E,1,00,00011.162,M 
$GPGGA,230106.000,3101.6378,N,12125.5997,E,1,00,00011.163,M 
$GPGGA,230106.000,3101.6381,N,12125.5995,E,1,00,00010.060,M 
$GPGGA,230107.000,3101.6385,N,12125.5992,E,1,00,00009.654,M 
$GPGGA,230108.000,3101.6388,N,12125.5990,E,1,00,00009.654,M 
$GPGGA,230108.000,3101.6392,N,12125.5987,E,1,00,00008.828,M 
$GPGGA,230109.000,3101.6395,N,12125.5985,E,1,00,00008.828,M 
$GPGGA,230109.000,3101.6398,N,12125.5983,E,1,00,00010.813,M 
$GPGGA,230110.000,3101.6402,N,12125.5980,E,1,00,00010.813,M 
$GPGGA,230110.000,3101.6405,N,12125.5978,E,1,00,00010.809,M 
$GPGGA,230111.000,3101.6409,N,12125.5975,E,1,00,00010.809,M 
$GPGGA,230111.000,3101.6412,N,12125.5973,E,1,00,00012.189,M 
$GPGGA,230112.000,3101.6416,N,12125.5970,E,1,00,00012.189,M 
$GPGGA,230112.000,3101.6419,N,12125.5968,E,1,00,00010.258,M 
$GPGGA,230113.000,3101.6423,N,12125.5965,E,1,00,00010.258,M 
$GPGGA,230113.000,3101.6426,N,12125.5963,E,1,00,00010.117,M 
$GPGGA,230114.000,3101.6430,N,12125.5960,E,1,00,00010.117,M 
$GPGGA,230114.000,3101.6433,N,12125.5958,E,1,00,00011.825,M 
$GPGGA,230115.000,3101.6437,N,12125.5955,E,1,00,00011.825,M 
$GPGGA,230115.000,3101.6440,N,12125.5953,E,1,00,00010.380,M 
$GPGGA,230116.000,3101.6443,N,12125.5950,E,1,00,00010.380,M 
$GPGGA,230116.000,3101.6447,N,12125.5948,E,1,00,00011.099,M 
$GPGGA,230117.000,3101.6450,N,12125.5946,E,1,00,00012.086,M 
$GPGGA,230118.000,3101.6454,N,12125.5943,E,1,00,00012.086,M 
$GPGGA,230118.000,3101.6457,N,12125.5941,E,1,00,00012.914,M 
$GPGGA,230119.000,3101.6461,N,12125.5938,E,1,00,00012.914,M 
$GPGGA,230119.000,3101.6464,N,12125.5936,E,1,00,00014.060,M 
$GPGGA,230120.000,3101.6468,N,12125.5934,E,1,00,00014.060,M 
$GPGGA,230120.000,3101.6471,N,12125.5931,E,1,00,00013.527,M 
$GPGGA,230121.000,3101.6475,N,12125.5929,E,1,00,00013.527,M 
$GPGGA,230121.000,3101.6478,N,12125.5926,E,1,00,00011.208,M 
$GPGGA,230122.000,3101.6482,N,12125.5924,E,1,00,00011.208,M 
$GPGGA,230122.000,3101.6485,N,12125.5922,E,1,00,00011.542,M 
$GPGGA,230123.000,3101.6488,N,12125.5919,E,1,00,00011.542,M 
$GPGGA,230123.000,3101.6492,N,12125.5917,E,1,00,00012.264,M 
$GPGGA,230124.000,3101.6495,N,12125.5915,E,1,00,00012.264,M 
$GPGGA,230124.000,3101.6499,N,12125.5912,E,1,00,00011.629,M 
$GPGGA,230125.000,3101.6502,N,12125.5910,E,1,00,00011.827,M 
$GPGGA,230126.000,3101.6506,N,12125.5907,E,1,00,00011.827,M 
$GPGGA,230126.000,3101.6509,N,12125.5905,E,1,00,00014.143,M 
$GPGGA,230127.000,3101.6513,N,12125.5903,E,1,00,00014.143,M 
$GPGGA,230127.000,3101.6516,N,12125.5901,E,1,00,00013.879,M 
$GPGGA,230128.000,3101.6520,N,12125.5899,E,1,00,00013.879,M 
$GPGGA,230128.000,3101.6523,N,12125.5896,E,1,00,00013.769,M 
$GPGGA,230129.000,3101.6527,N,12125.5894,E,1,00,00013.769,M 
$GPGGA,230129.000,3101.6530,N,12125.5892,E,1,00,00013.349,M 
$GPGGA,230130.000,3101.6533,N,12125.5889,E,1,00,00013.349,M 
$GPGGA,230130.000,3101.6537,N,12125.5887,E,1,00,00012.065,M 
$GPGGA,230131.000,3101.6541,N,12125.5885,E,1,00,00012.065,M 
$GPGGA,230131.000,3101.6544,N,12125.5883,E,1,00,00011.284,M 
$GPGGA,230132.000,3101.6548,N,12125.5880,E,1,00,00011.284,M 
$GPGGA,230132.000,3101.6551,N,12125.5878,E,1,00,00010.570,M 
$GPGGA,230133.000,3101.6555,N,12125.5876,E,1,00,00011.582,M 
$GPGGA,230134.000,3101.6558,N,12125.5873,E,1,00,00011.582,M 
$GPGGA,230134.000,3101.6562,N,12125.5871,E,1,00,00010.824,M 
$GPGGA,230135.000,3101.6565,N,12125.5869,E,1,00,00010.824,M 
$GPGGA,230135.000,3101.6568,N,12125.5867,E,1,00,00012.206,M 
$GPGGA,230136.000,3101.6572,N,12125.5864,E,1,00,00012.206,M 
$GPGGA,230136.000,3101.6575,N,12125.5862,E,1,00,00011.566,M 
$GPGGA,230137.000,3101.6579,N,12125.5860,E,1,00,00011.566,M 
$GPGGA,230137.000,3101.6582,N,12125.5858,E,1,00,00012.046,M 
$GPGGA,230138.000,3101.6586,N,12125.5855,E,1,00,00012.046,M 
$GPGGA,230138.000,3101.6589,N,12125.5853,E,1,00,00011.241,M 
$GPGGA,230139.000,3101.6593,N,12125.5851,E,1,00,00011.241,M 
$GPGGA,230139.000,3101.6596,N,12125.5848,E,1,00,00011.610,M 
$GPGGA,230140.000,3101.6600,N,12125.5846,E,1,00,00011.529,M 
$GPGGA,230141.000,3101.6603,N,12125.5844,E,1,00,00011.529,M 
$GPGGA,230141.000,3101.6607,N,12125.5841,E,1,00,00012.033,M 
$GPGGA,230142.000,3101.6610,N,12125.5839,E,1,00,00012.033,M 
$GPGGA,230142.000,3101.6613,N,12125.5836,E,1,00,00011.376,M 
$GPGGA,230143.000,3101.6617,N,12125.5834,E,1,00,00011.376,M 
$GPGGA,230143.000,3101.6620,N,12125.5832,E,1,00,00012.544,M 
$GPGGA,230144.000,3101.6624,N,12125.5829,E,1,00,00012.544,M 
$GPGGA,230144.000,3101.6627,N,12125.5827,E,1,00,00011.033,M 
$GPGGA,230145.000,3101.6631,N,12125.5825,E,1,00,00011.033,M 
$GPGGA,230145.000,3101.6634,N,12125.5823,E,1,00,00012.066,M 
$GPGGA,230146.000,3101.6638,N,12125.5820,E,1,00,00012.066,M 
$GPGGA,230146.000,3101.6641,N,12125.5818,E,1,00,00011.696,M 
$GPGGA,230147.000,3101.6645,N,12125.5816,E,1,00,00011.697,M 
$GPGGA,230147.000,3101.6648,N,12125.5814,E,1,00,00011.957,M 
$GPGGA,230148.000,3101.6652,N,12125.5812,E,1,00,00013.276,M 
$GPGGA,230149.000,3101.6655,N,12125.5809,E,1,00,00013.276,M 
$GPGGA,230149.000,3101.6659,N,12125.5807,E,1,00,00012.135,M 
$GPGGA,230150.000,3101.6662,N,12125.5805,E,1,00,00012.135,M 
$GPGGA,230150.000,3101.6666,N,12125.5803,E,1,00,00013.524,M 
$GPGGA,230151.000,3101.6670,N,12125.5801,E,1,00,00013.524,M 
$GPGGA,230151.000,3101.6673,N,12125.5798,E,1,00,00014.692,M 
$GPGGA,230152.000,3101.6677,N,12125.5796,E,1,00,00014.692,M 
$GPGGA,230152.000,3101.6680,N,12125.5794,E,1,00,00013.358,M 
$GPGGA,230153.000,3101.6683,N,12125.5792,E,1,00,00013.358,M 
$GPGGA,230153.000,3101.6687,N,12125.5790,E,1,00,00012.045,M 
$GPGGA,230154.000,3101.6691,N,12125.5787,E,1,00,00012.046,M 
$GPGGA,230154.000,3101.6694,N,12125.5785,E,1,00,00010.825,M 
$GPGGA,230155.000,3101.6698,N,12125.5783,E,1,00,00010.415,M 
$GPGGA,230156.000,3101.6701,N,12125.5781,E,1,00,00010.415,M 
$GPGGA,230156.000,3101.6705,N,12125.5779,E,1,00,00010.328,M 
$GPGGA,230157.000,3101.6708,N,12125.5776,E,1,00,00010.328,M 
$GPGGA,230157.000,3101.6712,N,12125.5774,E,1,00,00009.637,M 
$GPGGA,230158.000,3101.6715,N,12125.5772,E,1,00,00009.637,M 
$GPGGA,230158.000,3101.6718,N,12125.5770,E,1,00,00010.131,M 
$GPGGA,230159.000,3101.6722,N,12125.5767,E,1,00,00010.131,M 
$GPGGA,230159.000,3101.6725,N,12125.5765,E,1,00,00010.087,M 
$GPGGA,230200.000,3101.6729,N,12125.5763,E,1,00,00010.087,M 
$GPGGA,230200.000,3101.6732,N,12125.5760,E,1,00,00012.287,M 
$GPGGA,230201.000,3101.6736,N,12125.5758,E,1,00,00012.287,M 
$GPGGA,230201.000,3101.6739,N,12125.5756,E,1,00,00013.157,M 
$GPGGA,230202.000,3101.6743,N,12125.5754,E,1,00,00013.158,M 
$GPGGA,230202.000,3101.6746,N,12125.5751,E,1,00,00013.034,M 
$GPGGA,230203.000,3101.6750,N,12125.5749,E,1,00,00011.781,M 
$GPGGA,230204.000,3101.6753,N,12125.5747,E,1,00,00011.781,M 
$GPGGA,230204.000,3101.6757,N,12125.5744,E,1,00,00012.182,M 
$GPGGA,230205.000,3101.6760,N,12125.5742,E,1,00,00012.182,M 
$GPGGA,230205.000,3101.6764,N,12125.5740,E,1,00,00012.851,M 
$GPGGA,230206.000,3101.6767,N,12125.5737,E,1,00,00012.851,M 
$GPGGA,230206.000,3101.6771,N,12125.5735,E,1,00,00013.637,M 
$GPGGA,230207.000,3101.6774,N,12125.5732,E,1,00,00013.637,M 
$GPGGA,230207.000,3101.6778,N,12125.5730,E,1,00,00015.126,M 
$GPGGA,230208.000,3101.6781,N,12125.5728,E,1,00,00015.126,M 
$GPGGA,230208.000,3101.6785,N,12125.5726,E,1,00,00013.989,M 
$GPGGA,230209.000,3101.6788,N,12125.5724,E,1,00,00013.989,M 
$GPGGA,230209.000,3101.6792,N,12125.5721,E,1,00,00015.637,M 
$GPGGA,230210.000,3101.6795,N,12125.5719,E,1,00,00015.637,M 
$GPGGA,230210.000,3101.6799,N,12125.5717,E,1,00,00016.081,M 
$GPGGA,230211.000,3101.6802,N,12125.5714,E,1,00,00016.081,M 
$GPGGA,230211.000,3101.6806,N,12125.5712,E,1,00,00015.079,M 
$GPGGA,230212.000,3101.6809,N,12125.5710,E,1,00,00014.731,M 
$GPGGA,230213.000,3101.6813,N,12125.5708,E,1,00,00014.731,M 
$GPGGA,230213.000,3101.6816,N,12125.5706,E,1,00,00014.824,M 
$GPGGA,230214.000,3101.6820,N,12125.5704,E,1,00,00014.824,M 
$GPGGA,230214.000,3101.6823,N,12125.5702,E,1,00,00015.851,M 
$GPGGA,230215.000,3101.6827,N,12125.5699,E,1,00,00015.851,M 
$GPGGA,230215.000,3101.6830,N,12125.5697,E,1,00,00015.650,M 
$GPGGA,230216.000,3101.6834,N,12125.5695,E,1,00,00015.650,M 
$GPGGA,230216.000,3101.6838,N,12125.5693,E,1,00,00014.585,M 
$GPGGA,230217.000,3101.6841,N,12125.5691,E,1,00,00014.585,M 
$GPGGA,230217.000,3101.6845,N,12125.5689,E,1,00,00015.128,M 
$GPGGA,230218.000,3101.6849,N,12125.5686,E,1,00,00015.128,M 
$GPGGA,230218.000,3101.6852,N,12125.5684,E,1,00,00015.571,M 
$GPGGA,230219.000,3101.6856,N,12125.5682,E,1,00,00015.899,M 
$GPGGA,230220.000,3101.6859,N,12125.5680,E,1,00,00015.899,M 
$GPGGA,230220.000,3101.6863,N,12125.5678,E,1,00,00015.141,M 
$GPGGA,230221.000,3101.6866,N,12125.5676,E,1,00,00015.141,M 
$GPGGA,230221.000,3101.6870,N,12125.5673,E,1,00,00016.032,M 
$GPGGA,230222.000,3101.6873,N,12125.5671,E,1,00,00016.032,M 
$GPGGA,230222.000,3101.6877,N,12125.5669,E,1,00,00015.905,M 
$GPGGA,230223.000,3101.6880,N,12125.5667,E,1,00,00015.905,M 
$GPGGA,230223.000,3101.6884,N,12125.5665,E,1,00,00016.451,M 
$GPGGA,230224.000,3101.6887,N,12125.5663,E,1,00,00016.451,M 
$GPGGA,230224.000,3101.6891,N,12125.5661,E,1,00,00017.323,M 
$GPGGA,230225.000,3101.6894,N,12125.5658,E,1,00,00017.323,M 
$GPGGA,230225.000,3101.6898,N,12125.5656,E,1,00,00016.154,M 
$GPGGA,230226.000,3101.6901,N,12125.5654,E,1,00,00016.154,M 
$GPGGA,230226.000,3101.6905,N,12125.5652,E,1,00,00015.144,M 
$GPGGA,230227.000,3101.6909,N,12125.5650,E,1,00,00016.006,M 
$GPGGA,230228.000,3101.6912,N,12125.5647,E,1,00,00016.006,M 
$GPGGA,230228.000,3101.6916,N,12125.5645,E,1,00,00015.172,M 
$GPGGA,230229.000,3101.6919,N,12125.5643,E,1,00,00015.172,M 
$GPGGA,230229.000,3101.6923,N,12125.5640,E,1,00,00014.172,M 
$GPGGA,230230.000,3101.6926,N,12125.5638,E,1,00,00014.172,M 
$GPGGA,230230.000,3101.6930,N,12125.5636,E,1,00,00012.882,M 
$GPGGA,230231.000,3101.6933,N,12125.5633,E,1,00,00012.882,M 
$GPGGA,230231.000,3101.6936,N,12125.5631,E,1,00,00012.370,M 
$GPGGA,230232.000,3101.6940,N,12125.5629,E,1,00,00012.370,M 
$GPGGA,230232.000,3101.6943,N,12125.5627,E,1,00,00012.292,M 
$GPGGA,230233.000,3101.6947,N,12125.5624,E,1,00,00012.292,M 
$GPGGA,230233.000,3101.6951,N,12125.5622,E,1,00,00010.759,M 
$GPGGA,230234.000,3101.6954,N,12125.5620,E,1,00,00010.759,M 
$GPGGA,230234.000,3101.6957,N,12125.5617,E,1,00,00012.040,M 
$GPGGA,230235.000,3101.6961,N,12125.5615,E,1,00,00012.585,M 
$GPGGA,230236.000,3101.6964,N,12125.5613,E,1,00,00012.585,M 
$GPGGA,230236.000,3101.6968,N,12125.5610,E,1,00,00012.911,M 
$GPGGA,230237.000,3101.6971,N,12125.5608,E,1,00,00012.911,M 
$GPGGA,230237.000,3101.6974,N,12125.5606,E,1,00,00013.343,M 
$GPGGA,230238.000,3101.6978,N,12125.5603,E,1,00,00013.343,M 
$GPGGA,230238.000,3101.6982,N,12125.5601,E,1,00,00012.325,M 
$GPGGA,230239.000,3101.6985,N,12125.5599,E,1,00,00012.325,M 
$GPGGA,230239.000,3101.6988,N,12125.5597,E,1,00,00011.832,M 
$GPGGA,230240.000,3101.6992,N,12125.5594,E,1,00,00011.832,M 
$GPGGA,230240.000,3101.6995,N,12125.5592,E,1,00,00010.841,M 
$GPGGA,230241.000,3101.6999,N,12125.5590,E,1,00,00010.841,M 
$GPGGA,230241.000,3101.7002,N,12125.5587,E,1,00,00010.590,M 
$GPGGA,230242.000,3101.7006,N,12125.5585,E,1,00,00009.668,M 
$GPGGA,230243.000,3101.7009,N,12125.5583,E,1,00,00009.669,M 
$GPGGA,230243.000,3101.7013,N,12125.5581,E,1,00,00009.193,M 
$GPGGA,230244.000,3101.7016,N,12125.5578,E,1,00,00009.194,M 
$GPGGA,230244.000,3101.7020,N,12125.5576,E,1,00,00008.950,M 
$GPGGA,230245.000,3101.7023,N,12125.5574,E,1,00,00008.950,M 
$GPGGA,230245.000,3101.7026,N,12125.5571,E,1,00,00008.708,M 
$GPGGA,230246.000,3101.7030,N,12125.5569,E,1,00,00008.708,M 
$GPGGA,230246.000,3101.7033,N,12125.5567,E,1,00,00009.661,M 
$GPGGA,230247.000,3101.7035,N,12125.5565,E,1,00,00009.457,M 
$GPGGA,230248.000,3101.7037,N,12125.5564,E,1,00,00011.024,M 
$GPGGA,230251.000,3101.7038,N,12125.5569,E,1,00,00012.047,M 
$GPGGA,230252.000,3101.7040,N,12125.5573,E,1,00,00012.047,M 
$GPGGA,230252.000,3101.7042,N,12125.5577,E,1,00,00012.467,M 
$GPGGA,230253.000,3101.7044,N,12125.5581,E,1,00,00012.467,M 
$GPGGA,230253.000,3101.7045,N,12125.5585,E,1,00,00012.846,M 
$GPGGA,230254.000,3101.7047,N,12125.5590,E,1,00,00012.846,M 
$GPGGA,230254.000,3101.7049,N,12125.5594,E,1,00,00013.656,M 
$GPGGA,230255.000,3101.7051,N,12125.5598,E,1,00,00013.872,M 
$GPGGA,230256.000,3101.7052,N,12125.5602,E,1,00,00013.872,M 
$GPGGA,230256.000,3101.7054,N,12125.5606,E,1,00,00014.041,M 
$GPGGA,230257.000,3101.7056,N,12125.5611,E,1,00,00014.041,M 
$GPGGA,230257.000,3101.7058,N,12125.5615,E,1,00,00013.036,M 
$GPGGA,230258.000,3101.7059,N,12125.5619,E,1,00,00013.036,M 
$GPGGA,230258.000,3101.7061,N,12125.5623,E,1,00,00012.384,M 
$GPGGA,230259.000,3101.7063,N,12125.5627,E,1,00,00012.384,M 
$GPGGA,230259.000,3101.7064,N,12125.5631,E,1,00,00010.843,M 
$GPGGA,230300.000,3101.7066,N,12125.5635,E,1,00,00010.843,M 
$GPGGA,230300.000,3101.7068,N,12125.5640,E,1,00,00010.469,M 
$GPGGA,230301.000,3101.7070,N,12125.5644,E,1,00,00010.469,M 
$GPGGA,230301.000,3101.7071,N,12125.5648,E,1,00,00010.322,M 
$GPGGA,230302.000,3101.7073,N,12125.5652,E,1,00,00010.056,M 
$GPGGA,230303.000,3101.7074,N,12125.5656,E,1,00,00010.056,M 
$GPGGA,230303.000,3101.7076,N,12125.5661,E,1,00,00009.357,M 
$GPGGA,230304.000,3101.7078,N,12125.5665,E,1,00,00009.357,M 
$GPGGA,230304.000,3101.7079,N,12125.5669,E,1,00,00010.233,M 
$GPGGA,230305.000,3101.7081,N,12125.5673,E,1,00,00010.233,M 
$GPGGA,230305.000,3101.7082,N,12125.5677,E,1,00,00010.065,M 
$GPGGA,230306.000,3101.7084,N,12125.5681,E,1,00,00010.065,M 
$GPGGA,230306.000,3101.7086,N,12125.5686,E,1,00,00010.669,M 
$GPGGA,230307.000,3101.7087,N,12125.5690,E,1,00,00010.669,M 
$GPGGA,230307.000,3101.7089,N,12125.5694,E,1,00,00011.754,M 
$GPGGA,230308.000,3101.7091,N,12125.5698,E,1,00,00011.703,M 
$GPGGA,230309.000,3101.7092,N,12125.5702,E,1,00,00011.702,M 
$GPGGA,230309.000,3101.7094,N,12125.5706,E,1,00,00011.935,M 
$GPGGA,230310.000,3101.7096,N,12125.5711,E,1,00,00011.935,M 
$GPGGA,230310.000,3101.7098,N,12125.5715,E,1,00,00011.948,M 
$GPGGA,230311.000,3101.7099,N,12125.5719,E,1,00,00011.948,M 
$GPGGA,230311.000,3101.7101,N,12125.5723,E,1,00,00012.302,M 
$GPGGA,230312.000,3101.7102,N,12125.5727,E,1,00,00012.302,M 
$GPGGA,230312.000,3101.7104,N,12125.5732,E,1,00,00012.859,M 
$GPGGA,230313.000,3101.7105,N,12125.5736,E,1,00,00012.858,M 
$GPGGA,230313.000,3101.7107,N,12125.5740,E,1,00,00012.942,M 
$GPGGA,230314.000,3101.7108,N,12125.5744,E,1,00,00012.573,M 
$GPGGA,230315.000,3101.7110,N,12125.5748,E,1,00,00012.572,M 
$GPGGA,230315.000,3101.7111,N,12125.5752,E,1,00,00012.710,M 
$GPGGA,230316.000,3101.7113,N,12125.5757,E,1,00,00012.710,M 
$GPGGA,230316.000,3101.7114,N,12125.5761,E,1,00,00011.977,M 
$GPGGA,230317.000,3101.7116,N,12125.5765,E,1,00,00011.977,M 
$GPGGA,230317.000,3101.7117,N,12125.5770,E,1,00,00011.765,M 
$GPGGA,230318.000,3101.7119,N,12125.5773,E,1,00,00011.764,M 
$GPGGA,230318.000,3101.7121,N,12125.5778,E,1,00,00011.422,M 
$GPGGA,230319.000,3101.7122,N,12125.5782,E,1,00,00010.901,M 
$GPGGA,230320.000,3101.7124,N,12125.5786,E,1,00,00010.901,M 
$GPGGA,230320.000,3101.7125,N,12125.5790,E,1,00,00010.838,M 
$GPGGA,230321.000,3101.7127,N,12125.5794,E,1,00,00010.838,M 
$GPGGA,230321.000,3101.7128,N,12125.5799,E,1,00,00011.857,M 
$GPGGA,230322.000,3101.7130,N,12125.5803,E,1,00,00011.857,M 
$GPGGA,230322.000,3101.7131,N,12125.5807,E,1,00,00011.389,M 
$GPGGA,230323.000,3101.7133,N,12125.5811,E,1,00,00011.389,M 
$GPGGA,230323.000,3101.7134,N,12125.5815,E,1,00,00012.195,M 
$GPGGA,230324.000,3101.7136,N,12125.5819,E,1,00,00011.547,M 
$GPGGA,230325.000,3101.7137,N,12125.5824,E,1,00,00011.547,M 
$GPGGA,230325.000,3101.7139,N,12125.5828,E,1,00,00011.930,M 
$GPGGA,230326.000,3101.7141,N,12125.5832,E,1,00,00011.930,M 
$GPGGA,230326.000,3101.7142,N,12125.5836,E,1,00,00011.221,M 
$GPGGA,230327.000,3101.7144,N,12125.5840,E,1,00,00011.221,M 
$GPGGA,230327.000,3101.7145,N,12125.5845,E,1,00,00011.237,M 
$GPGGA,230328.000,3101.7147,N,12125.5849,E,1,00,00011.237,M 
$GPGGA,230328.000,3101.7148,N,12125.5853,E,1,00,00011.327,M 
$GPGGA,230329.000,3101.7150,N,12125.5857,E,1,00,00011.327,M 
$GPGGA,230329.000,3101.7152,N,12125.5862,E,1,00,00011.161,M 
$GPGGA,230330.000,3101.7153,N,12125.5866,E,1,00,00011.161,M 
$GPGGA,230330.000,3101.7155,N,12125.5870,E,1,00,00010.826,M 
$GPGGA,230331.000,3101.7156,N,12125.5875,E,1,00,00010.766,M 
$GPGGA,230332.000,3101.7158,N,12125.5879,E,1,00,00010.765,M 
$GPGGA,230332.000,3101.7159,N,12125.5883,E,1,00,00009.780,M 
$GPGGA,230333.000,3101.7161,N,12125.5887,E,1,00,00009.780,M 
$GPGGA,230333.000,3101.7162,N,12125.5892,E,1,00,00010.882,M 
$GPGGA,230334.000,3101.7163,N,12125.5896,E,1,00,00010.882,M 
$GPGGA,230334.000,3101.7165,N,12125.5900,E,1,00,00009.932,M 
$GPGGA,230335.000,3101.7166,N,12125.5905,E,1,00,00009.932,M 
$GPGGA,230335.000,3101.7168,N,12125.5909,E,1,00,00008.450,M 
$GPGGA,230336.000,3101.7169,N,12125.5913,E,1,00,00008.450,M 
$GPGGA,230336.000,3101.7170,N,12125.5918,E,1,00,00008.933,M 
$GPGGA,230337.000,3101.7172,N,12125.5922,E,1,00,00008.933,M 
$GPGGA,230337.000,3101.7173,N,12125.5926,E,1,00,00010.947,M 
$GPGGA,230338.000,3101.7174,N,12125.5931,E,1,00,00011.589,M 
$GPGGA,230339.000,3101.7176,N,12125.5935,E,1,00,00011.589,M 
$GPGGA,230339.000,3101.7177,N,12125.5940,E,1,00,00011.365,M 
$GPGGA,230340.000,3101.7178,N,12125.5944,E,1,00,00011.365,M 
$GPGGA,230340.000,3101.7180,N,12125.5948,E,1,00,00011.338,M 
$GPGGA,230341.000,3101.7181,N,12125.5952,E,1,00,00011.338,M 
$GPGGA,230341.000,3101.7182,N,12125.5957,E,1,00,00010.744,M 
$GPGGA,230342.000,3101.7184,N,12125.5961,E,1,00,00010.744,M 
$GPGGA,230342.000,3101.7185,N,12125.5966,E,1,00,00012.253,M 
$GPGGA,230343.000,3101.7187,N,12125.5970,E,1,00,00012.253,M 
$GPGGA,230343.000,3101.7188,N,12125.5975,E,1,00,00011.261,M 
$GPGGA,230344.000,3101.7190,N,12125.5979,E,1,00,00011.261,M 
$GPGGA,230344.000,3101.7191,N,12125.5983,E,1,00,00011.960,M 
$GPGGA,230345.000,3101.7193,N,12125.5988,E,1,00,00011.960,M 
$GPGGA,230345.000,3101.7194,N,12125.5992,E,1,00,00013.214,M 
$GPGGA,230346.000,3101.7196,N,12125.5996,E,1,00,00013.214,M 
$GPGGA,230346.000,3101.7197,N,12125.6001,E,1,00,00012.954,M 
$GPGGA,230347.000,3101.7198,N,12125.6005,E,1,00,00014.098,M 
$GPGGA,230348.000,3101.7200,N,12125.6010,E,1,00,00014.098,M 
$GPGGA,230348.000,3101.7201,N,12125.6014,E,1,00,00014.693,M 
$GPGGA,230349.000,3101.7202,N,12125.6018,E,1,00,00014.693,M 
$GPGGA,230349.000,3101.7204,N,12125.6022,E,1,00,00014.132,M 
$GPGGA,230350.000,3101.7205,N,12125.6027,E,1,00,00014.132,M 
$GPGGA,230350.000,3101.7206,N,12125.6031,E,1,00,00015.070,M 
$GPGGA,230351.000,3101.7208,N,12125.6035,E,1,00,00015.070,M 
$GPGGA,230351.000,3101.7210,N,12125.6039,E,1,00,00015.931,M 
$GPGGA,230352.000,3101.7211,N,12125.6044,E,1,00,00015.931,M 
$GPGGA,230352.000,3101.7212,N,12125.6048,E,1,00,00017.404,M 
$GPGGA,230353.000,3101.7213,N,12125.6052,E,1,00,00017.550,M 
$GPGGA,230354.000,3101.7214,N,12125.6056,E,1,00,00017.550,M 
$GPGGA,230354.000,3101.7215,N,12125.6060,E,1,00,00017.815,M 
$GPGGA,230355.000,3101.7216,N,12125.6061,E,1,00,00011.764,M 
$GPGGA,230403.000,3101.7217,N,12125.6065,E,1,00,00012.078,M 
$GPGGA,230404.000,3101.7218,N,12125.6069,E,1,00,00012.077,M 
$GPGGA,230404.000,3101.7219,N,12125.6073,E,1,00,00011.178,M 
$GPGGA,230405.000,3101.7221,N,12125.6078,E,1,00,00011.222,M 
$GPGGA,230406.000,3101.7222,N,12125.6082,E,1,00,00011.222,M 
$GPGGA,230406.000,3101.7223,N,12125.6086,E,1,00,00011.067,M 
$GPGGA,230407.000,3101.7225,N,12125.6091,E,1,00,00011.067,M 
$GPGGA,230407.000,3101.7226,N,12125.6095,E,1,00,00011.227,M 
$GPGGA,230408.000,3101.7227,N,12125.6099,E,1,00,00011.227,M 
$GPGGA,230408.000,3101.7228,N,12125.6103,E,1,00,00013.014,M 
$GPGGA,230409.000,3101.7230,N,12125.6107,E,1,00,00013.014,M 
$GPGGA,230409.000,3101.7231,N,12125.6111,E,1,00,00016.262,M 
$GPGGA,230410.000,3101.7232,N,12125.6115,E,1,00,00019.785,M 
$GPGGA,230411.000,3101.7234,N,12125.6119,E,1,00,00019.785,M 
$GPGGA,230411.000,3101.7235,N,12125.6123,E,1,00,00021.485,M 
$GPGGA,230412.000,3101.7235,N,12125.6124,E,1,00,00014.761,M 
$GPGGA,230422.000,3101.7237,N,12125.6129,E,1,00,00014.760,M 
$GPGGA,230422.000,3101.7238,N,12125.6133,E,1,00,00015.313,M 
$GPGGA,230423.000,3101.7239,N,12125.6137,E,1,00,00014.810,M 
$GPGGA,230424.000,3101.7240,N,12125.6141,E,1,00,00014.810,M 
$GPGGA,230424.000,3101.7242,N,12125.6145,E,1,00,00013.782,M 
$GPGGA,230425.000,3101.7243,N,12125.6149,E,1,00,00008.665,M 
$GPGGA,230426.000,3101.7244,N,12125.6153,E,1,00,00008.665,M 
$GPGGA,230426.000,3101.7246,N,12125.6156,E,1,00,00000.608,M 
$GPGGA,230427.000,3101.7247,N,12125.6160,E,1,00,00000.608,M 
$GPGGA,230427.000,3101.7248,N,12125.6164,E,1,00,-0002.175,M 
$GPGGA,230428.000,3101.7249,N,12125.6168,E,1,00,-0002.625,M 
$GPGGA,230429.000,3101.7251,N,12125.6172,E,1,00,-0002.625,M 
$GPGGA,230429.000,3101.7252,N,12125.6176,E,1,00,-0004.121,M 
$GPGGA,230430.000,3101.7253,N,12125.6180,E,1,00,-0004.121,M 
$GPGGA,230430.000,3101.7255,N,12125.6184,E,1,00,00000.673,M 
$GPGGA,230431.000,3101.7256,N,12125.6189,E,1,00,00012.014,M 
$GPGGA,230432.000,3101.7257,N,12125.6192,E,1,00,00012.013,M 
$GPGGA,230432.000,3101.7259,N,12125.6196,E,1,00,00014.256,M 
$GPGGA,230433.000,3101.7260,N,12125.6200,E,1,00,00014.256,M 
$GPGGA,230433.000,3101.7261,N,12125.6204,E,1,00,00014.762,M 
$GPGGA,230434.000,3101.7263,N,12125.6208,E,1,00,00016.223,M 
$GPGGA,230435.000,3101.7264,N,12125.6212,E,1,00,00016.223,M 
$GPGGA,230435.000,3101.7265,N,12125.6216,E,1,00,00015.615,M 
$GPGGA,230436.000,3101.7267,N,12125.6220,E,1,00,00015.615,M 
$GPGGA,230436.000,3101.7268,N,12125.6224,E,1,00,00016.080,M 
$GPGGA,230437.000,3101.7270,N,12125.6228,E,1,00,00016.080,M 
$GPGGA,230437.000,3101.7271,N,12125.6232,E,1,00,00012.348,M 
$GPGGA,230438.000,3101.7273,N,12125.6236,E,1,00,00012.510,M 
$GPGGA,230439.000,3101.7274,N,12125.6240,E,1,00,00012.510,M 
$GPGGA,230439.000,3101.7275,N,12125.6244,E,1,00,00011.230,M 
$GPGGA,230440.000,3101.7277,N,12125.6248,E,1,00,00011.230,M 
$GPGGA,230440.000,3101.7278,N,12125.6252,E,1,00,00011.930,M 
$GPGGA,230441.000,3101.7280,N,12125.6256,E,1,00,00010.612,M 
$GPGGA,230442.000,3101.7281,N,12125.6260,E,1,00,00010.612,M 
$GPGGA,230442.000,3101.7282,N,12125.6264,E,1,00,00009.743,M 
$GPGGA,230443.000,3101.7283,N,12125.6268,E,1,00,00009.743,M 
$GPGGA,230443.000,3101.7285,N,12125.6271,E,1,00,00008.287,M 
$GPGGA,230444.000,3101.7286,N,12125.6276,E,1,00,00008.852,M 
$GPGGA,230445.000,3101.7288,N,12125.6279,E,1,00,00008.852,M 
$GPGGA,230445.000,3101.7289,N,12125.6283,E,1,00,00008.915,M 
$GPGGA,230446.000,3101.7291,N,12125.6287,E,1,00,00009.176,M 
$GPGGA,230447.000,3101.7292,N,12125.6291,E,1,00,00009.176,M 
$GPGGA,230447.000,3101.7293,N,12125.6295,E,1,00,00010.130,M 
$GPGGA,230448.000,3101.7295,N,12125.6299,E,1,00,00010.130,M 
$GPGGA,230448.000,3101.7296,N,12125.6303,E,1,00,00022.675,M 
$GPGGA,230449.000,3101.7298,N,12125.6307,E,1,00,00022.675,M 
$GPGGA,230449.000,3101.7299,N,12125.6311,E,1,00,00022.242,M 
$GPGGA,230450.000,3101.7301,N,12125.6315,E,1,00,00019.166,M 
$GPGGA,230451.000,3101.7302,N,12125.6319,E,1,00,00019.166,M 
$GPGGA,230451.000,3101.7303,N,12125.6323,E,1,00,00016.211,M 
$GPGGA,230452.000,3101.7305,N,12125.6327,E,1,00,00016.211,M 
$GPGGA,230452.000,3101.7306,N,12125.6331,E,1,00,00013.818,M 
$GPGGA,230453.000,3101.7307,N,12125.6335,E,1,00,00011.907,M 
$GPGGA,230454.000,3101.7309,N,12125.6340,E,1,00,00011.907,M 
$GPGGA,230454.000,3101.7310,N,12125.6344,E,1,00,00011.063,M 
$GPGGA,230455.000,3101.7311,N,12125.6348,E,1,00,00011.063,M 
$GPGGA,230455.000,3101.7313,N,12125.6352,E,1,00,00008.807,M 
$GPGGA,230456.000,3101.7314,N,12125.6356,E,1,00,00008.807,M 
$GPGGA,230456.000,3101.7315,N,12125.6360,E,1,00,00004.564,M 
$GPGGA,230457.000,3101.7317,N,12125.6365,E,1,00,00007.494,M 
$GPGGA,230458.000,3101.7318,N,12125.6369,E,1,00,00007.494,M 
$GPGGA,230458.000,3101.7320,N,12125.6373,E,1,00,00006.608,M 
$GPGGA,230459.000,3101.7321,N,12125.6377,E,1,00,00006.608,M 
$GPGGA,230459.000,3101.7322,N,12125.6381,E,1,00,00009.976,M 
$GPGGA,230500.000,3101.7323,N,12125.6385,E,1,00,00009.976,M 
$GPGGA,230500.000,3101.7325,N,12125.6389,E,1,00,00013.254,M 
$GPGGA,230501.000,3101.7326,N,12125.6393,E,1,00,00011.636,M 
$GPGGA,230502.000,3101.7327,N,12125.6398,E,1,00,00011.635,M 
$GPGGA,230502.000,3101.7329,N,12125.6402,E,1,00,00012.847,M 
$GPGGA,230503.000,3101.7330,N,12125.6406,E,1,00,00012.846,M 
$GPGGA,230503.000,3101.7332,N,12125.6411,E,1,00,00016.083,M 
$GPGGA,230504.000,3101.7333,N,12125.6415,E,1,00,00016.083,M 
$GPGGA,230504.000,3101.7334,N,12125.6419,E,1,00,00015.778,M 
$GPGGA,230505.000,3101.7335,N,12125.6423,E,1,00,00015.777,M 
$GPGGA,230505.000,3101.7337,N,12125.6427,E,1,00,00017.709,M 
$GPGGA,230506.000,3101.7338,N,12125.6431,E,1,00,00019.932,M 
$GPGGA,230507.000,3101.7340,N,12125.6435,E,1,00,00019.932,M 
$GPGGA,230507.000,3101.7341,N,12125.6439,E,1,00,00018.691,M 
$GPGGA,230508.000,3101.7342,N,12125.6443,E,1,00,00018.691,M 
$GPGGA,230508.000,3101.7344,N,12125.6447,E,1,00,00022.204,M 
$GPGGA,230509.000,3101.7345,N,12125.6451,E,1,00,00020.712,M 
$GPGGA,230510.000,3101.7346,N,12125.6456,E,1,00,00020.712,M 
$GPGGA,230510.000,3101.7347,N,12125.6460,E,1,00,00021.929,M 
$GPGGA,230511.000,3101.7349,N,12125.6464,E,1,00,00021.929,M 
$GPGGA,230511.000,3101.7350,N,12125.6468,E,1,00,00020.768,M 
$GPGGA,230512.000,3101.7351,N,12125.6472,E,1,00,00020.768,M 
$GPGGA,230512.000,3101.7352,N,12125.6476,E,1,00,00017.655,M 
$GPGGA,230513.000,3101.7353,N,12125.6480,E,1,00,00015.632,M 
$GPGGA,230514.000,3101.7355,N,12125.6484,E,1,00,00015.632,M 
$GPGGA,230514.000,3101.7356,N,12125.6488,E,1,00,00016.435,M 
$GPGGA,230515.000,3101.7357,N,12125.6492,E,1,00,00016.435,M 
$GPGGA,230515.000,3101.7358,N,12125.6496,E,1,00,00016.091,M 
$GPGGA,230516.000,3101.7360,N,12125.6500,E,1,00,00014.091,M 
$GPGGA,230517.000,3101.7361,N,12125.6504,E,1,00,00014.091,M 
$GPGGA,230517.000,3101.7363,N,12125.6508,E,1,00,00012.193,M 
$GPGGA,230518.000,3101.7364,N,12125.6512,E,1,00,00012.193,M 
$GPGGA,230518.000,3101.7365,N,12125.6516,E,1,00,00011.446,M 
$GPGGA,230519.000,3101.7367,N,12125.6520,E,1,00,00011.274,M 
$GPGGA,230520.000,3101.7368,N,12125.6525,E,1,00,00011.274,M 
$GPGGA,230520.000,3101.7369,N,12125.6529,E,1,00,00010.996,M 
$GPGGA,230521.000,3101.7370,N,12125.6533,E,1,00,00010.996,M 
$GPGGA,230521.000,3101.7372,N,12125.6537,E,1,00,00011.049,M 
$GPGGA,230522.000,3101.7373,N,12125.6541,E,1,00,00011.049,M 
$GPGGA,230522.000,3101.7374,N,12125.6545,E,1,00,00008.758,M 
$GPGGA,230523.000,3101.7375,N,12125.6550,E,1,00,00009.430,M 
$GPGGA,230524.000,3101.7376,N,12125.6554,E,1,00,00009.430,M 
$GPGGA,230524.000,3101.7378,N,12125.6558,E,1,00,00009.577,M 
$GPGGA,230525.000,3101.7379,N,12125.6562,E,1,00,00009.577,M 
$GPGGA,230525.000,3101.7380,N,12125.6566,E,1,00,00010.833,M 
$GPGGA,230526.000,3101.7381,N,12125.6571,E,1,00,00010.833,M 
$GPGGA,230526.000,3101.7382,N,12125.6575,E,1,00,00010.837,M 
$GPGGA,230527.000,3101.7383,N,12125.6579,E,1,00,00010.217,M 
$GPGGA,230528.000,3101.7385,N,12125.6583,E,1,00,00010.217,M 
$GPGGA,230528.000,3101.7386,N,12125.6587,E,1,00,00008.984,M 
$GPGGA,230529.000,3101.7387,N,12125.6591,E,1,00,00008.984,M 
$GPGGA,230529.000,3101.7388,N,12125.6596,E,1,00,00011.192,M 
$GPGGA,230530.000,3101.7389,N,12125.6600,E,1,00,00010.724,M 
$GPGGA,230531.000,3101.7390,N,12125.6604,E,1,00,00010.724,M 
$GPGGA,230531.000,3101.7392,N,12125.6608,E,1,00,00011.891,M 
$GPGGA,230532.000,3101.7393,N,12125.6612,E,1,00,00011.891,M 
$GPGGA,230532.000,3101.7394,N,12125.6616,E,1,00,00011.239,M 
$GPGGA,230533.000,3101.7395,N,12125.6620,E,1,00,00011.239,M 
$GPGGA,230533.000,3101.7396,N,12125.6625,E,1,00,00010.918,M 
$GPGGA,230534.000,3101.7398,N,12125.6629,E,1,00,00010.321,M 
$GPGGA,230535.000,3101.7399,N,12125.6633,E,1,00,00010.321,M 
$GPGGA,230535.000,3101.7400,N,12125.6637,E,1,00,00009.505,M 
$GPGGA,230536.000,3101.7401,N,12125.6641,E,1,00,00009.505,M 
$GPGGA,230536.000,3101.7402,N,12125.6645,E,1,00,00010.897,M 
$GPGGA,230537.000,3101.7404,N,12125.6649,E,1,00,00010.897,M 
$GPGGA,230537.000,3101.7405,N,12125.6653,E,1,00,00011.429,M 
$GPGGA,230538.000,3101.7406,N,12125.6658,E,1,00,00010.615,M 
$GPGGA,230539.000,3101.7407,N,12125.6662,E,1,00,00010.615,M 
$GPGGA,230539.000,3101.7408,N,12125.6666,E,1,00,00009.575,M 
$GPGGA,230540.000,3101.7410,N,12125.6670,E,1,00,00009.575,M 
$GPGGA,230540.000,3101.7411,N,12125.6674,E,1,00,00009.154,M 
$GPGGA,230541.000,3101.7412,N,12125.6678,E,1,00,00009.226,M 
$GPGGA,230542.000,3101.7413,N,12125.6683,E,1,00,00009.226,M 
$GPGGA,230542.000,3101.7415,N,12125.6687,E,1,00,00008.099,M 
$GPGGA,230543.000,3101.7416,N,12125.6691,E,1,00,00008.099,M 
$GPGGA,230543.000,3101.7417,N,12125.6695,E,1,00,00008.790,M 
$GPGGA,230544.000,3101.7418,N,12125.6699,E,1,00,00008.790,M 
$GPGGA,230544.000,3101.7419,N,12125.6704,E,1,00,00009.125,M 
$GPGGA,230545.000,3101.7420,N,12125.6708,E,1,00,00009.817,M 
$GPGGA,230546.000,3101.7422,N,12125.6712,E,1,00,00009.817,M 
$GPGGA,230546.000,3101.7423,N,12125.6716,E,1,00,00009.254,M 
$GPGGA,230547.000,3101.7424,N,12125.6720,E,1,00,00009.254,M 
$GPGGA,230547.000,3101.7425,N,12125.6724,E,1,00,00010.142,M 
$GPGGA,230548.000,3101.7426,N,12125.6729,E,1,00,00010.142,M 
$GPGGA,230548.000,3101.7427,N,12125.6733,E,1,00,00009.199,M 
$GPGGA,230549.000,3101.7428,N,12125.6737,E,1,00,00008.853,M 
$GPGGA,230550.000,3101.7430,N,12125.6741,E,1,00,00008.853,M 
$GPGGA,230550.000,3101.7431,N,12125.6745,E,1,00,00008.994,M 
$GPGGA,230551.000,3101.7432,N,12125.6749,E,1,00,00008.994,M 
$GPGGA,230551.000,3101.7433,N,12125.6754,E,1,00,00009.256,M 
$GPGGA,230552.000,3101.7434,N,12125.6758,E,1,00,00009.256,M 
$GPGGA,230552.000,3101.7435,N,12125.6762,E,1,00,00010.990,M 
$GPGGA,230553.000,3101.7437,N,12125.6766,E,1,00,00010.061,M 
$GPGGA,230554.000,3101.7438,N,12125.6770,E,1,00,00010.061,M 
$GPGGA,230554.000,3101.7439,N,12125.6775,E,1,00,00009.467,M 
$GPGGA,230555.000,3101.7440,N,12125.6779,E,1,00,00009.467,M 
$GPGGA,230555.000,3101.7441,N,12125.6783,E,1,00,00011.010,M 
$GPGGA,230556.000,3101.7442,N,12125.6787,E,1,00,00010.885,M 
$GPGGA,230557.000,3101.7444,N,12125.6791,E,1,00,00010.885,M 
$GPGGA,230557.000,3101.7445,N,12125.6795,E,1,00,00010.481,M 
$GPGGA,230558.000,3101.7446,N,12125.6800,E,1,00,00010.481,M 
$GPGGA,230558.000,3101.7447,N,12125.6804,E,1,00,00011.199,M 
$GPGGA,230559.000,3101.7449,N,12125.6808,E,1,00,00011.199,M 
$GPGGA,230559.000,3101.7450,N,12125.6812,E,1,00,00010.632,M 
$GPGGA,230600.000,3101.7451,N,12125.6816,E,1,00,00009.575,M 
$GPGGA,230601.000,3101.7452,N,12125.6821,E,1,00,00009.575,M 
$GPGGA,230601.000,3101.7453,N,12125.6825,E,1,00,00011.390,M 
$GPGGA,230602.000,3101.7454,N,12125.6829,E,1,00,00011.390,M 
$GPGGA,230602.000,3101.7455,N,12125.6833,E,1,00,00011.248,M 
$GPGGA,230603.000,3101.7456,N,12125.6837,E,1,00,00011.248,M 
$GPGGA,230603.000,3101.7458,N,12125.6841,E,1,00,00011.107,M 
$GPGGA,230604.000,3101.7459,N,12125.6846,E,1,00,00010.949,M 
$GPGGA,230605.000,3101.7460,N,12125.6850,E,1,00,00010.949,M 
$GPGGA,230605.000,3101.7461,N,12125.6854,E,1,00,00011.112,M 
$GPGGA,230606.000,3101.7462,N,12125.6858,E,1,00,00011.112,M 
$GPGGA,230606.000,3101.7463,N,12125.6862,E,1,00,00010.776,M 
$GPGGA,230607.000,3101.7464,N,12125.6866,E,1,00,00010.776,M 
