$GPGGA,225635.000,3101.6781,N,12125.7522,E,1,00,00028.744,M 
$GPGGA,225636.000,3101.6779,N,12125.7520,E,1,00,00028.744,M 
$GPGGA,225636.000,3101.6779,N,12125.7518,E,1,00,00012.720,M 
$GPGGA,225638.000,3101.6768,N,12125.7523,E,1,00,00012.720,M 
$GPGGA,225638.000,3101.6755,N,12125.7528,E,1,00,00008.942,M 
$GPGGA,225639.000,3101.6743,N,12125.7529,E,1,00,00008.942,M 
$GPGGA,225639.000,3101.6734,N,12125.7529,E,1,00,00006.072,M 
$GPGGA,225640.000,3101.6729,N,12125.7525,E,1,00,00006.072,M 
$GPGGA,225640.000,3101.6728,N,12125.7521,E,1,00,00006.072,M 
$GPGGA,225640.000,3101.6728,N,12125.7517,E,1,00,-0000.520,M 
$GPGGA,225642.000,3101.6725,N,12125.7515,E,1,00,-0000.519,M 
$GPGGA,225642.000,3101.6723,N,12125.7515,E,1,00,00002.166,M 
$GPGGA,225643.000,3101.6721,N,12125.7512,E,1,00,00002.166,M 
$GPGGA,225643.000,3101.6719,N,12125.7510,E,1,00,00003.391,M 
$GPGGA,225644.000,3101.6719,N,12125.7507,E,1,00,00003.391,M 
$GPGGA,225644.000,3101.6719,N,12125.7503,E,1,00,00005.550,M 
$GPGGA,225645.000,3101.6721,N,12125.7499,E,1,00,00005.550,M 
$GPGGA,225645.000,3101.6722,N,12125.7494,E,1,00,00005.574,M 
$GPGGA,225646.000,3101.6720,N,12125.7490,E,1,00,00006.495,M 
$GPGGA,225647.000,3101.6716,N,12125.7484,E,1,00,00006.495,M 
$GPGGA,225647.000,3101.6712,N,12125.7477,E,1,00,00006.287,M 
$GPGGA,225648.000,3101.6707,N,12125.7471,E,1,00,00006.288,M 
$GPGGA,225648.000,3101.6703,N,12125.7466,E,1,00,00006.288,M 
$GPGGA,225648.000,3101.6701,N,12125.7463,E,1,00,00006.288,M 
$GPGGA,225648.000,3101.6699,N,12125.7462,E,1,00,00007.360,M 
$GPGGA,225649.000,3101.6698,N,12125.7460,E,1,00,00007.360,M 
$GPGGA,225649.000,3101.6696,N,12125.7458,E,1,00,00008.846,M 
$GPGGA,225651.000,3101.6697,N,12125.7452,E,1,00,00008.846,M 
$GPGGA,225651.000,3101.6699,N,12125.7446,E,1,00,00008.846,M 
$GPGGA,225651.000,3101.6701,N,12125.7441,E,1,00,00008.080,M 
$GPGGA,225653.000,3101.6699,N,12125.7433,E,1,00,00008.080,M 
$GPGGA,225653.000,3101.6696,N,12125.7426,E,1,00,00009.274,M 
$GPGGA,225654.000,3101.6694,N,12125.7417,E,1,00,00009.274,M 
$GPGGA,225654.000,3101.6693,N,12125.7409,E,1,00,00009.274,M 
$GPGGA,225654.000,3101.6693,N,12125.7404,E,1,00,00009.274,M 
$GPGGA,225654.000,3101.6693,N,12125.7401,E,1,00,00008.863,M 
$GPGGA,225656.000,3101.6692,N,12125.7398,E,1,00,00008.729,M 
$GPGGA,225657.000,3101.6692,N,12125.7394,E,1,00,00008.729,M 
$GPGGA,225657.000,3101.6692,N,12125.7392,E,1,00,00009.495,M 
$GPGGA,225658.000,3101.6690,N,12125.7386,E,1,00,00009.495,M 
$GPGGA,225658.000,3101.6689,N,12125.7380,E,1,00,00009.362,M 
$GPGGA,225659.000,3101.6686,N,12125.7374,E,1,00,00009.362,M 
$GPGGA,225659.000,3101.6684,N,12125.7370,E,1,00,00008.712,M 
$GPGGA,225700.000,3101.6682,N,12125.7365,E,1,00,00010.832,M 
$GPGGA,225701.000,3101.6679,N,12125.7359,E,1,00,00010.832,M 
$GPGGA,225701.000,3101.6676,N,12125.7355,E,1,00,00011.328,M 
$GPGGA,225702.000,3101.6675,N,12125.7352,E,1,00,00011.328,M 
$GPGGA,225702.000,3101.6675,N,12125.7351,E,1,00,00010.004,M 
$GPGGA,225703.000,3101.6673,N,12125.7348,E,1,00,00010.004,M 
$GPGGA,225703.000,3101.6672,N,12125.7345,E,1,00,00008.477,M 
$GPGGA,225704.000,3101.6669,N,12125.7340,E,1,00,00008.477,M 
$GPGGA,225704.000,3101.6667,N,12125.7335,E,1,00,00008.609,M 
$GPGGA,225705.000,3101.6663,N,12125.7332,E,1,00,00009.792,M 
$GPGGA,225706.000,3101.6659,N,12125.7329,E,1,00,00009.792,M 
$GPGGA,225706.000,3101.6655,N,12125.7328,E,1,00,00008.664,M 
$GPGGA,225707.000,3101.6655,N,12125.7324,E,1,00,00008.664,M 
$GPGGA,225707.000,3101.6655,N,12125.7320,E,1,00,00007.897,M 
$GPGGA,225708.000,3101.6656,N,12125.7315,E,1,00,00007.897,M 
$GPGGA,225708.000,3101.6656,N,12125.7311,E,1,00,00007.605,M 
$GPGGA,225709.000,3101.6654,N,12125.7308,E,1,00,00006.986,M 
$GPGGA,225710.000,3101.6652,N,12125.7301,E,1,00,00006.986,M 
$GPGGA,225710.000,3101.6651,N,12125.7295,E,1,00,00007.533,M 
$GPGGA,225711.000,3101.6648,N,12125.7289,E,1,00,00007.533,M 
$GPGGA,225711.000,3101.6645,N,12125.7284,E,1,00,00007.650,M 
$GPGGA,225712.000,3101.6643,N,12125.7278,E,1,00,00007.650,M 
$GPGGA,225712.000,3101.6643,N,12125.7273,E,1,00,00007.908,M 
$GPGGA,225713.000,3101.6641,N,12125.7270,E,1,00,00007.908,M 
$GPGGA,225713.000,3101.6640,N,12125.7268,E,1,00,00007.434,M 
$GPGGA,225714.000,3101.6639,N,12125.7263,E,1,00,00008.898,M 
$GPGGA,225715.000,3101.6637,N,12125.7257,E,1,00,00008.898,M 
$GPGGA,225715.000,3101.6636,N,12125.7253,E,1,00,00009.599,M 
$GPGGA,225716.000,3101.6634,N,12125.7246,E,1,00,00009.599,M 
$GPGGA,225716.000,3101.6633,N,12125.7240,E,1,00,00008.776,M 
$GPGGA,225717.000,3101.6630,N,12125.7232,E,1,00,00008.776,M 
$GPGGA,225717.000,3101.6627,N,12125.7225,E,1,00,00008.473,M 
$GPGGA,225718.000,3101.6626,N,12125.7218,E,1,00,00008.473,M 
$GPGGA,225718.000,3101.6625,N,12125.7213,E,1,00,00008.369,M 
$GPGGA,225719.000,3101.6625,N,12125.7206,E,1,00,00008.369,M 
$GPGGA,225719.000,3101.6625,N,12125.7201,E,1,00,00007.603,M 
$GPGGA,225720.000,3101.6623,N,12125.7199,E,1,00,00007.384,M 
$GPGGA,225721.000,3101.6622,N,12125.7196,E,1,00,00007.384,M 
$GPGGA,225721.000,3101.6621,N,12125.7194,E,1,00,00007.063,M 
$GPGGA,225722.000,3101.6620,N,12125.7190,E,1,00,00007.063,M 
$GPGGA,225722.000,3101.6619,N,12125.7187,E,1,00,00006.666,M 
$GPGGA,225723.000,3101.6616,N,12125.7182,E,1,00,00006.666,M 
$GPGGA,225723.000,3101.6612,N,12125.7178,E,1,00,00007.848,M 
$GPGGA,225724.000,3101.6609,N,12125.7174,E,1,00,00007.848,M 
$GPGGA,225724.000,3101.6607,N,12125.7171,E,1,00,00009.551,M 
$GPGGA,225725.000,3101.6605,N,12125.7168,E,1,00,00009.260,M 
$GPGGA,225726.000,3101.6602,N,12125.7163,E,1,00,00009.260,M 
$GPGGA,225726.000,3101.6599,N,12125.7160,E,1,00,00009.072,M 
$GPGGA,225727.000,3101.6598,N,12125.7155,E,1,00,00009.072,M 
$GPGGA,225727.000,3101.6596,N,12125.7152,E,1,00,00008.961,M 
$GPGGA,225728.000,3101.6595,N,12125.7149,E,1,00,00008.961,M 
$GPGGA,225728.000,3101.6593,N,12125.7147,E,1,00,00008.079,M 
$GPGGA,225729.000,3101.6593,N,12125.7143,E,1,00,00008.079,M 
$GPGGA,225729.000,3101.6594,N,12125.7139,E,1,00,00008.361,M 
$GPGGA,225730.000,3101.6596,N,12125.7134,E,1,00,00008.596,M 
$GPGGA,225731.000,3101.6596,N,12125.7128,E,1,00,00008.596,M 
$GPGGA,225731.000,3101.6595,N,12125.7123,E,1,00,00008.347,M 
$GPGGA,225732.000,3101.6594,N,12125.7119,E,1,00,00008.347,M 
$GPGGA,225732.000,3101.6594,N,12125.7116,E,1,00,00006.958,M 
$GPGGA,225733.000,3101.6594,N,12125.7114,E,1,00,00006.958,M 
$GPGGA,225733.000,3101.6593,N,12125.7112,E,1,00,00007.815,M 
$GPGGA,225734.000,3101.6591,N,12125.7107,E,1,00,00007.815,M 
$GPGGA,225734.000,3101.6590,N,12125.7103,E,1,00,00007.425,M 
$GPGGA,225735.000,3101.6588,N,12125.7097,E,1,00,00008.618,M 
$GPGGA,225736.000,3101.6586,N,12125.7089,E,1,00,00008.618,M 
$GPGGA,225736.000,3101.6584,N,12125.7083,E,1,00,00009.232,M 
$GPGGA,225737.000,3101.6583,N,12125.7077,E,1,00,00009.232,M 
$GPGGA,225737.000,3101.6582,N,12125.7074,E,1,00,00008.858,M 
$GPGGA,225738.000,3101.6580,N,12125.7070,E,1,00,00008.858,M 
$GPGGA,225738.000,3101.6578,N,12125.7067,E,1,00,00008.074,M 
$GPGGA,225739.000,3101.6575,N,12125.7064,E,1,00,00008.074,M 
$GPGGA,225739.000,3101.6572,N,12125.7061,E,1,00,00008.909,M 
$GPGGA,225740.000,3101.6571,N,12125.7056,E,1,00,00008.909,M 
$GPGGA,225740.000,3101.6571,N,12125.7052,E,1,00,00007.725,M 
$GPGGA,225741.000,3101.6570,N,12125.7048,E,1,00,00007.952,M 
$GPGGA,225742.000,3101.6568,N,12125.7043,E,1,00,00007.952,M 
$GPGGA,225742.000,3101.6566,N,12125.7038,E,1,00,00007.590,M 
$GPGGA,225743.000,3101.6565,N,12125.7031,E,1,00,00007.590,M 
$GPGGA,225743.000,3101.6564,N,12125.7025,E,1,00,00008.220,M 
$GPGGA,225744.000,3101.6566,N,12125.7018,E,1,00,00008.220,M 
$GPGGA,225744.000,3101.6568,N,12125.7012,E,1,00,00007.536,M 
$GPGGA,225745.000,3101.6566,N,12125.7006,E,1,00,00007.536,M 
$GPGGA,225745.000,3101.6563,N,12125.7001,E,1,00,00009.580,M 
$GPGGA,225746.000,3101.6559,N,12125.6995,E,1,00,00009.580,M 
$GPGGA,225746.000,3101.6556,N,12125.6991,E,1,00,00008.432,M 
$GPGGA,225747.000,3101.6553,N,12125.6986,E,1,00,00008.494,M 
$GPGGA,225748.000,3101.6550,N,12125.6979,E,1,00,00008.494,M 
$GPGGA,225748.000,3101.6548,N,12125.6974,E,1,00,00006.982,M 
$GPGGA,225749.000,3101.6545,N,12125.6971,E,1,00,00006.982,M 
$GPGGA,225749.000,3101.6542,N,12125.6969,E,1,00,00007.752,M 
$GPGGA,225750.000,3101.6539,N,12125.6967,E,1,00,00007.752,M 
$GPGGA,225750.000,3101.6536,N,12125.6965,E,1,00,00007.761,M 
$GPGGA,225751.000,3101.6533,N,12125.6963,E,1,00,00007.761,M 
$GPGGA,225751.000,3101.6531,N,12125.6961,E,1,00,00007.433,M 
$GPGGA,225752.000,3101.6531,N,12125.6960,E,1,00,00007.434,M 
$GPGGA,225752.000,3101.6532,N,12125.6958,E,1,00,00007.562,M 
$GPGGA,225753.000,3101.6531,N,12125.6954,E,1,00,00007.240,M 
$GPGGA,225754.000,3101.6531,N,12125.6945,E,1,00,00007.241,M 
$GPGGA,225754.000,3101.6530,N,12125.6938,E,1,00,00007.817,M 
$GPGGA,225755.000,3101.6529,N,12125.6929,E,1,00,00007.817,M 
$GPGGA,225755.000,3101.6529,N,12125.6922,E,1,00,00007.130,M 
$GPGGA,225756.000,3101.6527,N,12125.6917,E,1,00,00007.131,M 
$GPGGA,225756.000,3101.6526,N,12125.6915,E,1,00,00007.372,M 
$GPGGA,225757.000,3101.6524,N,12125.6911,E,1,00,00007.372,M 
$GPGGA,225757.000,3101.6522,N,12125.6909,E,1,00,00007.223,M 
$GPGGA,225758.000,3101.6520,N,12125.6906,E,1,00,00007.223,M 
$GPGGA,225758.000,3101.6517,N,12125.6904,E,1,00,00008.234,M 
$GPGGA,225759.000,3101.6515,N,12125.6901,E,1,00,00007.947,M 
$GPGGA,225800.000,3101.6513,N,12125.6895,E,1,00,00007.947,M 
$GPGGA,225800.000,3101.6510,N,12125.6891,E,1,00,00007.456,M 
$GPGGA,225801.000,3101.6507,N,12125.6887,E,1,00,00007.456,M 
$GPGGA,225801.000,3101.6504,N,12125.6883,E,1,00,00007.586,M 
$GPGGA,225802.000,3101.6500,N,12125.6879,E,1,00,00007.586,M 
$GPGGA,225802.000,3101.6497,N,12125.6877,E,1,00,00007.634,M 
$GPGGA,225803.000,3101.6496,N,12125.6875,E,1,00,00007.634,M 
$GPGGA,225803.000,3101.6496,N,12125.6875,E,1,00,00007.454,M 
$GPGGA,225804.000,3101.6495,N,12125.6871,E,1,00,00007.548,M 
$GPGGA,225805.000,3101.6497,N,12125.6863,E,1,00,00007.548,M 
$GPGGA,225805.000,3101.6498,N,12125.6855,E,1,00,00006.812,M 
$GPGGA,225806.000,3101.6500,N,12125.6845,E,1,00,00006.812,M 
$GPGGA,225806.000,3101.6501,N,12125.6837,E,1,00,00006.305,M 
$GPGGA,225807.000,3101.6501,N,12125.6834,E,1,00,00006.305,M 
$GPGGA,225807.000,3101.6501,N,12125.6832,E,1,00,00007.513,M 
$GPGGA,225808.000,3101.6500,N,12125.6831,E,1,00,00007.274,M 
$GPGGA,225809.000,3101.6497,N,12125.6827,E,1,00,00007.274,M 
$GPGGA,225809.000,3101.6494,N,12125.6824,E,1,00,00008.190,M 
$GPGGA,225810.000,3101.6490,N,12125.6819,E,1,00,00008.190,M 
$GPGGA,225810.000,3101.6487,N,12125.6815,E,1,00,00008.573,M 
$GPGGA,225811.000,3101.6484,N,12125.6812,E,1,00,00008.573,M 
$GPGGA,225811.000,3101.6483,N,12125.6809,E,1,00,00008.733,M 
$GPGGA,225812.000,3101.6480,N,12125.6806,E,1,00,00008.733,M 
$GPGGA,225812.000,3101.6478,N,12125.6804,E,1,00,00008.683,M 
$GPGGA,225813.000,3101.6476,N,12125.6803,E,1,00,00008.040,M 
$GPGGA,225814.000,3101.6472,N,12125.6802,E,1,00,00006.298,M 
$GPGGA,225821.000,3101.6464,N,12125.6792,E,1,00,00006.055,M 
$GPGGA,225822.000,3101.6458,N,12125.6781,E,1,00,00006.055,M 
$GPGGA,225822.000,3101.6454,N,12125.6772,E,1,00,00006.564,M 
$GPGGA,225823.000,3101.6452,N,12125.6765,E,1,00,00006.564,M 
$GPGGA,225823.000,3101.6451,N,12125.6761,E,1,00,00007.949,M 
$GPGGA,225824.000,3101.6447,N,12125.6758,E,1,00,00007.949,M 
$GPGGA,225824.000,3101.6444,N,12125.6757,E,1,00,00006.784,M 
$GPGGA,225825.000,3101.6443,N,12125.6751,E,1,00,00008.350,M 
$GPGGA,225826.000,3101.6442,N,12125.6745,E,1,00,00008.351,M 
$GPGGA,225826.000,3101.6440,N,12125.6741,E,1,00,00006.720,M 
$GPGGA,225827.000,3101.6440,N,12125.6736,E,1,00,00006.720,M 
$GPGGA,225827.000,3101.6439,N,12125.6732,E,1,00,00004.491,M 
$GPGGA,225828.000,3101.6441,N,12125.6727,E,1,00,00004.491,M 
$GPGGA,225828.000,3101.6442,N,12125.6724,E,1,00,00006.601,M 
$GPGGA,225829.000,3101.6444,N,12125.6721,E,1,00,00006.601,M 
$GPGGA,225829.000,3101.6444,N,12125.6718,E,1,00,00008.352,M 
$GPGGA,225830.000,3101.6446,N,12125.6716,E,1,00,00008.352,M 
$GPGGA,225830.000,3101.6448,N,12125.6714,E,1,00,00010.386,M 
$GPGGA,225831.000,3101.6447,N,12125.6714,E,1,00,00012.248,M 
$GPGGA,225832.000,3101.6444,N,12125.6714,E,1,00,00012.248,M 
$GPGGA,225832.000,3101.6441,N,12125.6713,E,1,00,00014.773,M 
$GPGGA,225833.000,3101.6437,N,12125.6711,E,1,00,00014.773,M 
$GPGGA,225833.000,3101.6434,N,12125.6708,E,1,00,00016.267,M 
$GPGGA,225834.000,3101.6432,N,12125.6704,E,1,00,00016.267,M 
$GPGGA,225834.000,3101.6430,N,12125.6700,E,1,00,00015.376,M 
$GPGGA,225835.000,3101.6430,N,12125.6700,E,1,00,00015.376,M 
$GPGGA,225835.000,3101.6430,N,12125.6700,E,1,00,00015.972,M 
$GPGGA,225836.000,3101.6430,N,12125.6701,E,1,00,00015.972,M 
$GPGGA,225836.000,3101.6430,N,12125.6703,E,1,00,00014.717,M 
$GPGGA,225837.000,3101.6430,N,12125.6705,E,1,00,00014.911,M 
$GPGGA,225838.000,3101.6430,N,12125.6706,E,1,00,00014.911,M 
$GPGGA,225838.000,3101.6430,N,12125.6707,E,1,00,00015.639,M 
$GPGGA,225839.000,3101.6430,N,12125.6707,E,1,00,00015.639,M 
$GPGGA,225839.000,3101.6430,N,12125.6707,E,1,00,00016.571,M 
$GPGGA,225840.000,3101.6430,N,12125.6707,E,1,00,00016.571,M 
$GPGGA,225840.000,3101.6431,N,12125.6707,E,1,00,00017.562,M 
$GPGGA,225841.000,3101.6431,N,12125.6706,E,1,00,00017.562,M 
$GPGGA,225841.000,3101.6432,N,12125.6706,E,1,00,00018.499,M 
$GPGGA,225842.000,3101.6432,N,12125.6703,E,1,00,00018.499,M 
$GPGGA,225842.000,3101.6432,N,12125.6701,E,1,00,00019.594,M 
$GPGGA,225843.000,3101.6433,N,12125.6698,E,1,00,00020.739,M 
$GPGGA,225844.000,3101.6433,N,12125.6694,E,1,00,00020.739,M 
$GPGGA,225844.000,3101.6434,N,12125.6690,E,1,00,00021.933,M 
$GPGGA,225845.000,3101.6435,N,12125.6687,E,1,00,00021.933,M 
$GPGGA,225845.000,3101.6436,N,12125.6684,E,1,00,00023.177,M 
$GPGGA,225846.000,3101.6437,N,12125.6681,E,1,00,00023.177,M 
$GPGGA,225846.000,3101.6438,N,12125.6678,E,1,00,00024.471,M 
$GPGGA,225847.000,3101.6439,N,12125.6674,E,1,00,00024.471,M 
$GPGGA,225847.000,3101.6440,N,12125.6671,E,1,00,00025.815,M 
$GPGGA,225848.000,3101.6441,N,12125.6668,E,1,00,00025.815,M 
$GPGGA,225848.000,3101.6442,N,12125.6665,E,1,00,00026.972,M 
$GPGGA,225849.000,3101.6438,N,12125.6652,E,1,00,00026.972,M 
$GPGGA,225849.000,3101.6433,N,12125.6639,E,1,00,00027.970,M 
$GPGGA,225850.000,3101.6428,N,12125.6628,E,1,00,00029.087,M 
$GPGGA,225851.000,3101.6427,N,12125.6612,E,1,00,00017.841,M 
$GPGGA,225853.000,3101.6418,N,12125.6593,E,1,00,00012.226,M 
$GPGGA,225854.000,3101.6413,N,12125.6570,E,1,00,00012.226,M 
$GPGGA,225854.000,3101.6412,N,12125.6551,E,1,00,00008.761,M 
$GPGGA,225855.000,3101.6409,N,12125.6534,E,1,00,00008.762,M 
$GPGGA,225855.000,3101.6407,N,12125.6521,E,1,00,00007.886,M 
$GPGGA,225856.000,3101.6403,N,12125.6513,E,1,00,00007.886,M 
$GPGGA,225856.000,3101.6400,N,12125.6507,E,1,00,00006.716,M 
$GPGGA,225857.000,3101.6402,N,12125.6501,E,1,00,00006.716,M 
$GPGGA,225857.000,3101.6404,N,12125.6496,E,1,00,00013.264,M 
$GPGGA,225858.000,3101.6408,N,12125.6488,E,1,00,00013.264,M 
$GPGGA,225858.000,3101.6412,N,12125.6480,E,1,00,00012.021,M 
$GPGGA,225859.000,3101.6412,N,12125.6472,E,1,00,00012.021,M 
$GPGGA,225859.000,3101.6411,N,12125.6466,E,1,00,00010.362,M 
$GPGGA,225900.000,3101.6405,N,12125.6462,E,1,00,00010.362,M 
$GPGGA,225900.000,3101.6399,N,12125.6461,E,1,00,00010.524,M 
$GPGGA,225901.000,3101.6394,N,12125.6457,E,1,00,00009.022,M 
$GPGGA,225902.000,3101.6387,N,12125.6452,E,1,00,00009.022,M 
$GPGGA,225902.000,3101.6382,N,12125.6449,E,1,00,00008.915,M 
$GPGGA,225903.000,3101.6377,N,12125.6444,E,1,00,00008.915,M 
$GPGGA,225903.000,3101.6373,N,12125.6441,E,1,00,00007.914,M 
$GPGGA,225904.000,3101.6372,N,12125.6433,E,1,00,00007.914,M 
$GPGGA,225904.000,3101.6372,N,12125.6426,E,1,00,00009.518,M 
$GPGGA,225905.000,3101.6372,N,12125.6419,E,1,00,00009.518,M 
$GPGGA,225905.000,3101.6372,N,12125.6413,E,1,00,00010.148,M 
$GPGGA,225906.000,3101.6371,N,12125.6407,E,1,00,00010.148,M 
$GPGGA,225906.000,3101.6369,N,12125.6403,E,1,00,00010.350,M 
$GPGGA,225907.000,3101.6368,N,12125.6397,E,1,00,00009.363,M 
$GPGGA,225908.000,3101.6365,N,12125.6391,E,1,00,00009.363,M 
$GPGGA,225908.000,3101.6363,N,12125.6387,E,1,00,00010.453,M 
$GPGGA,225909.000,3101.6360,N,12125.6381,E,1,00,00010.453,M 
$GPGGA,225909.000,3101.6358,N,12125.6376,E,1,00,00010.401,M 
$GPGGA,225910.000,3101.6355,N,12125.6370,E,1,00,00010.401,M 
$GPGGA,225910.000,3101.6352,N,12125.6367,E,1,00,00009.755,M 
$GPGGA,225911.000,3101.6346,N,12125.6365,E,1,00,00009.755,M 
$GPGGA,225911.000,3101.6339,N,12125.6364,E,1,00,00009.763,M 
$GPGGA,225912.000,3101.6335,N,12125.6361,E,1,00,00009.763,M 
$GPGGA,225912.000,3101.6334,N,12125.6358,E,1,00,00008.624,M 
$GPGGA,225913.000,3101.6332,N,12125.6354,E,1,00,00009.410,M 
$GPGGA,225914.000,3101.6329,N,12125.6349,E,1,00,00009.410,M 
$GPGGA,225914.000,3101.6326,N,12125.6346,E,1,00,00008.659,M 
$GPGGA,225915.000,3101.6322,N,12125.6342,E,1,00,00008.660,M 
$GPGGA,225915.000,3101.6319,N,12125.6339,E,1,00,00009.218,M 
$GPGGA,225916.000,3101.6316,N,12125.6335,E,1,00,00009.218,M 
$GPGGA,225916.000,3101.6312,N,12125.6333,E,1,00,00008.855,M 
$GPGGA,225917.000,3101.6310,N,12125.6328,E,1,00,00008.855,M 
$GPGGA,225917.000,3101.6308,N,12125.6324,E,1,00,00008.177,M 
$GPGGA,225918.000,3101.6306,N,12125.6319,E,1,00,00009.275,M 
$GPGGA,225919.000,3101.6303,N,12125.6311,E,1,00,00009.275,M 
$GPGGA,225919.000,3101.6301,N,12125.6303,E,1,00,00009.727,M 
$GPGGA,225920.000,3101.6301,N,12125.6296,E,1,00,00009.727,M 
$GPGGA,225920.000,3101.6303,N,12125.6291,E,1,00,00008.230,M 
$GPGGA,225921.000,3101.6304,N,12125.6284,E,1,00,00008.230,M 
$GPGGA,225921.000,3101.6304,N,12125.6278,E,1,00,00008.690,M 
$GPGGA,225922.000,3101.6304,N,12125.6275,E,1,00,00008.690,M 
$GPGGA,225922.000,3101.6304,N,12125.6274,E,1,00,00008.402,M 
$GPGGA,225923.000,3101.6304,N,12125.6271,E,1,00,00008.260,M 
$GPGGA,225924.000,3101.6299,N,12125.6268,E,1,00,00008.260,M 
$GPGGA,225924.000,3101.6294,N,12125.6266,E,1,00,00007.354,M 
$GPGGA,225925.000,3101.6289,N,12125.6264,E,1,00,00007.354,M 
$GPGGA,225925.000,3101.6287,N,12125.6263,E,1,00,00007.120,M 
$GPGGA,225926.000,3101.6285,N,12125.6259,E,1,00,00007.120,M 
$GPGGA,225926.000,3101.6284,N,12125.6256,E,1,00,00006.507,M 
$GPGGA,225927.000,3101.6282,N,12125.6251,E,1,00,00006.507,M 
$GPGGA,225927.000,3101.6281,N,12125.6247,E,1,00,00007.437,M 
$GPGGA,225928.000,3101.6279,N,12125.6242,E,1,00,00007.437,M 
$GPGGA,225928.000,3101.6277,N,12125.6237,E,1,00,00007.384,M 
$GPGGA,225929.000,3101.6275,N,12125.6232,E,1,00,00006.280,M 
$GPGGA,225930.000,3101.6274,N,12125.6226,E,1,00,00006.281,M 
$GPGGA,225930.000,3101.6273,N,12125.6221,E,1,00,00006.387,M 
$GPGGA,225931.000,3101.6272,N,12125.6216,E,1,00,00006.387,M 
$GPGGA,225931.000,3101.6272,N,12125.6211,E,1,00,00006.325,M 
$GPGGA,225932.000,3101.6270,N,12125.6206,E,1,00,00006.325,M 
$GPGGA,225932.000,3101.6268,N,12125.6202,E,1,00,00005.941,M 
$GPGGA,225933.000,3101.6265,N,12125.6197,E,1,00,00007.133,M 
$GPGGA,225934.000,3101.6263,N,12125.6192,E,1,00,00007.133,M 
$GPGGA,225934.000,3101.6262,N,12125.6187,E,1,00,00006.490,M 
$GPGGA,225935.000,3101.6260,N,12125.6182,E,1,00,00006.490,M 
$GPGGA,225935.000,3101.6259,N,12125.6177,E,1,00,00006.424,M 
$GPGGA,225936.000,3101.6258,N,12125.6173,E,1,00,00006.425,M 
$GPGGA,225936.000,3101.6258,N,12125.6169,E,1,00,00008.217,M 
$GPGGA,225937.000,3101.6258,N,12125.6163,E,1,00,00008.218,M 
$GPGGA,225937.000,3101.6259,N,12125.6159,E,1,00,00007.492,M 
$GPGGA,225938.000,3101.6259,N,12125.6153,E,1,00,00009.206,M 
$GPGGA,225939.000,3101.6260,N,12125.6146,E,1,00,00009.206,M 
$GPGGA,225939.000,3101.6261,N,12125.6140,E,1,00,00008.480,M 
$GPGGA,225940.000,3101.6262,N,12125.6135,E,1,00,00008.481,M 
$GPGGA,225940.000,3101.6262,N,12125.6132,E,1,00,00008.763,M 
$GPGGA,225941.000,3101.6261,N,12125.6127,E,1,00,00008.763,M 
$GPGGA,225941.000,3101.6259,N,12125.6124,E,1,00,00007.670,M 
$GPGGA,225942.000,3101.6256,N,12125.6120,E,1,00,00007.670,M 
$GPGGA,225942.000,3101.6253,N,12125.6118,E,1,00,00009.741,M 
$GPGGA,225943.000,3101.6250,N,12125.6113,E,1,00,00009.741,M 
$GPGGA,225943.000,3101.6248,N,12125.6109,E,1,00,00010.152,M 
$GPGGA,225944.000,3101.6247,N,12125.6104,E,1,00,00008.816,M 
$GPGGA,225945.000,3101.6245,N,12125.6097,E,1,00,00008.816,M 
$GPGGA,225945.000,3101.6244,N,12125.6091,E,1,00,00009.249,M 
$GPGGA,225946.000,3101.6243,N,12125.6085,E,1,00,00009.249,M 
$GPGGA,225946.000,3101.6243,N,12125.6081,E,1,00,00008.339,M 
$GPGGA,225947.000,3101.6242,N,12125.6075,E,1,00,00008.339,M 
$GPGGA,225947.000,3101.6241,N,12125.6070,E,1,00,00009.419,M 
$GPGGA,225948.000,3101.6239,N,12125.6063,E,1,00,00009.419,M 
$GPGGA,225948.000,3101.6236,N,12125.6058,E,1,00,00009.222,M 
$GPGGA,225949.000,3101.6235,N,12125.6052,E,1,00,00008.444,M 
$GPGGA,225950.000,3101.6233,N,12125.6046,E,1,00,00008.444,M 
$GPGGA,225950.000,3101.6232,N,12125.6041,E,1,00,00009.283,M 
$GPGGA,225951.000,3101.6230,N,12125.6036,E,1,00,00009.283,M 
$GPGGA,225951.000,3101.6228,N,12125.6032,E,1,00,00009.586,M 
$GPGGA,225952.000,3101.6227,N,12125.6028,E,1,00,00009.586,M 
$GPGGA,225952.000,3101.6226,N,12125.6025,E,1,00,00010.947,M 
$GPGGA,225953.000,3101.6224,N,12125.6022,E,1,00,00010.307,M 
$GPGGA,225954.000,3101.6223,N,12125.6017,E,1,00,00010.307,M 
$GPGGA,225954.000,3101.6223,N,12125.6013,E,1,00,00012.340,M 
$GPGGA,225958.000,3101.6227,N,12125.6005,E,1,00,00012.575,M 
$GPGGA,225959.000,3101.6233,N,12125.5997,E,1,00,00012.460,M 
$GPGGA,230004.000,3101.6237,N,12125.5999,E,1,00,00012.460,M 
$GPGGA,230004.000,3101.6237,N,12125.6004,E,1,00,00014.390,M 
$GPGGA,230005.000,3101.6235,N,12125.6012,E,1,00,00014.390,M 
$GPGGA,230005.000,3101.6233,N,12125.6017,E,1,00,00014.693,M 
$GPGGA,230006.000,3101.6231,N,12125.6021,E,1,00,00015.808,M 
$GPGGA,230007.000,3101.6229,N,12125.6023,E,1,00,00015.808,M 
$GPGGA,230007.000,3101.6229,N,12125.6023,E,1,00,00015.621,M 
$GPGGA,230008.000,3101.6230,N,12125.6020,E,1,00,00015.621,M 
$GPGGA,230008.000,3101.6233,N,12125.6015,E,1,00,00016.636,M 
$GPGGA,230009.000,3101.6237,N,12125.6011,E,1,00,00016.636,M 
$GPGGA,230009.000,3101.6242,N,12125.6008,E,1,00,00017.378,M 
$GPGGA,230010.000,3101.6249,N,12125.6007,E,1,00,00017.378,M 
$GPGGA,230010.000,3101.6255,N,12125.6006,E,1,00,00016.872,M 
$GPGGA,230011.000,3101.6259,N,12125.6007,E,1,00,00016.872,M 
$GPGGA,230011.000,3101.6262,N,12125.6009,E,1,00,00018.457,M 
$GPGGA,230012.000,3101.6266,N,12125.6008,E,1,00,00018.458,M 
$GPGGA,230012.000,3101.6268,N,12125.6007,E,1,00,00016.296,M 
$GPGGA,230013.000,3101.6274,N,12125.6004,E,1,00,00015.801,M 
$GPGGA,230014.000,3101.6283,N,12125.5998,E,1,00,00015.801,M 
$GPGGA,230014.000,3101.6292,N,12125.5993,E,1,00,00014.408,M 
$GPGGA,230015.000,3101.6300,N,12125.5986,E,1,00,00014.408,M 
$GPGGA,230015.000,3101.6307,N,12125.5980,E,1,00,00014.348,M 
$GPGGA,230016.000,3101.6312,N,12125.5975,E,1,00,00014.348,M 
$GPGGA,230016.000,3101.6315,N,12125.5971,E,1,00,00013.163,M 
$GPGGA,230017.000,3101.6321,N,12125.5966,E,1,00,00013.164,M 
$GPGGA,230017.000,3101.6325,N,12125.5963,E,1,00,00014.455,M 
$GPGGA,230018.000,3101.6333,N,12125.5959,E,1,00,00014.455,M 
$GPGGA,230018.000,3101.6339,N,12125.5957,E,1,00,00014.831,M 
$GPGGA,230019.000,3101.6346,N,12125.5953,E,1,00,00012.644,M 
$GPGGA,230020.000,3101.6355,N,12125.5948,E,1,00,00012.644,M 
$GPGGA,230020.000,3101.6363,N,12125.5943,E,1,00,00010.835,M 
$GPGGA,230021.000,3101.6369,N,12125.5941,E,1,00,00010.835,M 
$GPGGA,230021.000,3101.6373,N,12125.5941,E,1,00,00009.850,M 
$GPGGA,230022.000,3101.6376,N,12125.5939,E,1,00,00009.850,M 
$GPGGA,230022.000,3101.6378,N,12125.5937,E,1,00,00010.517,M 
$GPGGA,230023.000,3101.6380,N,12125.5936,E,1,00,00010.517,M 
$GPGGA,230023.000,3101.6383,N,12125.5937,E,1,00,00008.602,M 
$GPGGA,230024.000,3101.6386,N,12125.5936,E,1,00,00008.602,M 
$GPGGA,230024.000,3101.6388,N,12125.5936,E,1,00,00009.282,M 
$GPGGA,230025.000,3101.6389,N,12125.5936,E,1,00,00009.038,M 
$GPGGA,230026.000,3101.6392,N,12125.5937,E,1,00,00009.038,M 
$GPGGA,230026.000,3101.6395,N,12125.5939,E,1,00,00011.226,M 
$GPGGA,230027.000,3101.6400,N,12125.5941,E,1,00,00011.226,M 
$GPGGA,230027.000,3101.6404,N,12125.5943,E,1,00,00011.726,M 
$GPGGA,230028.000,3101.6408,N,12125.5944,E,1,00,00011.726,M 
$GPGGA,230028.000,3101.6411,N,12125.5945,E,1,00,00012.870,M 
$GPGGA,230029.000,3101.6413,N,12125.5945,E,1,00,00012.870,M 
$GPGGA,230029.000,3101.6414,N,12125.5944,E,1,00,00011.083,M 
$GPGGA,230030.000,3101.6417,N,12125.5941,E,1,00,00011.083,M 
$GPGGA,230030.000,3101.6421,N,12125.5939,E,1,00,00010.465,M 
$GPGGA,230031.000,3101.6425,N,12125.5935,E,1,00,00010.465,M 
$GPGGA,230031.000,3101.6428,N,12125.5931,E,1,00,00009.501,M 
$GPGGA,230032.000,3101.6430,N,12125.5927,E,1,00,00009.038,M 
$GPGGA,230033.000,3101.6432,N,12125.5925,E,1,00,00009.038,M 
$GPGGA,230033.000,3101.6434,N,12125.5924,E,1,00,00010.037,M 
$GPGGA,230034.000,3101.6437,N,12125.5920,E,1,00,00010.037,M 
$GPGGA,230034.000,3101.6441,N,12125.5917,E,1,00,00010.088,M 
$GPGGA,230035.000,3101.6445,N,12125.5914,E,1,00,00010.088,M 
$GPGGA,230035.000,3101.6447,N,12125.5912,E,1,00,00010.549,M 
$GPGGA,230036.000,3101.6450,N,12125.5907,E,1,00,00010.550,M 
$GPGGA,230036.000,3101.6452,N,12125.5903,E,1,00,00009.653,M 
$GPGGA,230037.000,3101.6456,N,12125.5900,E,1,00,00009.653,M 
$GPGGA,230037.000,3101.6460,N,12125.5898,E,1,00,00009.892,M 
$GPGGA,230038.000,3101.6466,N,12125.5895,E,1,00,00009.892,M 
$GPGGA,230038.000,3101.6470,N,12125.5892,E,1,00,00009.032,M 
$GPGGA,230039.000,3101.6476,N,12125.5889,E,1,00,00009.254,M 
$GPGGA,230040.000,3101.6483,N,12125.5883,E,1,00,00009.254,M 
$GPGGA,230040.000,3101.6489,N,12125.5878,E,1,00,00009.373,M 
$GPGGA,230041.000,3101.6494,N,12125.5871,E,1,00,00009.373,M 
$GPGGA,230041.000,3101.6497,N,12125.5866,E,1,00,00008.703,M 
$GPGGA,230042.000,3101.6500,N,12125.5863,E,1,00,00008.703,M 
$GPGGA,230042.000,3101.6503,N,12125.5862,E,1,00,00007.801,M 
$GPGGA,230043.000,3101.6508,N,12125.5861,E,1,00,00007.801,M 
$GPGGA,230043.000,3101.6514,N,12125.5860,E,1,00,00006.855,M 
$GPGGA,230044.000,3101.6518,N,12125.5859,E,1,00,00006.855,M 
$GPGGA,230044.000,3101.6520,N,12125.5858,E,1,00,00005.795,M 
$GPGGA,230045.000,3101.6524,N,12125.5857,E,1,00,00005.795,M 
$GPGGA,230045.000,3101.6527,N,12125.5856,E,1,00,00006.873,M 
$GPGGA,230046.000,3101.6533,N,12125.5856,E,1,00,00006.395,M 
$GPGGA,230047.000,3101.6540,N,12125.5857,E,1,00,00006.395,M 
$GPGGA,230047.000,3101.6546,N,12125.5858,E,1,00,00007.769,M 
$GPGGA,230048.000,3101.6550,N,12125.5856,E,1,00,00007.769,M 
$GPGGA,230048.000,3101.6553,N,12125.5854,E,1,00,00008.078,M 
$GPGGA,230049.000,3101.6558,N,12125.5853,E,1,00,00008.078,M 
$GPGGA,230049.000,3101.6561,N,12125.5852,E,1,00,00007.296,M 
$GPGGA,230050.000,3101.6564,N,12125.5849,E,1,00,00007.296,M 
$GPGGA,230050.000,3101.6566,N,12125.5847,E,1,00,00009.203,M 
$GPGGA,230051.000,3101.6569,N,12125.5847,E,1,00,00009.203,M 
$GPGGA,230051.000,3101.6571,N,12125.5848,E,1,00,00008.958,M 
$GPGGA,230052.000,3101.6574,N,12125.5847,E,1,00,00009.096,M 
$GPGGA,230053.000,3101.6579,N,12125.5844,E,1,00,00009.096,M 
$GPGGA,230053.000,3101.6584,N,12125.5842,E,1,00,00008.149,M 
$GPGGA,230054.000,3101.6587,N,12125.5840,E,1,00,00008.149,M 
$GPGGA,230054.000,3101.6589,N,12125.5838,E,1,00,00008.219,M 
$GPGGA,230055.000,3101.6590,N,12125.5838,E,1,00,00008.219,M 
$GPGGA,230055.000,3101.6590,N,12125.5839,E,1,00,00007.823,M 
$GPGGA,230056.000,3101.6592,N,12125.5836,E,1,00,00007.823,M 
$GPGGA,230056.000,3101.6595,N,12125.5834,E,1,00,00006.884,M 
$GPGGA,230057.000,3101.6600,N,12125.5833,E,1,00,00006.884,M 
$GPGGA,230057.000,3101.6604,N,12125.5834,E,1,00,00007.795,M 
$GPGGA,230058.000,3101.6611,N,12125.5834,E,1,00,00007.795,M 
$GPGGA,230058.000,3101.6617,N,12125.5835,E,1,00,00008.286,M 
$GPGGA,230059.000,3101.6621,N,12125.5834,E,1,00,00008.829,M 
$GPGGA,230100.000,3101.6624,N,12125.5833,E,1,00,00008.829,M 
$GPGGA,230100.000,3101.6627,N,12125.5832,E,1,00,00009.158,M 
$GPGGA,230101.000,3101.6629,N,12125.5830,E,1,00,00009.158,M 
$GPGGA,230101.000,3101.6630,N,12125.5829,E,1,00,00010.827,M 
$GPGGA,230102.000,3101.6631,N,12125.5830,E,1,00,00010.827,M 
$GPGGA,230102.000,3101.6632,N,12125.5830,E,1,00,00010.182,M 
$GPGGA,230103.000,3101.6634,N,12125.5828,E,1,00,00010.182,M 
$GPGGA,230103.000,3101.6637,N,12125.5824,E,1,00,00010.635,M 
$GPGGA,230104.000,3101.6640,N,12125.5819,E,1,00,00010.635,M 
$GPGGA,230104.000,3101.6644,N,12125.5815,E,1,00,00011.388,M 
$GPGGA,230105.000,3101.6649,N,12125.5810,E,1,00,00011.389,M 
$GPGGA,230105.000,3101.6654,N,12125.5807,E,1,00,00011.171,M 
$GPGGA,230106.000,3101.6660,N,12125.5805,E,1,00,00011.171,M 
$GPGGA,230106.000,3101.6665,N,12125.5804,E,1,00,00010.068,M 
$GPGGA,230107.000,3101.6671,N,12125.5800,E,1,00,00009.662,M 
$GPGGA,230108.000,3101.6679,N,12125.5797,E,1,00,00009.663,M 
$GPGGA,230108.000,3101.6685,N,12125.5794,E,1,00,00008.837,M 
$GPGGA,230109.000,3101.6691,N,12125.5792,E,1,00,00008.837,M 
$GPGGA,230109.000,3101.6695,N,12125.5790,E,1,00,00010.822,M 
$GPGGA,230110.000,3101.6699,N,12125.5789,E,1,00,00010.822,M 
$GPGGA,230110.000,3101.6701,N,12125.5789,E,1,00,00010.818,M 
$GPGGA,230111.000,3101.6704,N,12125.5791,E,1,00,00010.818,M 
$GPGGA,230111.000,3101.6705,N,12125.5793,E,1,00,00012.197,M 
$GPGGA,230112.000,3101.6707,N,12125.5796,E,1,00,00012.197,M 
$GPGGA,230112.000,3101.6708,N,12125.5797,E,1,00,00010.266,M 
$GPGGA,230113.000,3101.6712,N,12125.5795,E,1,00,00010.266,M 
$GPGGA,230113.000,3101.6715,N,12125.5793,E,1,00,00010.125,M 
$GPGGA,230114.000,3101.6723,N,12125.5790,E,1,00,00010.125,M 
$GPGGA,230114.000,3101.6729,N,12125.5787,E,1,00,00011.833,M 
$GPGGA,230115.000,3101.6736,N,12125.5784,E,1,00,00011.833,M 
$GPGGA,230115.000,3101.6741,N,12125.5782,E,1,00,00010.388,M 
$GPGGA,230116.000,3101.6747,N,12125.5779,E,1,00,00010.388,M 
$GPGGA,230116.000,3101.6752,N,12125.5777,E,1,00,00011.107,M 
$GPGGA,230117.000,3101.6756,N,12125.5773,E,1,00,00012.094,M 
$GPGGA,230118.000,3101.6761,N,12125.5771,E,1,00,00012.094,M 
$GPGGA,230118.000,3101.6765,N,12125.5770,E,1,00,00012.922,M 
$GPGGA,230119.000,3101.6770,N,12125.5766,E,1,00,00012.922,M 
$GPGGA,230119.000,3101.6775,N,12125.5763,E,1,00,00014.069,M 
$GPGGA,230120.000,3101.6780,N,12125.5760,E,1,00,00014.069,M 
$GPGGA,230120.000,3101.6785,N,12125.5757,E,1,00,00013.535,M 
$GPGGA,230121.000,3101.6791,N,12125.5753,E,1,00,00013.536,M 
$GPGGA,230121.000,3101.6797,N,12125.5749,E,1,00,00011.216,M 
$GPGGA,230122.000,3101.6801,N,12125.5746,E,1,00,00011.216,M 
$GPGGA,230122.000,3101.6804,N,12125.5745,E,1,00,00011.551,M 
$GPGGA,230123.000,3101.6806,N,12125.5745,E,1,00,00011.551,M 
$GPGGA,230123.000,3101.6807,N,12125.5747,E,1,00,00012.272,M 
$GPGGA,230124.000,3101.6810,N,12125.5749,E,1,00,00012.272,M 
$GPGGA,230124.000,3101.6812,N,12125.5752,E,1,00,00011.637,M 
$GPGGA,230125.000,3101.6815,N,12125.5751,E,1,00,00011.835,M 
$GPGGA,230126.000,3101.6820,N,12125.5750,E,1,00,00011.835,M 
$GPGGA,230126.000,3101.6824,N,12125.5749,E,1,00,00014.151,M 
$GPGGA,230127.000,3101.6825,N,12125.5749,E,1,00,00014.151,M 
$GPGGA,230127.000,3101.6825,N,12125.5750,E,1,00,00013.887,M 
$GPGGA,230128.000,3101.6825,N,12125.5751,E,1,00,00013.887,M 
$GPGGA,230128.000,3101.6824,N,12125.5752,E,1,00,00013.776,M 
$GPGGA,230129.000,3101.6828,N,12125.5752,E,1,00,00013.776,M 
$GPGGA,230129.000,3101.6832,N,12125.5751,E,1,00,00013.356,M 
$GPGGA,230130.000,3101.6838,N,12125.5745,E,1,00,00013.356,M 
$GPGGA,230130.000,3101.6844,N,12125.5739,E,1,00,00012.073,M 
$GPGGA,230131.000,3101.6851,N,12125.5732,E,1,00,00012.073,M 
$GPGGA,230131.000,3101.6856,N,12125.5726,E,1,00,00011.292,M 
$GPGGA,230132.000,3101.6861,N,12125.5723,E,1,00,00011.292,M 
$GPGGA,230132.000,3101.6865,N,12125.5722,E,1,00,00010.578,M 
$GPGGA,230133.000,3101.6870,N,12125.5719,E,1,00,00011.590,M 
$GPGGA,230134.000,3101.6876,N,12125.5717,E,1,00,00011.591,M 
$GPGGA,230134.000,3101.6880,N,12125.5717,E,1,00,00010.832,M 
$GPGGA,230135.000,3101.6885,N,12125.5714,E,1,00,00010.832,M 
$GPGGA,230135.000,3101.6888,N,12125.5711,E,1,00,00012.214,M 
$GPGGA,230136.000,3101.6891,N,12125.5707,E,1,00,00012.215,M 
$GPGGA,230136.000,3101.6894,N,12125.5704,E,1,00,00011.574,M 
$GPGGA,230137.000,3101.6897,N,12125.5703,E,1,00,00011.574,M 
$GPGGA,230137.000,3101.6899,N,12125.5704,E,1,00,00012.054,M 
$GPGGA,230138.000,3101.6903,N,12125.5704,E,1,00,00012.054,M 
$GPGGA,230138.000,3101.6907,N,12125.5705,E,1,00,00011.249,M 
$GPGGA,230139.000,3101.6910,N,12125.5704,E,1,00,00011.249,M 
$GPGGA,230139.000,3101.6913,N,12125.5702,E,1,00,00011.618,M 
$GPGGA,230140.000,3101.6915,N,12125.5701,E,1,00,00011.537,M 
$GPGGA,230141.000,3101.6921,N,12125.5699,E,1,00,00011.537,M 
$GPGGA,230141.000,3101.6927,N,12125.5696,E,1,00,00012.041,M 
$GPGGA,230142.000,3101.6933,N,12125.5693,E,1,00,00012.041,M 
$GPGGA,230142.000,3101.6938,N,12125.5690,E,1,00,00011.384,M 
$GPGGA,230143.000,3101.6944,N,12125.5686,E,1,00,00011.384,M 
$GPGGA,230143.000,3101.6948,N,12125.5682,E,1,00,00012.552,M 
$GPGGA,230144.000,3101.6950,N,12125.5677,E,1,00,00012.552,M 
$GPGGA,230144.000,3101.6952,N,12125.5674,E,1,00,00011.041,M 
$GPGGA,230145.000,3101.6955,N,12125.5670,E,1,00,00011.041,M 
$GPGGA,230145.000,3101.6958,N,12125.5668,E,1,00,00012.075,M 
$GPGGA,230146.000,3101.6963,N,12125.5665,E,1,00,00012.075,M 
$GPGGA,230146.000,3101.6967,N,12125.5663,E,1,00,00011.705,M 
$GPGGA,230147.000,3101.6970,N,12125.5664,E,1,00,00011.705,M 
$GPGGA,230147.000,3101.6972,N,12125.5664,E,1,00,00011.965,M 
$GPGGA,230148.000,3101.6977,N,12125.5666,E,1,00,00013.284,M 
$GPGGA,230149.000,3101.6983,N,12125.5666,E,1,00,00013.284,M 
$GPGGA,230149.000,3101.6986,N,12125.5665,E,1,00,00012.143,M 
$GPGGA,230150.000,3101.6989,N,12125.5665,E,1,00,00012.143,M 
$GPGGA,230150.000,3101.6990,N,12125.5665,E,1,00,00013.532,M 
$GPGGA,230151.000,3101.6995,N,12125.5664,E,1,00,00013.532,M 
$GPGGA,230151.000,3101.6999,N,12125.5662,E,1,00,00014.700,M 
$GPGGA,230152.000,3101.7005,N,12125.5662,E,1,00,00014.700,M 
$GPGGA,230152.000,3101.7010,N,12125.5662,E,1,00,00013.365,M 
$GPGGA,230153.000,3101.7014,N,12125.5661,E,1,00,00013.366,M 
$GPGGA,230153.000,3101.7018,N,12125.5660,E,1,00,00012.053,M 
$GPGGA,230154.000,3101.7022,N,12125.5659,E,1,00,00012.053,M 
$GPGGA,230154.000,3101.7025,N,12125.5658,E,1,00,00010.833,M 
$GPGGA,230155.000,3101.7028,N,12125.5657,E,1,00,00010.422,M 
$GPGGA,230156.000,3101.7031,N,12125.5653,E,1,00,00010.423,M 
$GPGGA,230156.000,3101.7034,N,12125.5649,E,1,00,00010.336,M 
$GPGGA,230157.000,3101.7038,N,12125.5645,E,1,00,00010.336,M 
$GPGGA,230157.000,3101.7041,N,12125.5644,E,1,00,00009.645,M 
$GPGGA,230158.000,3101.7045,N,12125.5641,E,1,00,00009.645,M 
$GPGGA,230158.000,3101.7048,N,12125.5639,E,1,00,00010.139,M 
$GPGGA,230159.000,3101.7053,N,12125.5636,E,1,00,00010.139,M 
$GPGGA,230159.000,3101.7056,N,12125.5634,E,1,00,00010.095,M 
$GPGGA,230200.000,3101.7061,N,12125.5634,E,1,00,00010.095,M 
$GPGGA,230200.000,3101.7064,N,12125.5634,E,1,00,00012.295,M 
$GPGGA,230201.000,3101.7067,N,12125.5633,E,1,00,00012.295,M 
$GPGGA,230201.000,3101.7069,N,12125.5631,E,1,00,00013.165,M 
$GPGGA,230202.000,3101.7072,N,12125.5631,E,1,00,00013.165,M 
$GPGGA,230202.000,3101.7075,N,12125.5631,E,1,00,00013.042,M 
$GPGGA,230203.000,3101.7078,N,12125.5632,E,1,00,00011.788,M 
$GPGGA,230204.000,3101.7082,N,12125.5629,E,1,00,00011.789,M 
$GPGGA,230204.000,3101.7085,N,12125.5627,E,1,00,00012.190,M 
$GPGGA,230205.000,3101.7091,N,12125.5625,E,1,00,00012.190,M 
$GPGGA,230205.000,3101.7098,N,12125.5625,E,1,00,00012.859,M 
$GPGGA,230206.000,3101.7103,N,12125.5623,E,1,00,00012.859,M 
$GPGGA,230206.000,3101.7106,N,12125.5621,E,1,00,00013.645,M 
$GPGGA,230207.000,3101.7110,N,12125.5620,E,1,00,00013.645,M 
$GPGGA,230207.000,3101.7113,N,12125.5620,E,1,00,00015.133,M 
$GPGGA,230208.000,3101.7116,N,12125.5618,E,1,00,00015.133,M 
$GPGGA,230208.000,3101.7117,N,12125.5617,E,1,00,00013.997,M 
$GPGGA,230209.000,3101.7120,N,12125.5617,E,1,00,00013.997,M 
$GPGGA,230209.000,3101.7123,N,12125.5617,E,1,00,00015.644,M 
$GPGGA,230210.000,3101.7127,N,12125.5617,E,1,00,00015.644,M 
$GPGGA,230210.000,3101.7130,N,12125.5618,E,1,00,00016.088,M 
$GPGGA,230211.000,3101.7132,N,12125.5617,E,1,00,00016.088,M 
$GPGGA,230211.000,3101.7134,N,12125.5616,E,1,00,00015.086,M 
$GPGGA,230212.000,3101.7139,N,12125.5614,E,1,00,00014.738,M 
$GPGGA,230213.000,3101.7145,N,12125.5611,E,1,00,00014.738,M 
$GPGGA,230213.000,3101.7150,N,12125.5609,E,1,00,00014.831,M 
$GPGGA,230214.000,3101.7155,N,12125.5607,E,1,00,00014.831,M 
$GPGGA,230214.000,3101.7159,N,12125.5605,E,1,00,00015.858,M 
$GPGGA,230215.000,3101.7163,N,12125.5603,E,1,00,00015.858,M 
$GPGGA,230215.000,3101.7165,N,12125.5601,E,1,00,00015.658,M 
$GPGGA,230216.000,3101.7170,N,12125.5598,E,1,00,00015.658,M 
$GPGGA,230216.000,3101.7174,N,12125.5594,E,1,00,00014.593,M 
$GPGGA,230217.000,3101.7181,N,12125.5593,E,1,00,00014.593,M 
$GPGGA,230217.000,3101.7187,N,12125.5592,E,1,00,00015.135,M 
$GPGGA,230218.000,3101.7192,N,12125.5590,E,1,00,00015.135,M 
$GPGGA,230218.000,3101.7196,N,12125.5588,E,1,00,00015.578,M 
$GPGGA,230219.000,3101.7200,N,12125.5587,E,1,00,00015.906,M 
$GPGGA,230220.000,3101.7207,N,12125.5584,E,1,00,00015.907,M 
$GPGGA,230220.000,3101.7214,N,12125.5581,E,1,00,00015.149,M 
$GPGGA,230221.000,3101.7222,N,12125.5577,E,1,00,00015.149,M 
$GPGGA,230221.000,3101.7228,N,12125.5574,E,1,00,00016.039,M 
$GPGGA,230222.000,3101.7234,N,12125.5569,E,1,00,00016.040,M 
$GPGGA,230222.000,3101.7238,N,12125.5565,E,1,00,00015.913,M 
$GPGGA,230223.000,3101.7242,N,12125.5563,E,1,00,00015.913,M 
$GPGGA,230223.000,3101.7244,N,12125.5563,E,1,00,00016.459,M 
$GPGGA,230224.000,3101.7247,N,12125.5565,E,1,00,00016.459,M 
$GPGGA,230224.000,3101.7248,N,12125.5568,E,1,00,00017.330,M 
$GPGGA,230225.000,3101.7253,N,12125.5568,E,1,00,00017.331,M 
$GPGGA,230225.000,3101.7258,N,12125.5566,E,1,00,00016.162,M 
$GPGGA,230226.000,3101.7266,N,12125.5566,E,1,00,00016.162,M 
$GPGGA,230226.000,3101.7272,N,12125.5566,E,1,00,00015.152,M 
$GPGGA,230227.000,3101.7279,N,12125.5566,E,1,00,00016.014,M 
$GPGGA,230228.000,3101.7285,N,12125.5564,E,1,00,00016.014,M 
$GPGGA,230228.000,3101.7290,N,12125.5562,E,1,00,00015.180,M 
$GPGGA,230229.000,3101.7292,N,12125.5558,E,1,00,00015.180,M 
$GPGGA,230229.000,3101.7292,N,12125.5554,E,1,00,00014.180,M 
$GPGGA,230230.000,3101.7294,N,12125.5550,E,1,00,00014.180,M 
$GPGGA,230230.000,3101.7295,N,12125.5546,E,1,00,00012.890,M 
$GPGGA,230231.000,3101.7299,N,12125.5543,E,1,00,00012.890,M 
$GPGGA,230231.000,3101.7303,N,12125.5541,E,1,00,00012.378,M 
$GPGGA,230232.000,3101.7307,N,12125.5538,E,1,00,00012.378,M 
$GPGGA,230232.000,3101.7309,N,12125.5535,E,1,00,00012.300,M 
$GPGGA,230233.000,3101.7311,N,12125.5532,E,1,00,00012.300,M 
$GPGGA,230233.000,3101.7313,N,12125.5529,E,1,00,00010.767,M 
$GPGGA,230234.000,3101.7315,N,12125.5528,E,1,00,00010.767,M 
$GPGGA,230234.000,3101.7317,N,12125.5527,E,1,00,00012.047,M 
$GPGGA,230235.000,3101.7319,N,12125.5524,E,1,00,00012.592,M 
$GPGGA,230236.000,3101.7324,N,12125.5521,E,1,00,00012.593,M 
$GPGGA,230236.000,3101.7329,N,12125.5519,E,1,00,00012.919,M 
$GPGGA,230237.000,3101.7335,N,12125.5516,E,1,00,00012.919,M 
$GPGGA,230237.000,3101.7339,N,12125.5514,E,1,00,00013.351,M 
$GPGGA,230238.000,3101.7344,N,12125.5512,E,1,00,00013.352,M 
$GPGGA,230238.000,3101.7348,N,12125.5511,E,1,00,00012.333,M 
$GPGGA,230239.000,3101.7350,N,12125.5510,E,1,00,00012.333,M 
$GPGGA,230239.000,3101.7351,N,12125.5509,E,1,00,00011.840,M 
$GPGGA,230240.000,3101.7353,N,12125.5507,E,1,00,00011.840,M 
$GPGGA,230240.000,3101.7355,N,12125.5506,E,1,00,00010.849,M 
$GPGGA,230241.000,3101.7357,N,12125.5503,E,1,00,00010.849,M 
$GPGGA,230241.000,3101.7360,N,12125.5501,E,1,00,00010.597,M 
$GPGGA,230242.000,3101.7363,N,12125.5499,E,1,00,00009.676,M 
$GPGGA,230243.000,3101.7368,N,12125.5496,E,1,00,00009.676,M 
$GPGGA,230243.000,3101.7372,N,12125.5494,E,1,00,00009.201,M 
$GPGGA,230244.000,3101.7375,N,12125.5491,E,1,00,00009.201,M 
$GPGGA,230244.000,3101.7378,N,12125.5490,E,1,00,00008.958,M 
$GPGGA,230245.000,3101.7385,N,12125.5488,E,1,00,00008.958,M 
$GPGGA,230245.000,3101.7392,N,12125.5487,E,1,00,00008.716,M 
$GPGGA,230246.000,3101.7397,N,12125.5485,E,1,00,00008.716,M 
$GPGGA,230246.000,3101.7399,N,12125.5484,E,1,00,00009.669,M 
$GPGGA,230247.000,3101.7400,N,12125.5486,E,1,00,00009.465,M 
$GPGGA,230248.000,3101.7399,N,12125.5487,E,1,00,00011.032,M 
$GPGGA,230251.000,3101.7396,N,12125.5491,E,1,00,00012.055,M 
$GPGGA,230252.000,3101.7394,N,12125.5496,E,1,00,00012.054,M 
$GPGGA,230252.000,3101.7392,N,12125.5500,E,1,00,00012.475,M 
$GPGGA,230253.000,3101.7393,N,12125.5504,E,1,00,00012.475,M 
$GPGGA,230253.000,3101.7395,N,12125.5508,E,1,00,00012.854,M 
$GPGGA,230254.000,3101.7399,N,12125.5512,E,1,00,00012.854,M 
$GPGGA,230254.000,3101.7402,N,12125.5516,E,1,00,00013.664,M 
$GPGGA,230255.000,3101.7406,N,12125.5519,E,1,00,00013.880,M 
$GPGGA,230256.000,3101.7409,N,12125.5522,E,1,00,00013.880,M 
$GPGGA,230256.000,3101.7412,N,12125.5523,E,1,00,00014.049,M 
$GPGGA,230257.000,3101.7415,N,12125.5524,E,1,00,00014.049,M 
$GPGGA,230257.000,3101.7418,N,12125.5524,E,1,00,00013.044,M 
$GPGGA,230258.000,3101.7420,N,12125.5525,E,1,00,00013.044,M 
$GPGGA,230258.000,3101.7421,N,12125.5527,E,1,00,00012.392,M 
$GPGGA,230259.000,3101.7423,N,12125.5528,E,1,00,00012.392,M 
$GPGGA,230259.000,3101.7424,N,12125.5529,E,1,00,00010.852,M 
$GPGGA,230300.000,3101.7427,N,12125.5533,E,1,00,00010.851,M 
$GPGGA,230300.000,3101.7429,N,12125.5537,E,1,00,00010.478,M 
$GPGGA,230301.000,3101.7430,N,12125.5543,E,1,00,00010.478,M 
$GPGGA,230301.000,3101.7431,N,12125.5548,E,1,00,00010.331,M 
$GPGGA,230302.000,3101.7434,N,12125.5554,E,1,00,00010.065,M 
$GPGGA,230303.000,3101.7438,N,12125.5560,E,1,00,00010.064,M 
$GPGGA,230303.000,3101.7441,N,12125.5565,E,1,00,00009.366,M 
$GPGGA,230304.000,3101.7443,N,12125.5569,E,1,00,00009.365,M 
$GPGGA,230304.000,3101.7444,N,12125.5572,E,1,00,00010.241,M 
$GPGGA,230305.000,3101.7447,N,12125.5575,E,1,00,00010.241,M 
$GPGGA,230305.000,3101.7449,N,12125.5578,E,1,00,00010.073,M 
$GPGGA,230306.000,3101.7452,N,12125.5583,E,1,00,00010.073,M 
$GPGGA,230306.000,3101.7454,N,12125.5587,E,1,00,00010.678,M 
$GPGGA,230307.000,3101.7455,N,12125.5591,E,1,00,00010.678,M 
$GPGGA,230307.000,3101.7455,N,12125.5595,E,1,00,00011.762,M 
$GPGGA,230308.000,3101.7456,N,12125.5597,E,1,00,00011.711,M 
$GPGGA,230309.000,3101.7457,N,12125.5603,E,1,00,00011.711,M 
$GPGGA,230309.000,3101.7458,N,12125.5609,E,1,00,00011.944,M 
$GPGGA,230310.000,3101.7460,N,12125.5613,E,1,00,00011.944,M 
$GPGGA,230310.000,3101.7463,N,12125.5617,E,1,00,00011.957,M 
$GPGGA,230311.000,3101.7464,N,12125.5620,E,1,00,00011.957,M 
$GPGGA,230311.000,3101.7466,N,12125.5623,E,1,00,00012.311,M 
$GPGGA,230312.000,3101.7467,N,12125.5627,E,1,00,00012.311,M 
$GPGGA,230312.000,3101.7468,N,12125.5630,E,1,00,00012.867,M 
$GPGGA,230313.000,3101.7469,N,12125.5634,E,1,00,00012.867,M 
$GPGGA,230313.000,3101.7470,N,12125.5637,E,1,00,00012.950,M 
$GPGGA,230314.000,3101.7471,N,12125.5640,E,1,00,00012.581,M 
$GPGGA,230315.000,3101.7473,N,12125.5644,E,1,00,00012.581,M 
$GPGGA,230315.000,3101.7476,N,12125.5648,E,1,00,00012.719,M 
$GPGGA,230316.000,3101.7479,N,12125.5653,E,1,00,00012.719,M 
$GPGGA,230316.000,3101.7480,N,12125.5658,E,1,00,00011.985,M 
$GPGGA,230317.000,3101.7483,N,12125.5663,E,1,00,00011.985,M 
$GPGGA,230317.000,3101.7484,N,12125.5667,E,1,00,00011.773,M 
$GPGGA,230318.000,3101.7488,N,12125.5671,E,1,00,00011.773,M 
$GPGGA,230318.000,3101.7490,N,12125.5674,E,1,00,00011.430,M 
$GPGGA,230319.000,3101.7492,N,12125.5679,E,1,00,00010.910,M 
$GPGGA,230320.000,3101.7494,N,12125.5687,E,1,00,00010.910,M 
$GPGGA,230320.000,3101.7496,N,12125.5692,E,1,00,00010.846,M 
$GPGGA,230321.000,3101.7496,N,12125.5700,E,1,00,00010.846,M 
$GPGGA,230321.000,3101.7497,N,12125.5706,E,1,00,00011.865,M 
$GPGGA,230322.000,3101.7497,N,12125.5713,E,1,00,00011.865,M 
$GPGGA,230322.000,3101.7498,N,12125.5719,E,1,00,00011.397,M 
$GPGGA,230323.000,3101.7500,N,12125.5725,E,1,00,00011.397,M 
$GPGGA,230323.000,3101.7501,N,12125.5730,E,1,00,00012.203,M 
$GPGGA,230324.000,3101.7504,N,12125.5735,E,1,00,00011.556,M 
$GPGGA,230325.000,3101.7505,N,12125.5742,E,1,00,00011.555,M 
$GPGGA,230325.000,3101.7506,N,12125.5748,E,1,00,00011.938,M 
$GPGGA,230326.000,3101.7507,N,12125.5752,E,1,00,00011.938,M 
$GPGGA,230326.000,3101.7507,N,12125.5755,E,1,00,00011.229,M 
$GPGGA,230327.000,3101.7507,N,12125.5758,E,1,00,00011.229,M 
$GPGGA,230327.000,3101.7507,N,12125.5760,E,1,00,00011.245,M 
$GPGGA,230328.000,3101.7507,N,12125.5763,E,1,00,00011.245,M 
$GPGGA,230328.000,3101.7506,N,12125.5767,E,1,00,00011.335,M 
$GPGGA,230329.000,3101.7505,N,12125.5774,E,1,00,00011.335,M 
$GPGGA,230329.000,3101.7503,N,12125.5780,E,1,00,00011.169,M 
$GPGGA,230330.000,3101.7503,N,12125.5786,E,1,00,00011.169,M 
$GPGGA,230330.000,3101.7504,N,12125.5791,E,1,00,00010.834,M 
$GPGGA,230331.000,3101.7505,N,12125.5795,E,1,00,00010.773,M 
$GPGGA,230332.000,3101.7508,N,12125.5801,E,1,00,00010.773,M 
$GPGGA,230332.000,3101.7510,N,12125.5808,E,1,00,00009.788,M 
$GPGGA,230333.000,3101.7513,N,12125.5811,E,1,00,00009.787,M 
$GPGGA,230333.000,3101.7516,N,12125.5813,E,1,00,00010.889,M 
$GPGGA,230334.000,3101.7519,N,12125.5817,E,1,00,00010.889,M 
$GPGGA,230334.000,3101.7520,N,12125.5821,E,1,00,00009.940,M 
$GPGGA,230335.000,3101.7523,N,12125.5824,E,1,00,00009.940,M 
$GPGGA,230335.000,3101.7524,N,12125.5827,E,1,00,00008.458,M 
$GPGGA,230336.000,3101.7526,N,12125.5831,E,1,00,00008.458,M 
$GPGGA,230336.000,3101.7527,N,12125.5834,E,1,00,00008.941,M 
$GPGGA,230337.000,3101.7528,N,12125.5839,E,1,00,00008.941,M 
$GPGGA,230337.000,3101.7529,N,12125.5843,E,1,00,00010.955,M 
$GPGGA,230338.000,3101.7531,N,12125.5848,E,1,00,00011.597,M 
$GPGGA,230339.000,3101.7531,N,12125.5853,E,1,00,00011.597,M 
$GPGGA,230339.000,3101.7530,N,12125.5858,E,1,00,00011.373,M 
$GPGGA,230340.000,3101.7531,N,12125.5864,E,1,00,00011.373,M 
$GPGGA,230340.000,3101.7532,N,12125.5870,E,1,00,00011.346,M 
$GPGGA,230341.000,3101.7537,N,12125.5875,E,1,00,00011.345,M 
$GPGGA,230341.000,3101.7542,N,12125.5879,E,1,00,00010.752,M 
$GPGGA,230342.000,3101.7546,N,12125.5883,E,1,00,00010.752,M 
$GPGGA,230342.000,3101.7548,N,12125.5887,E,1,00,00012.261,M 
$GPGGA,230343.000,3101.7550,N,12125.5891,E,1,00,00012.261,M 
$GPGGA,230343.000,3101.7552,N,12125.5894,E,1,00,00011.269,M 
$GPGGA,230344.000,3101.7555,N,12125.5898,E,1,00,00011.269,M 
$GPGGA,230344.000,3101.7558,N,12125.5903,E,1,00,00011.969,M 
$GPGGA,230345.000,3101.7563,N,12125.5907,E,1,00,00011.968,M 
$GPGGA,230345.000,3101.7567,N,12125.5910,E,1,00,00013.223,M 
$GPGGA,230346.000,3101.7570,N,12125.5912,E,1,00,00013.223,M 
$GPGGA,230346.000,3101.7573,N,12125.5913,E,1,00,00012.962,M 
$GPGGA,230347.000,3101.7577,N,12125.5914,E,1,00,00014.107,M 
$GPGGA,230348.000,3101.7581,N,12125.5917,E,1,00,00014.107,M 
$GPGGA,230348.000,3101.7584,N,12125.5918,E,1,00,00014.702,M 
$GPGGA,230349.000,3101.7587,N,12125.5920,E,1,00,00014.702,M 
$GPGGA,230349.000,3101.7589,N,12125.5922,E,1,00,00014.141,M 
$GPGGA,230350.000,3101.7590,N,12125.5925,E,1,00,00014.141,M 
$GPGGA,230350.000,3101.7591,N,12125.5928,E,1,00,00015.079,M 
$GPGGA,230351.000,3101.7593,N,12125.5929,E,1,00,00015.079,M 
$GPGGA,230351.000,3101.7595,N,12125.5929,E,1,00,00015.941,M 
$GPGGA,230352.000,3101.7597,N,12125.5929,E,1,00,00015.941,M 
$GPGGA,230352.000,3101.7599,N,12125.5929,E,1,00,00017.413,M 
$GPGGA,230353.000,3101.7600,N,12125.5930,E,1,00,00017.559,M 
$GPGGA,230354.000,3101.7601,N,12125.5933,E,1,00,00017.559,M 
$GPGGA,230354.000,3101.7601,N,12125.5935,E,1,00,00017.825,M 
$GPGGA,230355.000,3101.7601,N,12125.5933,E,1,00,00011.774,M 
$GPGGA,230403.000,3101.7607,N,12125.5929,E,1,00,00012.087,M 
$GPGGA,230404.000,3101.7611,N,12125.5924,E,1,00,00012.088,M 
$GPGGA,230404.000,3101.7614,N,12125.5920,E,1,00,00011.188,M 
$GPGGA,230405.000,3101.7614,N,12125.5918,E,1,00,00011.233,M 
$GPGGA,230406.000,3101.7614,N,12125.5918,E,1,00,00011.233,M 
$GPGGA,230406.000,3101.7614,N,12125.5917,E,1,00,00011.078,M 
$GPGGA,230407.000,3101.7614,N,12125.5918,E,1,00,00011.078,M 
$GPGGA,230407.000,3101.7614,N,12125.5920,E,1,00,00011.238,M 
$GPGGA,230408.000,3101.7614,N,12125.5921,E,1,00,00011.238,M 
$GPGGA,230408.000,3101.7615,N,12125.5923,E,1,00,00013.025,M 
$GPGGA,230409.000,3101.7615,N,12125.5924,E,1,00,00013.025,M 
$GPGGA,230409.000,3101.7615,N,12125.5924,E,1,00,00016.273,M 
$GPGGA,230410.000,3101.7615,N,12125.5925,E,1,00,00019.796,M 
$GPGGA,230411.000,3101.7615,N,12125.5928,E,1,00,00019.796,M 
$GPGGA,230411.000,3101.7616,N,12125.5930,E,1,00,00021.497,M 
$GPGGA,230412.000,3101.7620,N,12125.5930,E,1,00,00014.772,M 
$GPGGA,230422.000,3101.7631,N,12125.5935,E,1,00,00014.772,M 
$GPGGA,230422.000,3101.7641,N,12125.5938,E,1,00,00015.324,M 
$GPGGA,230423.000,3101.7650,N,12125.5941,E,1,00,00014.822,M 
$GPGGA,230424.000,3101.7656,N,12125.5942,E,1,00,00014.822,M 
$GPGGA,230424.000,3101.7661,N,12125.5942,E,1,00,00013.794,M 
$GPGGA,230425.000,3101.7663,N,12125.5944,E,1,00,00008.677,M 
$GPGGA,230426.000,3101.7663,N,12125.5959,E,1,00,00008.677,M 
$GPGGA,230426.000,3101.7662,N,12125.5974,E,1,00,00000.620,M 
$GPGGA,230427.000,3101.7660,N,12125.6003,E,1,00,00000.619,M 
$GPGGA,230427.000,3101.7658,N,12125.6029,E,1,00,-0002.165,M 
$GPGGA,230428.000,3101.7656,N,12125.6055,E,1,00,-0002.615,M 
$GPGGA,230429.000,3101.7656,N,12125.6080,E,1,00,-0002.616,M 
$GPGGA,230429.000,3101.7656,N,12125.6098,E,1,00,-0004.113,M 
$GPGGA,230430.000,3101.7656,N,12125.6114,E,1,00,-0004.113,M 
$GPGGA,230430.000,3101.7656,N,12125.6126,E,1,00,00000.681,M 
$GPGGA,230431.000,3101.7658,N,12125.6131,E,1,00,00012.022,M 
$GPGGA,230432.000,3101.7664,N,12125.6130,E,1,00,00012.022,M 
$GPGGA,230432.000,3101.7670,N,12125.6126,E,1,00,00014.265,M 
$GPGGA,230433.000,3101.7676,N,12125.6123,E,1,00,00014.265,M 
$GPGGA,230433.000,3101.7680,N,12125.6120,E,1,00,00014.771,M 
$GPGGA,230434.000,3101.7684,N,12125.6121,E,1,00,00016.232,M 
$GPGGA,230435.000,3101.7686,N,12125.6124,E,1,00,00016.232,M 
$GPGGA,230435.000,3101.7687,N,12125.6127,E,1,00,00015.624,M 
$GPGGA,230436.000,3101.7684,N,12125.6129,E,1,00,00015.624,M 
$GPGGA,230436.000,3101.7680,N,12125.6131,E,1,00,00016.089,M 
$GPGGA,230437.000,3101.7676,N,12125.6131,E,1,00,00016.089,M 
$GPGGA,230437.000,3101.7673,N,12125.6131,E,1,00,00012.357,M 
$GPGGA,230438.000,3101.7672,N,12125.6132,E,1,00,00012.520,M 
$GPGGA,230439.000,3101.7673,N,12125.6132,E,1,00,00012.520,M 
$GPGGA,230439.000,3101.7674,N,12125.6132,E,1,00,00011.240,M 
$GPGGA,230440.000,3101.7676,N,12125.6133,E,1,00,00011.240,M 
$GPGGA,230440.000,3101.7677,N,12125.6134,E,1,00,00011.940,M 
$GPGGA,230441.000,3101.7680,N,12125.6134,E,1,00,00010.622,M 
$GPGGA,230442.000,3101.7681,N,12125.6135,E,1,00,00010.622,M 
$GPGGA,230442.000,3101.7682,N,12125.6137,E,1,00,00009.753,M 
$GPGGA,230443.000,3101.7683,N,12125.6138,E,1,00,00009.753,M 
$GPGGA,230443.000,3101.7684,N,12125.6138,E,1,00,00008.297,M 
$GPGGA,230444.000,3101.7685,N,12125.6140,E,1,00,00008.862,M 
$GPGGA,230445.000,3101.7687,N,12125.6145,E,1,00,00008.862,M 
$GPGGA,230445.000,3101.7690,N,12125.6150,E,1,00,00008.925,M 
$GPGGA,230446.000,3101.7693,N,12125.6154,E,1,00,00009.186,M 
$GPGGA,230447.000,3101.7698,N,12125.6158,E,1,00,00009.186,M 
$GPGGA,230447.000,3101.7703,N,12125.6162,E,1,00,00010.141,M 
$GPGGA,230448.000,3101.7708,N,12125.6165,E,1,00,00010.141,M 
$GPGGA,230448.000,3101.7713,N,12125.6168,E,1,00,00022.685,M 
$GPGGA,230449.000,3101.7721,N,12125.6170,E,1,00,00022.686,M 
$GPGGA,230449.000,3101.7728,N,12125.6171,E,1,00,00022.252,M 
$GPGGA,230450.000,3101.7733,N,12125.6174,E,1,00,00019.177,M 
$GPGGA,230451.000,3101.7733,N,12125.6179,E,1,00,00019.177,M 
$GPGGA,230451.000,3101.7730,N,12125.6185,E,1,00,00016.222,M 
$GPGGA,230452.000,3101.7728,N,12125.6194,E,1,00,00016.222,M 
$GPGGA,230452.000,3101.7727,N,12125.6203,E,1,00,00013.828,M 
$GPGGA,230453.000,3101.7729,N,12125.6213,E,1,00,00011.917,M 
$GPGGA,230454.000,3101.7732,N,12125.6226,E,1,00,00011.917,M 
$GPGGA,230454.000,3101.7735,N,12125.6236,E,1,00,00011.073,M 
$GPGGA,230455.000,3101.7739,N,12125.6248,E,1,00,00011.073,M 
$GPGGA,230455.000,3101.7741,N,12125.6257,E,1,00,00008.817,M 
$GPGGA,230456.000,3101.7742,N,12125.6270,E,1,00,00008.817,M 
$GPGGA,230456.000,3101.7742,N,12125.6280,E,1,00,00004.574,M 
$GPGGA,230457.000,3101.7741,N,12125.6293,E,1,00,00007.503,M 
$GPGGA,230458.000,3101.7739,N,12125.6306,E,1,00,00007.502,M 
$GPGGA,230458.000,3101.7736,N,12125.6317,E,1,00,00006.616,M 
$GPGGA,230459.000,3101.7733,N,12125.6326,E,1,00,00006.616,M 
$GPGGA,230459.000,3101.7731,N,12125.6332,E,1,00,00009.984,M 
$GPGGA,230500.000,3101.7729,N,12125.6340,E,1,00,00009.984,M 
$GPGGA,230500.000,3101.7729,N,12125.6345,E,1,00,00013.262,M 
$GPGGA,230501.000,3101.7726,N,12125.6351,E,1,00,00011.643,M 
$GPGGA,230502.000,3101.7720,N,12125.6357,E,1,00,00011.643,M 
$GPGGA,230502.000,3101.7715,N,12125.6362,E,1,00,00012.854,M 
$GPGGA,230503.000,3101.7714,N,12125.6367,E,1,00,00012.854,M 
$GPGGA,230503.000,3101.7714,N,12125.6371,E,1,00,00016.091,M 
$GPGGA,230504.000,3101.7715,N,12125.6375,E,1,00,00016.091,M 
$GPGGA,230504.000,3101.7716,N,12125.6378,E,1,00,00015.785,M 
$GPGGA,230505.000,3101.7717,N,12125.6381,E,1,00,00015.785,M 
$GPGGA,230505.000,3101.7717,N,12125.6382,E,1,00,00017.716,M 
$GPGGA,230506.000,3101.7721,N,12125.6385,E,1,00,00019.940,M 
$GPGGA,230507.000,3101.7727,N,12125.6389,E,1,00,00019.940,M 
$GPGGA,230507.000,3101.7732,N,12125.6392,E,1,00,00018.699,M 
$GPGGA,230508.000,3101.7736,N,12125.6397,E,1,00,00018.699,M 
$GPGGA,230508.000,3101.7739,N,12125.6401,E,1,00,00022.212,M 
$GPGGA,230509.000,3101.7746,N,12125.6405,E,1,00,00020.720,M 
$GPGGA,230510.000,3101.7753,N,12125.6409,E,1,00,00020.720,M 
$GPGGA,230510.000,3101.7759,N,12125.6412,E,1,00,00021.938,M 
$GPGGA,230511.000,3101.7763,N,12125.6416,E,1,00,00021.938,M 
$GPGGA,230511.000,3101.7765,N,12125.6419,E,1,00,00020.777,M 
$GPGGA,230512.000,3101.7765,N,12125.6425,E,1,00,00020.777,M 
$GPGGA,230512.000,3101.7764,N,12125.6430,E,1,00,00017.663,M 
$GPGGA,230513.000,3101.7761,N,12125.6437,E,1,00,00015.640,M 
$GPGGA,230514.000,3101.7754,N,12125.6447,E,1,00,00015.640,M 
$GPGGA,230514.000,3101.7749,N,12125.6455,E,1,00,00016.443,M 
$GPGGA,230515.000,3101.7744,N,12125.6463,E,1,00,00016.443,M 
$GPGGA,230515.000,3101.7741,N,12125.6468,E,1,00,00016.098,M 
$GPGGA,230516.000,3101.7741,N,12125.6472,E,1,00,00014.099,M 
$GPGGA,230517.000,3101.7743,N,12125.6477,E,1,00,00014.099,M 
$GPGGA,230517.000,3101.7746,N,12125.6481,E,1,00,00012.200,M 
$GPGGA,230518.000,3101.7749,N,12125.6485,E,1,00,00012.200,M 
$GPGGA,230518.000,3101.7752,N,12125.6488,E,1,00,00011.453,M 
$GPGGA,230519.000,3101.7753,N,12125.6490,E,1,00,00011.281,M 
$GPGGA,230520.000,3101.7756,N,12125.6496,E,1,00,00011.281,M 
$GPGGA,230520.000,3101.7758,N,12125.6501,E,1,00,00011.003,M 
$GPGGA,230521.000,3101.7757,N,12125.6506,E,1,00,00011.003,M 
$GPGGA,230521.000,3101.7756,N,12125.6510,E,1,00,00011.057,M 
$GPGGA,230522.000,3101.7756,N,12125.6513,E,1,00,00011.057,M 
$GPGGA,230522.000,3101.7757,N,12125.6516,E,1,00,00008.765,M 
$GPGGA,230523.000,3101.7759,N,12125.6517,E,1,00,00009.438,M 
$GPGGA,230524.000,3101.7760,N,12125.6522,E,1,00,00009.438,M 
$GPGGA,230524.000,3101.7760,N,12125.6527,E,1,00,00009.584,M 
$GPGGA,230525.000,3101.7761,N,12125.6534,E,1,00,00009.584,M 
$GPGGA,230525.000,3101.7761,N,12125.6540,E,1,00,00010.841,M 
$GPGGA,230526.000,3101.7763,N,12125.6545,E,1,00,00010.840,M 
$GPGGA,230526.000,3101.7764,N,12125.6548,E,1,00,00010.844,M 
$GPGGA,230527.000,3101.7766,N,12125.6555,E,1,00,00010.224,M 
$GPGGA,230528.000,3101.7768,N,12125.6564,E,1,00,00010.224,M 
$GPGGA,230528.000,3101.7770,N,12125.6571,E,1,00,00008.991,M 
$GPGGA,230529.000,3101.7773,N,12125.6576,E,1,00,00008.991,M 
$GPGGA,230529.000,3101.7776,N,12125.6580,E,1,00,00011.199,M 
$GPGGA,230530.000,3101.7778,N,12125.6584,E,1,00,00010.731,M 
$GPGGA,230531.000,3101.7780,N,12125.6590,E,1,00,00010.731,M 
$GPGGA,230531.000,3101.7781,N,12125.6594,E,1,00,00011.898,M 
$GPGGA,230532.000,3101.7782,N,12125.6599,E,1,00,00011.898,M 
$GPGGA,230532.000,3101.7782,N,12125.6602,E,1,00,00011.246,M 
$GPGGA,230533.000,3101.7782,N,12125.6606,E,1,00,00011.246,M 
$GPGGA,230533.000,3101.7783,N,12125.6610,E,1,00,00010.925,M 
$GPGGA,230534.000,3101.7784,N,12125.6613,E,1,00,00010.328,M 
$GPGGA,230535.000,3101.7785,N,12125.6620,E,1,00,00010.328,M 
$GPGGA,230535.000,3101.7787,N,12125.6625,E,1,00,00009.512,M 
$GPGGA,230536.000,3101.7789,N,12125.6629,E,1,00,00009.512,M 
$GPGGA,230536.000,3101.7790,N,12125.6630,E,1,00,00010.904,M 
$GPGGA,230537.000,3101.7790,N,12125.6636,E,1,00,00010.904,M 
$GPGGA,230537.000,3101.7789,N,12125.6643,E,1,00,00011.436,M 
$GPGGA,230538.000,3101.7788,N,12125.6651,E,1,00,00010.622,M 
$GPGGA,230539.000,3101.7789,N,12125.6658,E,1,00,00010.622,M 
$GPGGA,230539.000,3101.7790,N,12125.6663,E,1,00,00009.581,M 
$GPGGA,230540.000,3101.7793,N,12125.6668,E,1,00,00009.581,M 
$GPGGA,230540.000,3101.7797,N,12125.6671,E,1,00,00009.161,M 
$GPGGA,230541.000,3101.7800,N,12125.6674,E,1,00,00009.233,M 
$GPGGA,230542.000,3101.7805,N,12125.6679,E,1,00,00009.233,M 
$GPGGA,230542.000,3101.7809,N,12125.6683,E,1,00,00008.106,M 
$GPGGA,230543.000,3101.7813,N,12125.6688,E,1,00,00008.106,M 
$GPGGA,230543.000,3101.7815,N,12125.6692,E,1,00,00008.797,M 
$GPGGA,230544.000,3101.7816,N,12125.6695,E,1,00,00008.797,M 
$GPGGA,230544.000,3101.7816,N,12125.6698,E,1,00,00009.132,M 
$GPGGA,230545.000,3101.7815,N,12125.6702,E,1,00,00009.824,M 
$GPGGA,230546.000,3101.7813,N,12125.6707,E,1,00,00009.824,M 
$GPGGA,230546.000,3101.7812,N,12125.6712,E,1,00,00009.261,M 
$GPGGA,230547.000,3101.7812,N,12125.6718,E,1,00,00009.260,M 
$GPGGA,230547.000,3101.7814,N,12125.6724,E,1,00,00010.149,M 
$GPGGA,230548.000,3101.7817,N,12125.6731,E,1,00,00010.149,M 
$GPGGA,230548.000,3101.7819,N,12125.6738,E,1,00,00009.205,M 
$GPGGA,230549.000,3101.7821,N,12125.6744,E,1,00,00008.860,M 
$GPGGA,230550.000,3101.7823,N,12125.6752,E,1,00,00008.860,M 
$GPGGA,230550.000,3101.7825,N,12125.6758,E,1,00,00009.001,M 
$GPGGA,230551.000,3101.7827,N,12125.6763,E,1,00,00009.001,M 
$GPGGA,230551.000,3101.7828,N,12125.6767,E,1,00,00009.263,M 
$GPGGA,230552.000,3101.7831,N,12125.6771,E,1,00,00009.263,M 
$GPGGA,230552.000,3101.7834,N,12125.6773,E,1,00,00010.996,M 
$GPGGA,230553.000,3101.7835,N,12125.6777,E,1,00,00010.068,M 
$GPGGA,230554.000,3101.7838,N,12125.6781,E,1,00,00010.068,M 
$GPGGA,230554.000,3101.7840,N,12125.6784,E,1,00,00009.474,M 
$GPGGA,230555.000,3101.7841,N,12125.6789,E,1,00,00009.474,M 
$GPGGA,230555.000,3101.7841,N,12125.6793,E,1,00,00011.016,M 
$GPGGA,230556.000,3101.7839,N,12125.6798,E,1,00,00010.892,M 
$GPGGA,230557.000,3101.7838,N,12125.6804,E,1,00,00010.892,M 
$GPGGA,230557.000,3101.7838,N,12125.6809,E,1,00,00010.487,M 
$GPGGA,230558.000,3101.7837,N,12125.6812,E,1,00,00010.487,M 
$GPGGA,230558.000,3101.7836,N,12125.6814,E,1,00,00011.206,M 
$GPGGA,230559.000,3101.7836,N,12125.6817,E,1,00,00011.206,M 
$GPGGA,230559.000,3101.7835,N,12125.6820,E,1,00,00010.639,M 
$GPGGA,230600.000,3101.7836,N,12125.6825,E,1,00,00009.582,M 
$GPGGA,230601.000,3101.7839,N,12125.6831,E,1,00,00009.582,M 
$GPGGA,230601.000,3101.7841,N,12125.6835,E,1,00,00011.397,M 
$GPGGA,230602.000,3101.7844,N,12125.6840,E,1,00,00011.397,M 
$GPGGA,230602.000,3101.7847,N,12125.6842,E,1,00,00011.255,M 
$GPGGA,230603.000,3101.7849,N,12125.6845,E,1,00,00011.255,M 
$GPGGA,230603.000,3101.7851,N,12125.6847,E,1,00,00011.114,M 
$GPGGA,230604.000,3101.7852,N,12125.6852,E,1,00,00010.956,M 
$GPGGA,230605.000,3101.7855,N,12125.6857,E,1,00,00010.956,M 
$GPGGA,230605.000,3101.7857,N,12125.6861,E,1,00,00011.119,M 
$GPGGA,230606.000,3101.7860,N,12125.6865,E,1,00,00011.119,M 
$GPGGA,230606.000,3101.7861,N,12125.6869,E,1,00,00010.783,M 
$GPGGA,230607.000,3101.7861,N,12125.6874,E,1,00,00010.783,M 
