$GPGGA,223536.000,3101.4312,N,12126.2390,E,1,00,00015.102,M 
$GPGGA,223601.000,3101.4313,N,12126.2394,E,1,00,00021.677,M 
$GPGGA,223602.000,3101.4313,N,12126.2399,E,1,00,00021.677,M 
$GPGGA,223602.000,3101.4313,N,12126.2403,E,1,00,00018.439,M 
$GPGGA,223603.000,3101.4313,N,12126.2408,E,1,00,00018.439,M 
$GPGGA,223603.000,3101.4314,N,12126.2412,E,1,00,00021.748,M 
$GPGGA,223604.000,3101.4314,N,12126.2417,E,1,00,00021.748,M 
$GPGGA,223604.000,3101.4314,N,12126.2421,E,1,00,00018.038,M 
$GPGGA,223605.000,3101.4315,N,12126.2425,E,1,00,00020.777,M 
$GPGGA,223606.000,3101.4315,N,12126.2431,E,1,00,00020.777,M 
$GPGGA,223606.000,3101.4315,N,12126.2436,E,1,00,00019.205,M 
$GPGGA,223607.000,3101.4316,N,12126.2441,E,1,00,00019.205,M 
$GPGGA,223607.000,3101.4317,N,12126.2446,E,1,00,00015.293,M 
$GPGGA,223608.000,3101.4318,N,12126.2451,E,1,00,00015.293,M 
$GPGGA,223608.000,3101.4319,N,12126.2456,E,1,00,00014.220,M 
$GPGGA,223609.000,3101.4320,N,12126.2461,E,1,00,00013.650,M 
$GPGGA,223610.000,3101.4321,N,12126.2466,E,1,00,00013.650,M 
$GPGGA,223610.000,3101.4322,N,12126.2471,E,1,00,00013.969,M 
$GPGGA,223611.000,3101.4323,N,12126.2475,E,1,00,00013.969,M 
$GPGGA,223611.000,3101.4323,N,12126.2480,E,1,00,00012.437,M 
$GPGGA,223612.000,3101.4324,N,12126.2485,E,1,00,00012.437,M 
$GPGGA,223612.000,3101.4325,N,12126.2489,E,1,00,00012.113,M 
$GPGGA,223613.000,3101.4326,N,12126.2494,E,1,00,00012.113,M 
$GPGGA,223613.000,3101.4327,N,12126.2499,E,1,00,00013.205,M 
$GPGGA,223614.000,3101.4328,N,12126.2503,E,1,00,00012.296,M 
$GPGGA,223615.000,3101.4330,N,12126.2508,E,1,00,00012.296,M 
$GPGGA,223615.000,3101.4331,N,12126.2513,E,1,00,00012.545,M 
$GPGGA,223616.000,3101.4332,N,12126.2517,E,1,00,00012.545,M 
$GPGGA,223616.000,3101.4334,N,12126.2522,E,1,00,00012.690,M 
$GPGGA,223617.000,3101.4335,N,12126.2526,E,1,00,00012.690,M 
$GPGGA,223617.000,3101.4337,N,12126.2531,E,1,00,00013.648,M 
$GPGGA,223618.000,3101.4338,N,12126.2536,E,1,00,00013.648,M 
$GPGGA,223618.000,3101.4340,N,12126.2540,E,1,00,00014.198,M 
$GPGGA,223619.000,3101.4342,N,12126.2544,E,1,00,00015.264,M 
$GPGGA,223620.000,3101.4343,N,12126.2549,E,1,00,00015.264,M 
$GPGGA,223620.000,3101.4345,N,12126.2553,E,1,00,00015.495,M 
$GPGGA,223621.000,3101.4347,N,12126.2558,E,1,00,00015.495,M 
$GPGGA,223621.000,3101.4349,N,12126.2562,E,1,00,00016.551,M 
$GPGGA,223622.000,3101.4351,N,12126.2566,E,1,00,00016.551,M 
$GPGGA,223622.000,3101.4352,N,12126.2570,E,1,00,00016.552,M 
$GPGGA,223623.000,3101.4354,N,12126.2574,E,1,00,00015.984,M 
$GPGGA,223624.000,3101.4355,N,12126.2579,E,1,00,00015.984,M 
$GPGGA,223624.000,3101.4356,N,12126.2583,E,1,00,00015.236,M 
$GPGGA,223625.000,3101.4357,N,12126.2588,E,1,00,00015.236,M 
$GPGGA,223625.000,3101.4358,N,12126.2592,E,1,00,00014.225,M 
$GPGGA,223626.000,3101.4359,N,12126.2597,E,1,00,00014.225,M 
$GPGGA,223626.000,3101.4359,N,12126.2602,E,1,00,00015.280,M 
$GPGGA,223627.000,3101.4360,N,12126.2606,E,1,00,00015.280,M 
$GPGGA,223627.000,3101.4361,N,12126.2610,E,1,00,00015.213,M 
$GPGGA,223628.000,3101.4362,N,12126.2615,E,1,00,00016.190,M 
$GPGGA,223629.000,3101.4363,N,12126.2619,E,1,00,00016.190,M 
$GPGGA,223629.000,3101.4364,N,12126.2623,E,1,00,00016.308,M 
$GPGGA,223630.000,3101.4365,N,12126.2627,E,1,00,00016.308,M 
$GPGGA,223630.000,3101.4367,N,12126.2632,E,1,00,00015.818,M 
$GPGGA,223631.000,3101.4368,N,12126.2636,E,1,00,00015.818,M 
$GPGGA,223631.000,3101.4369,N,12126.2640,E,1,00,00015.532,M 
$GPGGA,223632.000,3101.4371,N,12126.2643,E,1,00,00015.532,M 
$GPGGA,223632.000,3101.4373,N,12126.2647,E,1,00,00015.931,M 
$GPGGA,223633.000,3101.4374,N,12126.2651,E,1,00,00014.974,M 
$GPGGA,223634.000,3101.4376,N,12126.2655,E,1,00,00014.974,M 
$GPGGA,223634.000,3101.4378,N,12126.2659,E,1,00,00016.014,M 
$GPGGA,223635.000,3101.4380,N,12126.2663,E,1,00,00016.014,M 
$GPGGA,223635.000,3101.4381,N,12126.2667,E,1,00,00014.404,M 
$GPGGA,223636.000,3101.4383,N,12126.2671,E,1,00,00014.404,M 
$GPGGA,223636.000,3101.4385,N,12126.2675,E,1,00,00014.506,M 
$GPGGA,223637.000,3101.4386,N,12126.2680,E,1,00,00015.928,M 
$GPGGA,223638.000,3101.4388,N,12126.2684,E,1,00,00015.928,M 
$GPGGA,223638.000,3101.4390,N,12126.2688,E,1,00,00015.192,M 
$GPGGA,223639.000,3101.4391,N,12126.2693,E,1,00,00015.192,M 
$GPGGA,223639.000,3101.4393,N,12126.2697,E,1,00,00014.994,M 
$GPGGA,223640.000,3101.4395,N,12126.2701,E,1,00,00014.994,M 
$GPGGA,223640.000,3101.4397,N,12126.2705,E,1,00,00014.947,M 
$GPGGA,223641.000,3101.4399,N,12126.2709,E,1,00,00014.947,M 
$GPGGA,223641.000,3101.4401,N,12126.2713,E,1,00,00013.920,M 
$GPGGA,223642.000,3101.4402,N,12126.2717,E,1,00,00013.273,M 
$GPGGA,223643.000,3101.4404,N,12126.2722,E,1,00,00013.273,M 
$GPGGA,223643.000,3101.4406,N,12126.2727,E,1,00,00013.474,M 
$GPGGA,223644.000,3101.4408,N,12126.2731,E,1,00,00013.474,M 
$GPGGA,223644.000,3101.4410,N,12126.2736,E,1,00,00013.224,M 
$GPGGA,223645.000,3101.4412,N,12126.2740,E,1,00,00013.224,M 
$GPGGA,223645.000,3101.4414,N,12126.2744,E,1,00,00014.049,M 
$GPGGA,223646.000,3101.4416,N,12126.2749,E,1,00,00014.049,M 
$GPGGA,223646.000,3101.4418,N,12126.2753,E,1,00,00014.879,M 
$GPGGA,223647.000,3101.4420,N,12126.2757,E,1,00,00013.196,M 
$GPGGA,223648.000,3101.4422,N,12126.2761,E,1,00,00013.196,M 
$GPGGA,223648.000,3101.4424,N,12126.2765,E,1,00,00012.556,M 
$GPGGA,223649.000,3101.4426,N,12126.2769,E,1,00,00012.556,M 
$GPGGA,223649.000,3101.4428,N,12126.2773,E,1,00,00013.521,M 
$GPGGA,223650.000,3101.4430,N,12126.2777,E,1,00,00013.521,M 
$GPGGA,223650.000,3101.4432,N,12126.2781,E,1,00,00013.761,M 
$GPGGA,223651.000,3101.4434,N,12126.2785,E,1,00,00013.761,M 
$GPGGA,223651.000,3101.4436,N,12126.2789,E,1,00,00014.433,M 
$GPGGA,223652.000,3101.4438,N,12126.2792,E,1,00,00014.668,M 
$GPGGA,223653.000,3101.4440,N,12126.2796,E,1,00,00014.668,M 
$GPGGA,223653.000,3101.4443,N,12126.2800,E,1,00,00014.150,M 
$GPGGA,223654.000,3101.4445,N,12126.2804,E,1,00,00014.150,M 
$GPGGA,223654.000,3101.4447,N,12126.2808,E,1,00,00015.655,M 
$GPGGA,223655.000,3101.4449,N,12126.2812,E,1,00,00015.655,M 
$GPGGA,223655.000,3101.4451,N,12126.2816,E,1,00,00014.173,M 
$GPGGA,223656.000,3101.4453,N,12126.2821,E,1,00,00014.173,M 
$GPGGA,223656.000,3101.4454,N,12126.2825,E,1,00,00014.087,M 
$GPGGA,223657.000,3101.4456,N,12126.2829,E,1,00,00012.857,M 
$GPGGA,223658.000,3101.4457,N,12126.2833,E,1,00,00012.857,M 
$GPGGA,223658.000,3101.4459,N,12126.2838,E,1,00,00012.069,M 
$GPGGA,223659.000,3101.4460,N,12126.2842,E,1,00,00012.069,M 
$GPGGA,223659.000,3101.4461,N,12126.2847,E,1,00,00012.512,M 
$GPGGA,223700.000,3101.4462,N,12126.2851,E,1,00,00012.512,M 
$GPGGA,223700.000,3101.4464,N,12126.2856,E,1,00,00014.248,M 
$GPGGA,223701.000,3101.4465,N,12126.2860,E,1,00,00013.286,M 
$GPGGA,223702.000,3101.4466,N,12126.2865,E,1,00,00013.286,M 
$GPGGA,223702.000,3101.4468,N,12126.2870,E,1,00,00011.887,M 
$GPGGA,223703.000,3101.4469,N,12126.2874,E,1,00,00011.887,M 
$GPGGA,223703.000,3101.4470,N,12126.2879,E,1,00,00011.642,M 
$GPGGA,223704.000,3101.4471,N,12126.2884,E,1,00,00011.642,M 
$GPGGA,223704.000,3101.4472,N,12126.2888,E,1,00,00011.316,M 
$GPGGA,223705.000,3101.4473,N,12126.2893,E,1,00,00011.316,M 
$GPGGA,223705.000,3101.4474,N,12126.2898,E,1,00,00010.828,M 
$GPGGA,223706.000,3101.4475,N,12126.2902,E,1,00,00010.828,M 
$GPGGA,223706.000,3101.4476,N,12126.2907,E,1,00,00014.876,M 
$GPGGA,223707.000,3101.4478,N,12126.2910,E,1,00,00014.027,M 
$GPGGA,223708.000,3101.4480,N,12126.2914,E,1,00,00014.027,M 
$GPGGA,223708.000,3101.4482,N,12126.2918,E,1,00,00013.680,M 
$GPGGA,223709.000,3101.4484,N,12126.2921,E,1,00,00013.680,M 
$GPGGA,223709.000,3101.4486,N,12126.2925,E,1,00,00013.894,M 
$GPGGA,223710.000,3101.4489,N,12126.2929,E,1,00,00013.894,M 
$GPGGA,223710.000,3101.4491,N,12126.2932,E,1,00,00012.828,M 
$GPGGA,223711.000,3101.4493,N,12126.2936,E,1,00,00013.032,M 
$GPGGA,223712.000,3101.4495,N,12126.2940,E,1,00,00013.032,M 
$GPGGA,223712.000,3101.4498,N,12126.2944,E,1,00,00013.373,M 
$GPGGA,223713.000,3101.4499,N,12126.2948,E,1,00,00013.373,M 
$GPGGA,223713.000,3101.4501,N,12126.2952,E,1,00,00012.035,M 
$GPGGA,223714.000,3101.4502,N,12126.2957,E,1,00,00012.035,M 
$GPGGA,223714.000,3101.4503,N,12126.2962,E,1,00,00011.784,M 
$GPGGA,223715.000,3101.4504,N,12126.2966,E,1,00,00011.784,M 
$GPGGA,223715.000,3101.4505,N,12126.2971,E,1,00,00011.197,M 
$GPGGA,223716.000,3101.4505,N,12126.2976,E,1,00,00011.106,M 
$GPGGA,223717.000,3101.4506,N,12126.2981,E,1,00,00011.106,M 
$GPGGA,223717.000,3101.4507,N,12126.2985,E,1,00,00012.158,M 
$GPGGA,223718.000,3101.4507,N,12126.2990,E,1,00,00012.158,M 
$GPGGA,223718.000,3101.4508,N,12126.2994,E,1,00,00011.653,M 
$GPGGA,223719.000,3101.4509,N,12126.2999,E,1,00,00011.653,M 
$GPGGA,223719.000,3101.4509,N,12126.3003,E,1,00,00010.988,M 
$GPGGA,223720.000,3101.4510,N,12126.3007,E,1,00,00010.262,M 
$GPGGA,223721.000,3101.4511,N,12126.3011,E,1,00,00010.262,M 
$GPGGA,223721.000,3101.4512,N,12126.3015,E,1,00,00009.606,M 
$GPGGA,223722.000,3101.4513,N,12126.3018,E,1,00,00009.606,M 
$GPGGA,223722.000,3101.4514,N,12126.3022,E,1,00,00010.242,M 
$GPGGA,223723.000,3101.4516,N,12126.3026,E,1,00,00010.242,M 
$GPGGA,223723.000,3101.4517,N,12126.3031,E,1,00,00010.716,M 
$GPGGA,223724.000,3101.4518,N,12126.3035,E,1,00,00009.924,M 
$GPGGA,223725.000,3101.4519,N,12126.3039,E,1,00,00009.924,M 
$GPGGA,223725.000,3101.4521,N,12126.3042,E,1,00,00013.037,M 
$GPGGA,223726.000,3101.4522,N,12126.3046,E,1,00,00013.037,M 
$GPGGA,223726.000,3101.4523,N,12126.3050,E,1,00,00011.167,M 
$GPGGA,223727.000,3101.4525,N,12126.3054,E,1,00,00011.167,M 
$GPGGA,223727.000,3101.4526,N,12126.3057,E,1,00,00012.615,M 
$GPGGA,223728.000,3101.4527,N,12126.3061,E,1,00,00012.615,M 
$GPGGA,223728.000,3101.4528,N,12126.3065,E,1,00,00012.061,M 
$GPGGA,223729.000,3101.4529,N,12126.3069,E,1,00,00012.714,M 
$GPGGA,223730.000,3101.4531,N,12126.3074,E,1,00,00012.714,M 
$GPGGA,223730.000,3101.4532,N,12126.3078,E,1,00,00011.858,M 
$GPGGA,223731.000,3101.4534,N,12126.3082,E,1,00,00011.858,M 
$GPGGA,223731.000,3101.4535,N,12126.3087,E,1,00,00010.877,M 
$GPGGA,223732.000,3101.4536,N,12126.3091,E,1,00,00010.877,M 
$GPGGA,223732.000,3101.4537,N,12126.3096,E,1,00,00010.119,M 
$GPGGA,223733.000,3101.4538,N,12126.3100,E,1,00,00009.251,M 
$GPGGA,223734.000,3101.4539,N,12126.3105,E,1,00,00009.251,M 
$GPGGA,223734.000,3101.4540,N,12126.3110,E,1,00,00008.963,M 
$GPGGA,223735.000,3101.4541,N,12126.3115,E,1,00,00008.963,M 
$GPGGA,223735.000,3101.4543,N,12126.3120,E,1,00,00010.163,M 
$GPGGA,223736.000,3101.4544,N,12126.3125,E,1,00,00010.163,M 
$GPGGA,223736.000,3101.4545,N,12126.3129,E,1,00,00008.776,M 
$GPGGA,223737.000,3101.4546,N,12126.3134,E,1,00,00009.200,M 
$GPGGA,223738.000,3101.4548,N,12126.3139,E,1,00,00009.200,M 
$GPGGA,223738.000,3101.4550,N,12126.3143,E,1,00,00009.007,M 
$GPGGA,223739.000,3101.4551,N,12126.3147,E,1,00,00009.007,M 
$GPGGA,223739.000,3101.4553,N,12126.3152,E,1,00,00008.504,M 
$GPGGA,223740.000,3101.4555,N,12126.3155,E,1,00,00008.504,M 
$GPGGA,223740.000,3101.4557,N,12126.3159,E,1,00,00010.072,M 
$GPGGA,223741.000,3101.4559,N,12126.3163,E,1,00,00009.954,M 
$GPGGA,223742.000,3101.4561,N,12126.3167,E,1,00,00009.954,M 
$GPGGA,223742.000,3101.4563,N,12126.3171,E,1,00,00010.258,M 
$GPGGA,223743.000,3101.4564,N,12126.3175,E,1,00,00010.258,M 
$GPGGA,223743.000,3101.4566,N,12126.3179,E,1,00,00010.261,M 
$GPGGA,223744.000,3101.4568,N,12126.3183,E,1,00,00010.261,M 
$GPGGA,223744.000,3101.4570,N,12126.3187,E,1,00,00010.452,M 
$GPGGA,223745.000,3101.4571,N,12126.3191,E,1,00,00010.452,M 
$GPGGA,223745.000,3101.4572,N,12126.3195,E,1,00,00010.028,M 
$GPGGA,223746.000,3101.4573,N,12126.3200,E,1,00,00008.800,M 
$GPGGA,223747.000,3101.4574,N,12126.3205,E,1,00,00008.800,M 
$GPGGA,223747.000,3101.4575,N,12126.3209,E,1,00,00007.136,M 
$GPGGA,223748.000,3101.4577,N,12126.3214,E,1,00,00007.136,M 
$GPGGA,223748.000,3101.4578,N,12126.3219,E,1,00,00007.361,M 
$GPGGA,223749.000,3101.4579,N,12126.3224,E,1,00,00007.361,M 
$GPGGA,223749.000,3101.4580,N,12126.3229,E,1,00,00005.850,M 
$GPGGA,223750.000,3101.4582,N,12126.3234,E,1,00,00005.485,M 
$GPGGA,223751.000,3101.4583,N,12126.3239,E,1,00,00005.485,M 
$GPGGA,223751.000,3101.4585,N,12126.3244,E,1,00,00006.023,M 
$GPGGA,223752.000,3101.4586,N,12126.3248,E,1,00,00006.023,M 
$GPGGA,223752.000,3101.4588,N,12126.3253,E,1,00,00006.041,M 
$GPGGA,223753.000,3101.4589,N,12126.3257,E,1,00,00006.041,M 
$GPGGA,223753.000,3101.4591,N,12126.3261,E,1,00,00007.023,M 
$GPGGA,223754.000,3101.4592,N,12126.3266,E,1,00,00009.193,M 
$GPGGA,223755.000,3101.4594,N,12126.3270,E,1,00,00009.193,M 
$GPGGA,223755.000,3101.4595,N,12126.3275,E,1,00,00010.002,M 
$GPGGA,223756.000,3101.4596,N,12126.3279,E,1,00,00010.002,M 
$GPGGA,223756.000,3101.4597,N,12126.3283,E,1,00,00008.215,M 
$GPGGA,223757.000,3101.4599,N,12126.3287,E,1,00,00008.215,M 
$GPGGA,223757.000,3101.4600,N,12126.3291,E,1,00,00010.471,M 
$GPGGA,223758.000,3101.4601,N,12126.3295,E,1,00,00010.297,M 
$GPGGA,223759.000,3101.4602,N,12126.3300,E,1,00,00010.297,M 
$GPGGA,223759.000,3101.4603,N,12126.3305,E,1,00,00010.058,M 
$GPGGA,223800.000,3101.4604,N,12126.3309,E,1,00,00010.058,M 
$GPGGA,223800.000,3101.4605,N,12126.3314,E,1,00,00009.670,M 
$GPGGA,223801.000,3101.4605,N,12126.3319,E,1,00,00009.670,M 
$GPGGA,223801.000,3101.4606,N,12126.3324,E,1,00,00009.754,M 
$GPGGA,223802.000,3101.4607,N,12126.3328,E,1,00,00011.074,M 
$GPGGA,223803.000,3101.4607,N,12126.3332,E,1,00,00011.074,M 
$GPGGA,223803.000,3101.4608,N,12126.3334,E,1,00,00000.488,M 
$GPGGA,223839.000,3101.4610,N,12126.3339,E,1,00,00002.753,M 
$GPGGA,223840.000,3101.4612,N,12126.3343,E,1,00,00002.753,M 
$GPGGA,223840.000,3101.4615,N,12126.3346,E,1,00,00004.717,M 
$GPGGA,223841.000,3101.4617,N,12126.3350,E,1,00,00004.717,M 
$GPGGA,223841.000,3101.4619,N,12126.3354,E,1,00,00004.495,M 
$GPGGA,223842.000,3101.4621,N,12126.3359,E,1,00,00004.495,M 
$GPGGA,223842.000,3101.4623,N,12126.3363,E,1,00,00007.131,M 
$GPGGA,223843.000,3101.4625,N,12126.3367,E,1,00,00007.131,M 
$GPGGA,223843.000,3101.4626,N,12126.3372,E,1,00,00007.853,M 
$GPGGA,223844.000,3101.4628,N,12126.3376,E,1,00,00009.185,M 
$GPGGA,223845.000,3101.4630,N,12126.3380,E,1,00,00009.185,M 
$GPGGA,223845.000,3101.4631,N,12126.3385,E,1,00,00008.934,M 
$GPGGA,223846.000,3101.4634,N,12126.3389,E,1,00,00008.934,M 
$GPGGA,223846.000,3101.4635,N,12126.3393,E,1,00,00010.174,M 
$GPGGA,223847.000,3101.4637,N,12126.3397,E,1,00,00010.174,M 
$GPGGA,223847.000,3101.4639,N,12126.3401,E,1,00,00010.921,M 
$GPGGA,223848.000,3101.4641,N,12126.3405,E,1,00,00010.921,M 
$GPGGA,223848.000,3101.4643,N,12126.3409,E,1,00,00010.888,M 
$GPGGA,223849.000,3101.4645,N,12126.3412,E,1,00,00011.232,M 
$GPGGA,223850.000,3101.4646,N,12126.3417,E,1,00,00011.232,M 
$GPGGA,223850.000,3101.4648,N,12126.3421,E,1,00,00011.264,M 
$GPGGA,223851.000,3101.4649,N,12126.3425,E,1,00,00011.264,M 
$GPGGA,223851.000,3101.4650,N,12126.3428,E,1,00,00011.085,M 
$GPGGA,223852.000,3101.4651,N,12126.3432,E,1,00,00011.085,M 
$GPGGA,223852.000,3101.4652,N,12126.3436,E,1,00,00010.792,M 
$GPGGA,223853.000,3101.4654,N,12126.3440,E,1,00,00010.792,M 
$GPGGA,223853.000,3101.4655,N,12126.3444,E,1,00,00010.600,M 
$GPGGA,223854.000,3101.4656,N,12126.3448,E,1,00,00011.251,M 
$GPGGA,223855.000,3101.4658,N,12126.3453,E,1,00,00011.251,M 
$GPGGA,223855.000,3101.4659,N,12126.3458,E,1,00,00010.418,M 
$GPGGA,223856.000,3101.4661,N,12126.3462,E,1,00,00010.418,M 
$GPGGA,223856.000,3101.4662,N,12126.3467,E,1,00,00010.677,M 
$GPGGA,223857.000,3101.4664,N,12126.3472,E,1,00,00010.677,M 
$GPGGA,223857.000,3101.4665,N,12126.3477,E,1,00,00011.321,M 
$GPGGA,223858.000,3101.4666,N,12126.3482,E,1,00,00011.321,M 
$GPGGA,223858.000,3101.4667,N,12126.3486,E,1,00,00011.968,M 
$GPGGA,223859.000,3101.4668,N,12126.3491,E,1,00,00011.719,M 
$GPGGA,223900.000,3101.4670,N,12126.3496,E,1,00,00011.719,M 
$GPGGA,223900.000,3101.4671,N,12126.3500,E,1,00,00012.404,M 
$GPGGA,223901.000,3101.4672,N,12126.3505,E,1,00,00012.404,M 
$GPGGA,223901.000,3101.4673,N,12126.3510,E,1,00,00011.414,M 
$GPGGA,223902.000,3101.4674,N,12126.3515,E,1,00,00011.414,M 
$GPGGA,223902.000,3101.4676,N,12126.3519,E,1,00,00010.459,M 
$GPGGA,223903.000,3101.4677,N,12126.3524,E,1,00,00010.459,M 
$GPGGA,223903.000,3101.4679,N,12126.3529,E,1,00,00009.263,M 
$GPGGA,223904.000,3101.4680,N,12126.3533,E,1,00,00010.592,M 
$GPGGA,223905.000,3101.4682,N,12126.3538,E,1,00,00010.592,M 
$GPGGA,223905.000,3101.4684,N,12126.3543,E,1,00,00009.694,M 
$GPGGA,223906.000,3101.4685,N,12126.3548,E,1,00,00009.694,M 
$GPGGA,223906.000,3101.4687,N,12126.3552,E,1,00,00009.079,M 
$GPGGA,223907.000,3101.4688,N,12126.3557,E,1,00,00009.079,M 
$GPGGA,223907.000,3101.4689,N,12126.3562,E,1,00,00008.846,M 
$GPGGA,223908.000,3101.4689,N,12126.3567,E,1,00,00008.846,M 
$GPGGA,223908.000,3101.4690,N,12126.3571,E,1,00,00009.327,M 
$GPGGA,223909.000,3101.4691,N,12126.3576,E,1,00,00008.707,M 
$GPGGA,223910.000,3101.4692,N,12126.3581,E,1,00,00008.707,M 
$GPGGA,223910.000,3101.4693,N,12126.3586,E,1,00,00007.954,M 
$GPGGA,223911.000,3101.4695,N,12126.3591,E,1,00,00007.954,M 
$GPGGA,223911.000,3101.4696,N,12126.3595,E,1,00,00007.851,M 
$GPGGA,223912.000,3101.4698,N,12126.3599,E,1,00,00007.851,M 
$GPGGA,223912.000,3101.4700,N,12126.3604,E,1,00,00008.571,M 
$GPGGA,223913.000,3101.4701,N,12126.3608,E,1,00,00008.899,M 
$GPGGA,223914.000,3101.4703,N,12126.3613,E,1,00,00008.899,M 
$GPGGA,223914.000,3101.4705,N,12126.3617,E,1,00,00008.996,M 
$GPGGA,223915.000,3101.4706,N,12126.3622,E,1,00,00008.996,M 
$GPGGA,223915.000,3101.4708,N,12126.3626,E,1,00,00009.610,M 
$GPGGA,223916.000,3101.4709,N,12126.3631,E,1,00,00009.610,M 
$GPGGA,223916.000,3101.4711,N,12126.3635,E,1,00,00009.045,M 
$GPGGA,223917.000,3101.4712,N,12126.3639,E,1,00,00009.045,M 
$GPGGA,223917.000,3101.4714,N,12126.3643,E,1,00,00009.257,M 
$GPGGA,223918.000,3101.4715,N,12126.3647,E,1,00,00010.328,M 
$GPGGA,223919.000,3101.4717,N,12126.3651,E,1,00,00010.328,M 
$GPGGA,223919.000,3101.4719,N,12126.3655,E,1,00,00012.150,M 
$GPGGA,223920.000,3101.4720,N,12126.3659,E,1,00,00012.151,M 
$GPGGA,223920.000,3101.4722,N,12126.3664,E,1,00,00012.670,M 
$GPGGA,223921.000,3101.4724,N,12126.3668,E,1,00,00012.670,M 
$GPGGA,223921.000,3101.4726,N,12126.3672,E,1,00,00012.480,M 
$GPGGA,223922.000,3101.4728,N,12126.3676,E,1,00,00012.480,M 
$GPGGA,223922.000,3101.4731,N,12126.3681,E,1,00,00011.264,M 
$GPGGA,223923.000,3101.4733,N,12126.3685,E,1,00,00011.763,M 
$GPGGA,223924.000,3101.4736,N,12126.3689,E,1,00,00011.764,M 
$GPGGA,223924.000,3101.4738,N,12126.3694,E,1,00,00012.135,M 
$GPGGA,223925.000,3101.4741,N,12126.3698,E,1,00,00012.135,M 
$GPGGA,223925.000,3101.4743,N,12126.3702,E,1,00,00011.980,M 
$GPGGA,223926.000,3101.4746,N,12126.3706,E,1,00,00011.981,M 
$GPGGA,223926.000,3101.4748,N,12126.3711,E,1,00,00012.195,M 
$GPGGA,223927.000,3101.4750,N,12126.3714,E,1,00,00012.195,M 
$GPGGA,223927.000,3101.4752,N,12126.3718,E,1,00,00013.469,M 
$GPGGA,223928.000,3101.4754,N,12126.3722,E,1,00,00014.165,M 
$GPGGA,223929.000,3101.4757,N,12126.3727,E,1,00,00014.165,M 
$GPGGA,223929.000,3101.4759,N,12126.3731,E,1,00,00013.561,M 
$GPGGA,223930.000,3101.4761,N,12126.3735,E,1,00,00013.561,M 
$GPGGA,223930.000,3101.4762,N,12126.3740,E,1,00,00014.164,M 
$GPGGA,223931.000,3101.4764,N,12126.3745,E,1,00,00014.164,M 
$GPGGA,223931.000,3101.4766,N,12126.3749,E,1,00,00012.110,M 
$GPGGA,223932.000,3101.4768,N,12126.3754,E,1,00,00012.110,M 
$GPGGA,223932.000,3101.4769,N,12126.3758,E,1,00,00011.842,M 
$GPGGA,223933.000,3101.4771,N,12126.3762,E,1,00,00012.365,M 
$GPGGA,223934.000,3101.4772,N,12126.3767,E,1,00,00012.365,M 
$GPGGA,223934.000,3101.4773,N,12126.3771,E,1,00,00012.402,M 
$GPGGA,223935.000,3101.4775,N,12126.3776,E,1,00,00012.402,M 
$GPGGA,223935.000,3101.4776,N,12126.3780,E,1,00,00013.147,M 
$GPGGA,223936.000,3101.4777,N,12126.3785,E,1,00,00013.147,M 
$GPGGA,223936.000,3101.4779,N,12126.3789,E,1,00,00013.475,M 
$GPGGA,223937.000,3101.4780,N,12126.3794,E,1,00,00013.590,M 
$GPGGA,223938.000,3101.4782,N,12126.3798,E,1,00,00013.590,M 
$GPGGA,223938.000,3101.4784,N,12126.3802,E,1,00,00012.977,M 
$GPGGA,223939.000,3101.4786,N,12126.3807,E,1,00,00012.977,M 
$GPGGA,223939.000,3101.4788,N,12126.3811,E,1,00,00013.036,M 
$GPGGA,223940.000,3101.4791,N,12126.3816,E,1,00,00013.036,M 
$GPGGA,223940.000,3101.4793,N,12126.3820,E,1,00,00013.135,M 
$GPGGA,223941.000,3101.4795,N,12126.3824,E,1,00,00013.135,M 
$GPGGA,223941.000,3101.4798,N,12126.3828,E,1,00,00011.719,M 
$GPGGA,223942.000,3101.4800,N,12126.3832,E,1,00,00010.695,M 
$GPGGA,223943.000,3101.4802,N,12126.3836,E,1,00,00010.695,M 
$GPGGA,223943.000,3101.4803,N,12126.3840,E,1,00,00011.026,M 
$GPGGA,223944.000,3101.4805,N,12126.3844,E,1,00,00011.026,M 
$GPGGA,223944.000,3101.4807,N,12126.3849,E,1,00,00011.272,M 
$GPGGA,223945.000,3101.4808,N,12126.3853,E,1,00,00011.272,M 
$GPGGA,223945.000,3101.4810,N,12126.3857,E,1,00,00011.531,M 
$GPGGA,223946.000,3101.4811,N,12126.3861,E,1,00,00012.024,M 
$GPGGA,223947.000,3101.4812,N,12126.3865,E,1,00,00012.024,M 
$GPGGA,223947.000,3101.4813,N,12126.3870,E,1,00,00013.124,M 
$GPGGA,223948.000,3101.4815,N,12126.3874,E,1,00,00013.124,M 
$GPGGA,223948.000,3101.4816,N,12126.3878,E,1,00,00013.659,M 
$GPGGA,223949.000,3101.4817,N,12126.3883,E,1,00,00013.659,M 
$GPGGA,223949.000,3101.4819,N,12126.3887,E,1,00,00014.435,M 
$GPGGA,223950.000,3101.4821,N,12126.3891,E,1,00,00014.435,M 
$GPGGA,223950.000,3101.4823,N,12126.3896,E,1,00,00015.127,M 
$GPGGA,223951.000,3101.4825,N,12126.3899,E,1,00,00016.807,M 
$GPGGA,223952.000,3101.4828,N,12126.3904,E,1,00,00016.807,M 
$GPGGA,223952.000,3101.4831,N,12126.3907,E,1,00,00018.353,M 
$GPGGA,223953.000,3101.4834,N,12126.3911,E,1,00,00018.353,M 
$GPGGA,223953.000,3101.4837,N,12126.3915,E,1,00,00018.149,M 
$GPGGA,223954.000,3101.4840,N,12126.3919,E,1,00,00018.149,M 
$GPGGA,223954.000,3101.4843,N,12126.3923,E,1,00,00018.006,M 
$GPGGA,223955.000,3101.4846,N,12126.3926,E,1,00,00018.721,M 
$GPGGA,223956.000,3101.4848,N,12126.3930,E,1,00,00018.721,M 
$GPGGA,223956.000,3101.4850,N,12126.3934,E,1,00,00018.611,M 
$GPGGA,223957.000,3101.4852,N,12126.3939,E,1,00,00018.611,M 
$GPGGA,223957.000,3101.4853,N,12126.3943,E,1,00,00019.260,M 
$GPGGA,223958.000,3101.4854,N,12126.3948,E,1,00,00019.260,M 
$GPGGA,223958.000,3101.4855,N,12126.3952,E,1,00,00018.093,M 
$GPGGA,223959.000,3101.4856,N,12126.3957,E,1,00,00017.047,M 
$GPGGA,224000.000,3101.4857,N,12126.3961,E,1,00,00017.047,M 
$GPGGA,224000.000,3101.4858,N,12126.3965,E,1,00,00018.152,M 
$GPGGA,224001.000,3101.4859,N,12126.3970,E,1,00,00018.152,M 
$GPGGA,224001.000,3101.4860,N,12126.3975,E,1,00,00018.986,M 
$GPGGA,224002.000,3101.4861,N,12126.3979,E,1,00,00018.986,M 
$GPGGA,224002.000,3101.4861,N,12126.3984,E,1,00,00018.990,M 
$GPGGA,224003.000,3101.4862,N,12126.3989,E,1,00,00017.162,M 
$GPGGA,224004.000,3101.4863,N,12126.3993,E,1,00,00017.162,M 
$GPGGA,224004.000,3101.4863,N,12126.3998,E,1,00,00017.439,M 
$GPGGA,224005.000,3101.4864,N,12126.4003,E,1,00,00017.439,M 
$GPGGA,224005.000,3101.4864,N,12126.4007,E,1,00,00017.223,M 
$GPGGA,224006.000,3101.4865,N,12126.4012,E,1,00,00017.223,M 
$GPGGA,224006.000,3101.4865,N,12126.4017,E,1,00,00017.332,M 
$GPGGA,224007.000,3101.4866,N,12126.4021,E,1,00,00016.130,M 
$GPGGA,224008.000,3101.4866,N,12126.4026,E,1,00,00016.130,M 
$GPGGA,224008.000,3101.4867,N,12126.4031,E,1,00,00016.371,M 
$GPGGA,224009.000,3101.4867,N,12126.4036,E,1,00,00016.371,M 
$GPGGA,224009.000,3101.4868,N,12126.4041,E,1,00,00017.172,M 
$GPGGA,224010.000,3101.4868,N,12126.4045,E,1,00,00017.172,M 
$GPGGA,224010.000,3101.4868,N,12126.4050,E,1,00,00017.491,M 
$GPGGA,224011.000,3101.4869,N,12126.4055,E,1,00,00018.405,M 
$GPGGA,224012.000,3101.4869,N,12126.4060,E,1,00,00018.405,M 
$GPGGA,224012.000,3101.4870,N,12126.4065,E,1,00,00017.584,M 
$GPGGA,224013.000,3101.4871,N,12126.4069,E,1,00,00017.584,M 
$GPGGA,224013.000,3101.4872,N,12126.4074,E,1,00,00016.242,M 
$GPGGA,224014.000,3101.4872,N,12126.4080,E,1,00,00016.242,M 
$GPGGA,224014.000,3101.4873,N,12126.4084,E,1,00,00017.062,M 
$GPGGA,224015.000,3101.4873,N,12126.4090,E,1,00,00017.062,M 
$GPGGA,224015.000,3101.4874,N,12126.4094,E,1,00,00017.936,M 
$GPGGA,224016.000,3101.4874,N,12126.4099,E,1,00,00017.825,M 
$GPGGA,224017.000,3101.4875,N,12126.4105,E,1,00,00017.825,M 
$GPGGA,224017.000,3101.4876,N,12126.4110,E,1,00,00018.802,M 
$GPGGA,224018.000,3101.4877,N,12126.4116,E,1,00,00018.802,M 
$GPGGA,224018.000,3101.4878,N,12126.4121,E,1,00,00019.379,M 
$GPGGA,224019.000,3101.4879,N,12126.4126,E,1,00,00019.379,M 
$GPGGA,224019.000,3101.4880,N,12126.4131,E,1,00,00018.808,M 
$GPGGA,224020.000,3101.4881,N,12126.4137,E,1,00,00018.910,M 
$GPGGA,224021.000,3101.4881,N,12126.4142,E,1,00,00018.910,M 
$GPGGA,224021.000,3101.4882,N,12126.4148,E,1,00,00019.525,M 
$GPGGA,224022.000,3101.4882,N,12126.4154,E,1,00,00019.526,M 
$GPGGA,224022.000,3101.4882,N,12126.4160,E,1,00,00018.105,M 
$GPGGA,224023.000,3101.4882,N,12126.4165,E,1,00,00018.105,M 
$GPGGA,224023.000,3101.4882,N,12126.4171,E,1,00,00017.344,M 
$GPGGA,224024.000,3101.4882,N,12126.4177,E,1,00,00017.344,M 
$GPGGA,224024.000,3101.4882,N,12126.4182,E,1,00,00016.970,M 
$GPGGA,224025.000,3101.4881,N,12126.4188,E,1,00,00018.544,M 
$GPGGA,224026.000,3101.4881,N,12126.4194,E,1,00,00018.544,M 
$GPGGA,224026.000,3101.4881,N,12126.4200,E,1,00,00018.239,M 
$GPGGA,224027.000,3101.4881,N,12126.4205,E,1,00,00018.239,M 
$GPGGA,224027.000,3101.4881,N,12126.4211,E,1,00,00017.372,M 
$GPGGA,224028.000,3101.4881,N,12126.4216,E,1,00,00017.372,M 
$GPGGA,224028.000,3101.4881,N,12126.4221,E,1,00,00017.546,M 
$GPGGA,224029.000,3101.4882,N,12126.4227,E,1,00,00017.546,M 
$GPGGA,224029.000,3101.4882,N,12126.4232,E,1,00,00016.936,M 
$GPGGA,224030.000,3101.4883,N,12126.4237,E,1,00,00017.038,M 
$GPGGA,224031.000,3101.4883,N,12126.4242,E,1,00,00017.038,M 
$GPGGA,224031.000,3101.4884,N,12126.4247,E,1,00,00017.575,M 
$GPGGA,224032.000,3101.4884,N,12126.4251,E,1,00,00017.575,M 
$GPGGA,224032.000,3101.4885,N,12126.4256,E,1,00,00018.905,M 
$GPGGA,224033.000,3101.4885,N,12126.4260,E,1,00,00018.905,M 
$GPGGA,224033.000,3101.4886,N,12126.4265,E,1,00,00018.162,M 
$GPGGA,224034.000,3101.4887,N,12126.4269,E,1,00,00017.018,M 
$GPGGA,224035.000,3101.4888,N,12126.4273,E,1,00,00017.018,M 
$GPGGA,224035.000,3101.4890,N,12126.4277,E,1,00,00019.261,M 
$GPGGA,224036.000,3101.4891,N,12126.4281,E,1,00,00019.261,M 
$GPGGA,224036.000,3101.4892,N,12126.4285,E,1,00,00018.636,M 
$GPGGA,224037.000,3101.4893,N,12126.4288,E,1,00,00018.636,M 
$GPGGA,224037.000,3101.4894,N,12126.4292,E,1,00,00019.146,M 
$GPGGA,224038.000,3101.4896,N,12126.4297,E,1,00,00019.147,M 
$GPGGA,224038.000,3101.4897,N,12126.4301,E,1,00,00018.473,M 
$GPGGA,224039.000,3101.4899,N,12126.4305,E,1,00,00018.346,M 
$GPGGA,224040.000,3101.4899,N,12126.4309,E,1,00,00018.346,M 
$GPGGA,224040.000,3101.4900,N,12126.4314,E,1,00,00017.168,M 
$GPGGA,224041.000,3101.4901,N,12126.4318,E,1,00,00017.168,M 
$GPGGA,224041.000,3101.4902,N,12126.4322,E,1,00,00017.880,M 
$GPGGA,224042.000,3101.4903,N,12126.4327,E,1,00,00017.880,M 
$GPGGA,224042.000,3101.4904,N,12126.4331,E,1,00,00017.671,M 
$GPGGA,224043.000,3101.4904,N,12126.4336,E,1,00,00018.962,M 
$GPGGA,224044.000,3101.4905,N,12126.4340,E,1,00,00018.962,M 
$GPGGA,224044.000,3101.4906,N,12126.4345,E,1,00,00017.016,M 
$GPGGA,224045.000,3101.4906,N,12126.4350,E,1,00,00017.016,M 
$GPGGA,224045.000,3101.4907,N,12126.4354,E,1,00,00017.253,M 
$GPGGA,224046.000,3101.4908,N,12126.4359,E,1,00,00017.254,M 
$GPGGA,224046.000,3101.4908,N,12126.4364,E,1,00,00017.928,M 
$GPGGA,224047.000,3101.4908,N,12126.4369,E,1,00,00018.259,M 
$GPGGA,224048.000,3101.4909,N,12126.4374,E,1,00,00018.259,M 
$GPGGA,224048.000,3101.4909,N,12126.4380,E,1,00,00020.007,M 
$GPGGA,224049.000,3101.4909,N,12126.4386,E,1,00,00020.007,M 
$GPGGA,224049.000,3101.4909,N,12126.4391,E,1,00,00019.189,M 
$GPGGA,224050.000,3101.4909,N,12126.4397,E,1,00,00019.189,M 
$GPGGA,224050.000,3101.4909,N,12126.4402,E,1,00,00016.635,M 
$GPGGA,224051.000,3101.4910,N,12126.4407,E,1,00,00017.695,M 
$GPGGA,224052.000,3101.4910,N,12126.4412,E,1,00,00017.695,M 
$GPGGA,224052.000,3101.4911,N,12126.4417,E,1,00,00017.193,M 
$GPGGA,224053.000,3101.4911,N,12126.4420,E,1,00,00013.051,M 
$GPGGA,224143.000,3101.4913,N,12126.4425,E,1,00,00013.051,M 
$GPGGA,224143.000,3101.4915,N,12126.4430,E,1,00,00016.130,M 
$GPGGA,224144.000,3101.4916,N,12126.4434,E,1,00,00014.837,M 
$GPGGA,224145.000,3101.4918,N,12126.4439,E,1,00,00014.837,M 
$GPGGA,224145.000,3101.4919,N,12126.4443,E,1,00,00012.607,M 
$GPGGA,224146.000,3101.4921,N,12126.4447,E,1,00,00012.607,M 
$GPGGA,224146.000,3101.4922,N,12126.4451,E,1,00,00013.095,M 
$GPGGA,224147.000,3101.4924,N,12126.4455,E,1,00,00013.095,M 
$GPGGA,224147.000,3101.4926,N,12126.4459,E,1,00,00012.078,M 
$GPGGA,224148.000,3101.4928,N,12126.4464,E,1,00,00012.078,M 
$GPGGA,224148.000,3101.4929,N,12126.4468,E,1,00,00011.722,M 
$GPGGA,224149.000,3101.4931,N,12126.4473,E,1,00,00011.723,M 
$GPGGA,224149.000,3101.4933,N,12126.4478,E,1,00,00013.619,M 
$GPGGA,224150.000,3101.4935,N,12126.4483,E,1,00,00013.619,M 
$GPGGA,224150.000,3101.4936,N,12126.4488,E,1,00,00012.596,M 
$GPGGA,224151.000,3101.4938,N,12126.4493,E,1,00,00014.472,M 
$GPGGA,224152.000,3101.4939,N,12126.4497,E,1,00,00014.472,M 
$GPGGA,224152.000,3101.4941,N,12126.4501,E,1,00,00014.515,M 
$GPGGA,224153.000,3101.4942,N,12126.4506,E,1,00,00014.515,M 
$GPGGA,224153.000,3101.4943,N,12126.4510,E,1,00,00015.778,M 
$GPGGA,224154.000,3101.4945,N,12126.4515,E,1,00,00015.778,M 
$GPGGA,224154.000,3101.4946,N,12126.4519,E,1,00,00016.380,M 
$GPGGA,224155.000,3101.4947,N,12126.4524,E,1,00,00016.381,M 
$GPGGA,224155.000,3101.4949,N,12126.4528,E,1,00,00018.483,M 
$GPGGA,224156.000,3101.4950,N,12126.4533,E,1,00,00020.132,M 
$GPGGA,224157.000,3101.4951,N,12126.4537,E,1,00,00020.132,M 
$GPGGA,224157.000,3101.4952,N,12126.4542,E,1,00,00021.086,M 
$GPGGA,224158.000,3101.4953,N,12126.4547,E,1,00,00021.086,M 
$GPGGA,224158.000,3101.4954,N,12126.4552,E,1,00,00021.063,M 
$GPGGA,224159.000,3101.4954,N,12126.4557,E,1,00,00021.063,M 
$GPGGA,224159.000,3101.4955,N,12126.4562,E,1,00,00021.519,M 
$GPGGA,224200.000,3101.4956,N,12126.4568,E,1,00,00021.519,M 
$GPGGA,224200.000,3101.4957,N,12126.4573,E,1,00,00022.521,M 
$GPGGA,224201.000,3101.4958,N,12126.4579,E,1,00,00022.521,M 
$GPGGA,224201.000,3101.4958,N,12126.4584,E,1,00,00021.590,M 
$GPGGA,224202.000,3101.4959,N,12126.4589,E,1,00,00021.590,M 
$GPGGA,224202.000,3101.4960,N,12126.4594,E,1,00,00021.898,M 
$GPGGA,224203.000,3101.4962,N,12126.4599,E,1,00,00021.075,M 
$GPGGA,224204.000,3101.4964,N,12126.4604,E,1,00,00021.075,M 
$GPGGA,224204.000,3101.4966,N,12126.4608,E,1,00,00021.105,M 
$GPGGA,224205.000,3101.4968,N,12126.4612,E,1,00,00021.105,M 
$GPGGA,224205.000,3101.4970,N,12126.4616,E,1,00,00021.427,M 
$GPGGA,224206.000,3101.4971,N,12126.4621,E,1,00,00021.427,M 
$GPGGA,224206.000,3101.4973,N,12126.4625,E,1,00,00020.313,M 
$GPGGA,224207.000,3101.4974,N,12126.4629,E,1,00,00020.313,M 
$GPGGA,224207.000,3101.4976,N,12126.4634,E,1,00,00021.614,M 
$GPGGA,224208.000,3101.4978,N,12126.4638,E,1,00,00020.657,M 
$GPGGA,224209.000,3101.4980,N,12126.4643,E,1,00,00020.657,M 
$GPGGA,224209.000,3101.4981,N,12126.4647,E,1,00,00020.514,M 
$GPGGA,224210.000,3101.4983,N,12126.4651,E,1,00,00020.514,M 
$GPGGA,224210.000,3101.4985,N,12126.4655,E,1,00,00019.849,M 
$GPGGA,224211.000,3101.4987,N,12126.4659,E,1,00,00019.849,M 
$GPGGA,224211.000,3101.4990,N,12126.4662,E,1,00,00021.652,M 
$GPGGA,224212.000,3101.4992,N,12126.4666,E,1,00,00021.652,M 
$GPGGA,224212.000,3101.4994,N,12126.4670,E,1,00,00021.821,M 
$GPGGA,224213.000,3101.4996,N,12126.4674,E,1,00,00021.656,M 
$GPGGA,224214.000,3101.4998,N,12126.4679,E,1,00,00021.656,M 
$GPGGA,224214.000,3101.5000,N,12126.4683,E,1,00,00021.057,M 
$GPGGA,224215.000,3101.5001,N,12126.4687,E,1,00,00021.057,M 
$GPGGA,224215.000,3101.5003,N,12126.4692,E,1,00,00019.414,M 
$GPGGA,224216.000,3101.5005,N,12126.4696,E,1,00,00019.414,M 
$GPGGA,224216.000,3101.5007,N,12126.4700,E,1,00,00018.400,M 
$GPGGA,224217.000,3101.5009,N,12126.4704,E,1,00,00018.400,M 
$GPGGA,224217.000,3101.5011,N,12126.4708,E,1,00,00017.386,M 
$GPGGA,224218.000,3101.5013,N,12126.4712,E,1,00,00016.319,M 
$GPGGA,224219.000,3101.5014,N,12126.4716,E,1,00,00016.319,M 
$GPGGA,224219.000,3101.5016,N,12126.4721,E,1,00,00015.449,M 
$GPGGA,224220.000,3101.5017,N,12126.4725,E,1,00,00015.449,M 
$GPGGA,224220.000,3101.5019,N,12126.4729,E,1,00,00016.122,M 
$GPGGA,224221.000,3101.5020,N,12126.4733,E,1,00,00016.122,M 
$GPGGA,224221.000,3101.5022,N,12126.4737,E,1,00,00015.736,M 
$GPGGA,224222.000,3101.5023,N,12126.4742,E,1,00,00015.736,M 
$GPGGA,224222.000,3101.5025,N,12126.4746,E,1,00,00017.366,M 
$GPGGA,224223.000,3101.5026,N,12126.4751,E,1,00,00018.100,M 
$GPGGA,224224.000,3101.5028,N,12126.4755,E,1,00,00018.100,M 
$GPGGA,224224.000,3101.5030,N,12126.4759,E,1,00,00017.663,M 
$GPGGA,224225.000,3101.5032,N,12126.4763,E,1,00,00017.663,M 
$GPGGA,224225.000,3101.5034,N,12126.4767,E,1,00,00018.087,M 
$GPGGA,224226.000,3101.5036,N,12126.4771,E,1,00,00018.087,M 
$GPGGA,224226.000,3101.5038,N,12126.4775,E,1,00,00018.665,M 
$GPGGA,224227.000,3101.5040,N,12126.4779,E,1,00,00018.666,M 
$GPGGA,224227.000,3101.5042,N,12126.4783,E,1,00,00018.818,M 
$GPGGA,224228.000,3101.5044,N,12126.4788,E,1,00,00018.590,M 
$GPGGA,224229.000,3101.5046,N,12126.4791,E,1,00,00018.590,M 
$GPGGA,224229.000,3101.5048,N,12126.4795,E,1,00,00018.945,M 
$GPGGA,224230.000,3101.5050,N,12126.4799,E,1,00,00018.945,M 
$GPGGA,224230.000,3101.5052,N,12126.4803,E,1,00,00017.173,M 
$GPGGA,224231.000,3101.5054,N,12126.4807,E,1,00,00017.173,M 
$GPGGA,224231.000,3101.5056,N,12126.4812,E,1,00,00016.071,M 
$GPGGA,224232.000,3101.5058,N,12126.4816,E,1,00,00016.071,M 
$GPGGA,224232.000,3101.5060,N,12126.4821,E,1,00,00016.288,M 
$GPGGA,224233.000,3101.5062,N,12126.4825,E,1,00,00017.623,M 
$GPGGA,224234.000,3101.5064,N,12126.4830,E,1,00,00017.623,M 
$GPGGA,224234.000,3101.5066,N,12126.4834,E,1,00,00016.600,M 
$GPGGA,224235.000,3101.5068,N,12126.4838,E,1,00,00016.600,M 
$GPGGA,224235.000,3101.5070,N,12126.4842,E,1,00,00017.029,M 
$GPGGA,224236.000,3101.5071,N,12126.4846,E,1,00,00017.029,M 
$GPGGA,224236.000,3101.5073,N,12126.4850,E,1,00,00019.140,M 
$GPGGA,224237.000,3101.5075,N,12126.4855,E,1,00,00019.140,M 
$GPGGA,224237.000,3101.5077,N,12126.4859,E,1,00,00019.849,M 
$GPGGA,224238.000,3101.5078,N,12126.4864,E,1,00,00018.335,M 
$GPGGA,224239.000,3101.5080,N,12126.4868,E,1,00,00018.335,M 
$GPGGA,224239.000,3101.5082,N,12126.4873,E,1,00,00018.570,M 
$GPGGA,224240.000,3101.5083,N,12126.4877,E,1,00,00018.570,M 
$GPGGA,224240.000,3101.5085,N,12126.4882,E,1,00,00018.708,M 
$GPGGA,224241.000,3101.5086,N,12126.4886,E,1,00,00018.708,M 
$GPGGA,224241.000,3101.5088,N,12126.4891,E,1,00,00019.766,M 
$GPGGA,224242.000,3101.5089,N,12126.4895,E,1,00,00019.766,M 
$GPGGA,224242.000,3101.5091,N,12126.4900,E,1,00,00019.632,M 
$GPGGA,224243.000,3101.5093,N,12126.4904,E,1,00,00021.466,M 
$GPGGA,224244.000,3101.5095,N,12126.4908,E,1,00,00021.466,M 
$GPGGA,224244.000,3101.5097,N,12126.4912,E,1,00,00020.771,M 
$GPGGA,224245.000,3101.5100,N,12126.4916,E,1,00,00020.772,M 
$GPGGA,224245.000,3101.5102,N,12126.4920,E,1,00,00020.966,M 
$GPGGA,224246.000,3101.5105,N,12126.4924,E,1,00,00020.967,M 
$GPGGA,224246.000,3101.5107,N,12126.4927,E,1,00,00021.152,M 
$GPGGA,224247.000,3101.5109,N,12126.4931,E,1,00,00020.364,M 
$GPGGA,224248.000,3101.5111,N,12126.4935,E,1,00,00020.364,M 
$GPGGA,224248.000,3101.5114,N,12126.4939,E,1,00,00019.500,M 
$GPGGA,224249.000,3101.5116,N,12126.4942,E,1,00,00019.500,M 
$GPGGA,224249.000,3101.5118,N,12126.4946,E,1,00,00019.862,M 
$GPGGA,224250.000,3101.5120,N,12126.4950,E,1,00,00019.862,M 
$GPGGA,224250.000,3101.5122,N,12126.4954,E,1,00,00020.544,M 
$GPGGA,224251.000,3101.5124,N,12126.4958,E,1,00,00020.544,M 
$GPGGA,224251.000,3101.5125,N,12126.4963,E,1,00,00019.911,M 
$GPGGA,224252.000,3101.5127,N,12126.4967,E,1,00,00018.942,M 
$GPGGA,224253.000,3101.5128,N,12126.4972,E,1,00,00018.942,M 
$GPGGA,224253.000,3101.5130,N,12126.4976,E,1,00,00019.273,M 
$GPGGA,224254.000,3101.5131,N,12126.4980,E,1,00,00019.273,M 
$GPGGA,224254.000,3101.5133,N,12126.4985,E,1,00,00018.780,M 
$GPGGA,224255.000,3101.5134,N,12126.4989,E,1,00,00018.780,M 
$GPGGA,224255.000,3101.5136,N,12126.4993,E,1,00,00018.216,M 
$GPGGA,224256.000,3101.5137,N,12126.4997,E,1,00,00018.216,M 
$GPGGA,224256.000,3101.5139,N,12126.5001,E,1,00,00018.130,M 
$GPGGA,224257.000,3101.5140,N,12126.5002,E,1,00,00014.374,M 
$GPGGA,224324.000,3101.5144,N,12126.5005,E,1,00,00014.374,M 
$GPGGA,224324.000,3101.5149,N,12126.5007,E,1,00,00014.664,M 
$GPGGA,224325.000,3101.5154,N,12126.5009,E,1,00,00014.664,M 
$GPGGA,224325.000,3101.5159,N,12126.5010,E,1,00,00012.670,M 
$GPGGA,224326.000,3101.5163,N,12126.5013,E,1,00,00012.670,M 
$GPGGA,224326.000,3101.5168,N,12126.5016,E,1,00,00013.767,M 
$GPGGA,224327.000,3101.5171,N,12126.5019,E,1,00,00012.590,M 
$GPGGA,224328.000,3101.5174,N,12126.5022,E,1,00,00012.590,M 
$GPGGA,224328.000,3101.5177,N,12126.5026,E,1,00,00012.133,M 
$GPGGA,224329.000,3101.5179,N,12126.5030,E,1,00,00012.133,M 
$GPGGA,224329.000,3101.5181,N,12126.5034,E,1,00,00013.263,M 
$GPGGA,224330.000,3101.5184,N,12126.5037,E,1,00,00013.263,M 
$GPGGA,224330.000,3101.5186,N,12126.5041,E,1,00,00013.528,M 
$GPGGA,224331.000,3101.5188,N,12126.5045,E,1,00,00013.528,M 
$GPGGA,224331.000,3101.5190,N,12126.5050,E,1,00,00013.544,M 
$GPGGA,224332.000,3101.5191,N,12126.5055,E,1,00,00013.544,M 
$GPGGA,224332.000,3101.5193,N,12126.5059,E,1,00,00013.987,M 
$GPGGA,224333.000,3101.5195,N,12126.5064,E,1,00,00014.370,M 
$GPGGA,224334.000,3101.5196,N,12126.5069,E,1,00,00014.370,M 
$GPGGA,224334.000,3101.5198,N,12126.5074,E,1,00,00014.649,M 
$GPGGA,224335.000,3101.5200,N,12126.5078,E,1,00,00014.649,M 
$GPGGA,224335.000,3101.5202,N,12126.5083,E,1,00,00016.497,M 
$GPGGA,224336.000,3101.5204,N,12126.5087,E,1,00,00016.497,M 
$GPGGA,224336.000,3101.5206,N,12126.5091,E,1,00,00016.606,M 
$GPGGA,224337.000,3101.5208,N,12126.5095,E,1,00,00016.606,M 
$GPGGA,224337.000,3101.5210,N,12126.5099,E,1,00,00017.222,M 
$GPGGA,224338.000,3101.5212,N,12126.5103,E,1,00,00017.222,M 
$GPGGA,224338.000,3101.5215,N,12126.5107,E,1,00,00017.848,M 
$GPGGA,224339.000,3101.5217,N,12126.5111,E,1,00,00017.918,M 
$GPGGA,224340.000,3101.5220,N,12126.5114,E,1,00,00017.918,M 
$GPGGA,224340.000,3101.5222,N,12126.5118,E,1,00,00018.674,M 
$GPGGA,224341.000,3101.5224,N,12126.5122,E,1,00,00018.675,M 
$GPGGA,224341.000,3101.5226,N,12126.5126,E,1,00,00018.806,M 
$GPGGA,224342.000,3101.5228,N,12126.5130,E,1,00,00018.806,M 
$GPGGA,224342.000,3101.5230,N,12126.5134,E,1,00,00016.378,M 
$GPGGA,224343.000,3101.5232,N,12126.5138,E,1,00,00016.378,M 
$GPGGA,224343.000,3101.5234,N,12126.5141,E,1,00,00017.181,M 
$GPGGA,224344.000,3101.5236,N,12126.5145,E,1,00,00018.554,M 
$GPGGA,224345.000,3101.5238,N,12126.5149,E,1,00,00018.554,M 
$GPGGA,224345.000,3101.5241,N,12126.5152,E,1,00,00018.265,M 
$GPGGA,224346.000,3101.5243,N,12126.5156,E,1,00,00018.265,M 
$GPGGA,224346.000,3101.5245,N,12126.5160,E,1,00,00017.003,M 
$GPGGA,224347.000,3101.5247,N,12126.5164,E,1,00,00017.003,M 
$GPGGA,224347.000,3101.5248,N,12126.5168,E,1,00,00016.623,M 
$GPGGA,224348.000,3101.5250,N,12126.5173,E,1,00,00016.623,M 
$GPGGA,224348.000,3101.5252,N,12126.5177,E,1,00,00015.789,M 
$GPGGA,224349.000,3101.5253,N,12126.5181,E,1,00,00015.789,M 
$GPGGA,224349.000,3101.5255,N,12126.5185,E,1,00,00015.551,M 
$GPGGA,224350.000,3101.5256,N,12126.5189,E,1,00,00014.802,M 
$GPGGA,224351.000,3101.5258,N,12126.5193,E,1,00,00014.802,M 
$GPGGA,224351.000,3101.5259,N,12126.5198,E,1,00,00014.745,M 
$GPGGA,224352.000,3101.5260,N,12126.5202,E,1,00,00014.745,M 
$GPGGA,224352.000,3101.5262,N,12126.5207,E,1,00,00015.627,M 
$GPGGA,224353.000,3101.5263,N,12126.5211,E,1,00,00015.627,M 
$GPGGA,224353.000,3101.5264,N,12126.5216,E,1,00,00016.463,M 
$GPGGA,224354.000,3101.5266,N,12126.5220,E,1,00,00016.463,M 
$GPGGA,224354.000,3101.5267,N,12126.5224,E,1,00,00017.468,M 
$GPGGA,224355.000,3101.5269,N,12126.5229,E,1,00,00017.067,M 
$GPGGA,224356.000,3101.5270,N,12126.5234,E,1,00,00017.067,M 
$GPGGA,224356.000,3101.5272,N,12126.5238,E,1,00,00017.987,M 
$GPGGA,224357.000,3101.5273,N,12126.5243,E,1,00,00017.988,M 
$GPGGA,224357.000,3101.5275,N,12126.5247,E,1,00,00017.792,M 
$GPGGA,224358.000,3101.5276,N,12126.5253,E,1,00,00017.792,M 
$GPGGA,224358.000,3101.5277,N,12126.5257,E,1,00,00019.300,M 
$GPGGA,224359.000,3101.5278,N,12126.5262,E,1,00,00019.300,M 
$GPGGA,224359.000,3101.5279,N,12126.5267,E,1,00,00019.089,M 
$GPGGA,224400.000,3101.5280,N,12126.5272,E,1,00,00018.581,M 
$GPGGA,224401.000,3101.5281,N,12126.5277,E,1,00,00018.581,M 
$GPGGA,224401.000,3101.5282,N,12126.5282,E,1,00,00018.106,M 
$GPGGA,224402.000,3101.5283,N,12126.5287,E,1,00,00018.106,M 
$GPGGA,224402.000,3101.5284,N,12126.5291,E,1,00,00017.518,M 
$GPGGA,224403.000,3101.5284,N,12126.5296,E,1,00,00017.518,M 
$GPGGA,224403.000,3101.5285,N,12126.5301,E,1,00,00019.243,M 
$GPGGA,224404.000,3101.5286,N,12126.5307,E,1,00,00019.243,M 
$GPGGA,224404.000,3101.5287,N,12126.5312,E,1,00,00020.945,M 
$GPGGA,224405.000,3101.5287,N,12126.5317,E,1,00,00020.272,M 
$GPGGA,224406.000,3101.5288,N,12126.5322,E,1,00,00020.272,M 
$GPGGA,224406.000,3101.5288,N,12126.5327,E,1,00,00020.021,M 
$GPGGA,224407.000,3101.5289,N,12126.5332,E,1,00,00020.021,M 
$GPGGA,224407.000,3101.5289,N,12126.5337,E,1,00,00020.178,M 
$GPGGA,224408.000,3101.5289,N,12126.5343,E,1,00,00020.178,M 
$GPGGA,224408.000,3101.5290,N,12126.5348,E,1,00,00021.767,M 
$GPGGA,224409.000,3101.5290,N,12126.5353,E,1,00,00019.007,M 
$GPGGA,224410.000,3101.5291,N,12126.5358,E,1,00,00019.007,M 
$GPGGA,224410.000,3101.5291,N,12126.5363,E,1,00,00017.584,M 
$GPGGA,224411.000,3101.5291,N,12126.5368,E,1,00,00017.584,M 
$GPGGA,224411.000,3101.5292,N,12126.5373,E,1,00,00017.043,M 
$GPGGA,224412.000,3101.5292,N,12126.5378,E,1,00,00017.043,M 
$GPGGA,224412.000,3101.5292,N,12126.5383,E,1,00,00016.365,M 
$GPGGA,224413.000,3101.5292,N,12126.5388,E,1,00,00016.366,M 
$GPGGA,224413.000,3101.5293,N,12126.5393,E,1,00,00016.196,M 
$GPGGA,224414.000,3101.5293,N,12126.5398,E,1,00,00015.333,M 
$GPGGA,224415.000,3101.5293,N,12126.5403,E,1,00,00015.333,M 
$GPGGA,224415.000,3101.5294,N,12126.5408,E,1,00,00015.099,M 
$GPGGA,224416.000,3101.5294,N,12126.5413,E,1,00,00015.099,M 
$GPGGA,224416.000,3101.5294,N,12126.5418,E,1,00,00014.827,M 
$GPGGA,224417.000,3101.5294,N,12126.5423,E,1,00,00014.827,M 
$GPGGA,224417.000,3101.5295,N,12126.5428,E,1,00,00017.134,M 
$GPGGA,224418.000,3101.5295,N,12126.5433,E,1,00,00017.134,M 
$GPGGA,224418.000,3101.5295,N,12126.5438,E,1,00,00014.711,M 
$GPGGA,224419.000,3101.5296,N,12126.5443,E,1,00,00015.234,M 
$GPGGA,224420.000,3101.5297,N,12126.5448,E,1,00,00015.234,M 
$GPGGA,224420.000,3101.5297,N,12126.5454,E,1,00,00015.155,M 
$GPGGA,224421.000,3101.5298,N,12126.5459,E,1,00,00015.155,M 
$GPGGA,224421.000,3101.5299,N,12126.5464,E,1,00,00013.262,M 
$GPGGA,224422.000,3101.5300,N,12126.5469,E,1,00,00013.262,M 
$GPGGA,224422.000,3101.5301,N,12126.5475,E,1,00,00014.359,M 
$GPGGA,224423.000,3101.5302,N,12126.5479,E,1,00,00013.696,M 
$GPGGA,224424.000,3101.5303,N,12126.5484,E,1,00,00013.696,M 
$GPGGA,224424.000,3101.5304,N,12126.5488,E,1,00,00015.555,M 
$GPGGA,224425.000,3101.5305,N,12126.5493,E,1,00,00015.555,M 
$GPGGA,224425.000,3101.5306,N,12126.5498,E,1,00,00015.709,M 
$GPGGA,224426.000,3101.5307,N,12126.5503,E,1,00,00015.709,M 
$GPGGA,224426.000,3101.5308,N,12126.5507,E,1,00,00015.792,M 
$GPGGA,224427.000,3101.5310,N,12126.5512,E,1,00,00015.793,M 
$GPGGA,224427.000,3101.5311,N,12126.5516,E,1,00,00015.722,M 
$GPGGA,224428.000,3101.5312,N,12126.5520,E,1,00,00015.722,M 
$GPGGA,224428.000,3101.5314,N,12126.5523,E,1,00,00016.022,M 
$GPGGA,224429.000,3101.5316,N,12126.5527,E,1,00,00014.295,M 
$GPGGA,224430.000,3101.5317,N,12126.5531,E,1,00,00014.295,M 
$GPGGA,224430.000,3101.5319,N,12126.5535,E,1,00,00015.988,M 
$GPGGA,224431.000,3101.5321,N,12126.5539,E,1,00,00015.988,M 
$GPGGA,224431.000,3101.5324,N,12126.5543,E,1,00,00015.553,M 
$GPGGA,224432.000,3101.5326,N,12126.5547,E,1,00,00015.553,M 
$GPGGA,224432.000,3101.5328,N,12126.5551,E,1,00,00016.572,M 
$GPGGA,224433.000,3101.5331,N,12126.5554,E,1,00,00016.572,M 
$GPGGA,224433.000,3101.5333,N,12126.5557,E,1,00,00016.778,M 
$GPGGA,224434.000,3101.5335,N,12126.5561,E,1,00,00015.603,M 
$GPGGA,224435.000,3101.5337,N,12126.5565,E,1,00,00015.603,M 
$GPGGA,224435.000,3101.5339,N,12126.5569,E,1,00,00014.619,M 
$GPGGA,224436.000,3101.5341,N,12126.5572,E,1,00,00014.619,M 
$GPGGA,224436.000,3101.5343,N,12126.5576,E,1,00,00013.032,M 
$GPGGA,224437.000,3101.5345,N,12126.5580,E,1,00,00013.032,M 
$GPGGA,224437.000,3101.5347,N,12126.5583,E,1,00,00013.799,M 
$GPGGA,224438.000,3101.5349,N,12126.5587,E,1,00,00013.799,M 
$GPGGA,224438.000,3101.5351,N,12126.5591,E,1,00,00014.496,M 
$GPGGA,224439.000,3101.5352,N,12126.5595,E,1,00,00015.492,M 
$GPGGA,224440.000,3101.5354,N,12126.5599,E,1,00,00015.492,M 
$GPGGA,224440.000,3101.5355,N,12126.5604,E,1,00,00015.913,M 
$GPGGA,224441.000,3101.5357,N,12126.5608,E,1,00,00015.913,M 
$GPGGA,224441.000,3101.5359,N,12126.5612,E,1,00,00015.420,M 
$GPGGA,224442.000,3101.5361,N,12126.5616,E,1,00,00015.420,M 
$GPGGA,224442.000,3101.5363,N,12126.5619,E,1,00,00014.784,M 
$GPGGA,224443.000,3101.5365,N,12126.5622,E,1,00,00014.784,M 
$GPGGA,224443.000,3101.5367,N,12126.5625,E,1,00,00015.198,M 
$GPGGA,224444.000,3101.5369,N,12126.5628,E,1,00,00015.481,M 
$GPGGA,224445.000,3101.5372,N,12126.5632,E,1,00,00015.481,M 
$GPGGA,224445.000,3101.5374,N,12126.5635,E,1,00,00014.840,M 
$GPGGA,224446.000,3101.5376,N,12126.5639,E,1,00,00014.840,M 
$GPGGA,224446.000,3101.5378,N,12126.5642,E,1,00,00015.949,M 
$GPGGA,224447.000,3101.5380,N,12126.5646,E,1,00,00015.949,M 
$GPGGA,224447.000,3101.5382,N,12126.5650,E,1,00,00014.615,M 
$GPGGA,224448.000,3101.5383,N,12126.5654,E,1,00,00014.615,M 
$GPGGA,224448.000,3101.5385,N,12126.5657,E,1,00,00013.389,M 
$GPGGA,224449.000,3101.5387,N,12126.5661,E,1,00,00013.033,M 
$GPGGA,224450.000,3101.5388,N,12126.5665,E,1,00,00013.033,M 
$GPGGA,224450.000,3101.5389,N,12126.5668,E,1,00,00012.932,M 
$GPGGA,224451.000,3101.5390,N,12126.5673,E,1,00,00012.932,M 
$GPGGA,224451.000,3101.5391,N,12126.5677,E,1,00,00013.229,M 
$GPGGA,224452.000,3101.5392,N,12126.5682,E,1,00,00013.229,M 
$GPGGA,224452.000,3101.5393,N,12126.5687,E,1,00,00014.569,M 
$GPGGA,224453.000,3101.5395,N,12126.5692,E,1,00,00014.719,M 
$GPGGA,224454.000,3101.5396,N,12126.5696,E,1,00,00014.720,M 
