$GPGGA,231345.000,3101.6624,N,12125.5713,E,1,00,-0018.029,M 
$GPGGA,231357.000,3101.6624,N,12125.5711,E,1,00,-0018.029,M 
$GPGGA,231357.000,3101.6624,N,12125.5709,E,1,00,-0025.508,M 
$GPGGA,231358.000,3101.6624,N,12125.5708,E,1,00,-0028.816,M 
$GPGGA,231359.000,3101.6622,N,12125.5708,E,1,00,-0028.816,M 
$GPGGA,231359.000,3101.6621,N,12125.5708,E,1,00,-0029.422,M 
$GPGGA,231400.000,3101.6619,N,12125.5708,E,1,00,-0029.422,M 
$GPGGA,231400.000,3101.6617,N,12125.5707,E,1,00,-0031.520,M 
$GPGGA,231401.000,3101.6616,N,12125.5707,E,1,00,-0031.520,M 
$GPGGA,231401.000,3101.6614,N,12125.5706,E,1,00,-0031.634,M 
$GPGGA,231402.000,3101.6613,N,12125.5705,E,1,00,-0031.634,M 
$GPGGA,231402.000,3101.6611,N,12125.5704,E,1,00,-0028.806,M 
$GPGGA,231403.000,3101.6610,N,12125.5703,E,1,00,-0023.410,M 
$GPGGA,231404.000,3101.6609,N,12125.5702,E,1,00,-0023.410,M 
$GPGGA,231404.000,3101.6608,N,12125.5700,E,1,00,-0017.718,M 
$GPGGA,231405.000,3101.6607,N,12125.5698,E,1,00,-0017.718,M 
$GPGGA,231405.000,3101.6606,N,12125.5697,E,1,00,-0014.661,M 
$GPGGA,231406.000,3101.6606,N,12125.5695,E,1,00,-0014.661,M 
$GPGGA,231406.000,3101.6606,N,12125.5693,E,1,00,-0009.590,M 
$GPGGA,231407.000,3101.6606,N,12125.5691,E,1,00,-0009.590,M 
$GPGGA,231407.000,3101.6606,N,12125.5689,E,1,00,-0007.457,M 
$GPGGA,231408.000,3101.6606,N,12125.5687,E,1,00,-0007.457,M 
$GPGGA,231408.000,3101.6606,N,12125.5685,E,1,00,-0002.466,M 
$GPGGA,231409.000,3101.6607,N,12125.5683,E,1,00,-0002.466,M 
$GPGGA,231409.000,3101.6607,N,12125.5681,E,1,00,00000.256,M 
$GPGGA,231410.000,3101.6607,N,12125.5679,E,1,00,00000.256,M 
$GPGGA,231410.000,3101.6608,N,12125.5677,E,1,00,00004.591,M 
$GPGGA,231411.000,3101.6608,N,12125.5674,E,1,00,00005.681,M 
$GPGGA,231412.000,3101.6609,N,12125.5671,E,1,00,00005.682,M 
$GPGGA,231412.000,3101.6609,N,12125.5669,E,1,00,00006.415,M 
$GPGGA,231413.000,3101.6610,N,12125.5666,E,1,00,00006.415,M 
$GPGGA,231413.000,3101.6611,N,12125.5663,E,1,00,00008.689,M 
$GPGGA,231414.000,3101.6611,N,12125.5660,E,1,00,00008.689,M 
$GPGGA,231414.000,3101.6612,N,12125.5657,E,1,00,00010.278,M 
$GPGGA,231415.000,3101.6612,N,12125.5654,E,1,00,00010.278,M 
$GPGGA,231415.000,3101.6613,N,12125.5651,E,1,00,00009.012,M 
$GPGGA,231416.000,3101.6613,N,12125.5648,E,1,00,00009.013,M 
$GPGGA,231416.000,3101.6614,N,12125.5645,E,1,00,00011.011,M 
$GPGGA,231417.000,3101.6614,N,12125.5642,E,1,00,00010.922,M 
$GPGGA,231418.000,3101.6614,N,12125.5638,E,1,00,00010.922,M 
$GPGGA,231418.000,3101.6614,N,12125.5634,E,1,00,00010.707,M 
$GPGGA,231419.000,3101.6614,N,12125.5630,E,1,00,00010.707,M 
$GPGGA,231419.000,3101.6614,N,12125.5627,E,1,00,00013.214,M 
$GPGGA,231420.000,3101.6613,N,12125.5623,E,1,00,00013.214,M 
$GPGGA,231420.000,3101.6611,N,12125.5619,E,1,00,00013.046,M 
$GPGGA,231421.000,3101.6610,N,12125.5615,E,1,00,00013.046,M 
$GPGGA,231421.000,3101.6608,N,12125.5611,E,1,00,00015.680,M 
$GPGGA,231422.000,3101.6606,N,12125.5608,E,1,00,00015.493,M 
$GPGGA,231423.000,3101.6604,N,12125.5604,E,1,00,00015.493,M 
$GPGGA,231423.000,3101.6602,N,12125.5600,E,1,00,00016.331,M 
$GPGGA,231424.000,3101.6600,N,12125.5596,E,1,00,00016.331,M 
$GPGGA,231424.000,3101.6598,N,12125.5592,E,1,00,00017.427,M 
$GPGGA,231425.000,3101.6596,N,12125.5588,E,1,00,00017.427,M 
$GPGGA,231425.000,3101.6595,N,12125.5584,E,1,00,00018.234,M 
$GPGGA,231426.000,3101.6593,N,12125.5580,E,1,00,00018.234,M 
$GPGGA,231426.000,3101.6592,N,12125.5577,E,1,00,00020.664,M 
$GPGGA,231427.000,3101.6590,N,12125.5573,E,1,00,00020.664,M 
$GPGGA,231427.000,3101.6589,N,12125.5569,E,1,00,00020.626,M 
$GPGGA,231428.000,3101.6587,N,12125.5565,E,1,00,00020.626,M 
$GPGGA,231428.000,3101.6586,N,12125.5561,E,1,00,00022.136,M 
$GPGGA,231429.000,3101.6585,N,12125.5557,E,1,00,00021.642,M 
$GPGGA,231430.000,3101.6584,N,12125.5552,E,1,00,00021.642,M 
$GPGGA,231430.000,3101.6583,N,12125.5548,E,1,00,00021.870,M 
$GPGGA,231431.000,3101.6583,N,12125.5544,E,1,00,00021.870,M 
$GPGGA,231431.000,3101.6582,N,12125.5540,E,1,00,00023.080,M 
$GPGGA,231432.000,3101.6581,N,12125.5535,E,1,00,00023.081,M 
$GPGGA,231432.000,3101.6579,N,12125.5531,E,1,00,00024.600,M 
$GPGGA,231433.000,3101.6578,N,12125.5527,E,1,00,00024.600,M 
$GPGGA,231433.000,3101.6578,N,12125.5523,E,1,00,00027.559,M 
$GPGGA,231434.000,3101.6577,N,12125.5518,E,1,00,00027.559,M 
$GPGGA,231434.000,3101.6576,N,12125.5513,E,1,00,00027.838,M 
$GPGGA,231435.000,3101.6576,N,12125.5508,E,1,00,00027.838,M 
$GPGGA,231435.000,3101.6576,N,12125.5504,E,1,00,00027.844,M 
$GPGGA,231436.000,3101.6576,N,12125.5499,E,1,00,00025.680,M 
$GPGGA,231437.000,3101.6575,N,12125.5494,E,1,00,00025.680,M 
$GPGGA,231437.000,3101.6575,N,12125.5489,E,1,00,00025.111,M 
$GPGGA,231438.000,3101.6575,N,12125.5485,E,1,00,00025.111,M 
$GPGGA,231438.000,3101.6574,N,12125.5481,E,1,00,00025.079,M 
$GPGGA,231439.000,3101.6573,N,12125.5477,E,1,00,00025.079,M 
$GPGGA,231439.000,3101.6573,N,12125.5473,E,1,00,00025.300,M 
$GPGGA,231440.000,3101.6572,N,12125.5469,E,1,00,00025.301,M 
$GPGGA,231440.000,3101.6571,N,12125.5465,E,1,00,00025.140,M 
$GPGGA,231441.000,3101.6570,N,12125.5461,E,1,00,00025.140,M 
$GPGGA,231441.000,3101.6569,N,12125.5457,E,1,00,00026.495,M 
$GPGGA,231442.000,3101.6569,N,12125.5453,E,1,00,00026.683,M 
$GPGGA,231443.000,3101.6568,N,12125.5448,E,1,00,00026.683,M 
$GPGGA,231443.000,3101.6567,N,12125.5443,E,1,00,00026.199,M 
$GPGGA,231444.000,3101.6565,N,12125.5439,E,1,00,00026.199,M 
$GPGGA,231444.000,3101.6564,N,12125.5434,E,1,00,00025.851,M 
$GPGGA,231445.000,3101.6563,N,12125.5429,E,1,00,00025.851,M 
$GPGGA,231445.000,3101.6562,N,12125.5425,E,1,00,00025.562,M 
$GPGGA,231446.000,3101.6561,N,12125.5421,E,1,00,00025.562,M 
$GPGGA,231446.000,3101.6559,N,12125.5417,E,1,00,00025.618,M 
$GPGGA,231447.000,3101.6558,N,12125.5412,E,1,00,00025.618,M 
$GPGGA,231447.000,3101.6557,N,12125.5408,E,1,00,00026.497,M 
$GPGGA,231448.000,3101.6556,N,12125.5403,E,1,00,00025.985,M 
$GPGGA,231449.000,3101.6556,N,12125.5398,E,1,00,00025.985,M 
$GPGGA,231449.000,3101.6555,N,12125.5394,E,1,00,00025.534,M 
$GPGGA,231450.000,3101.6554,N,12125.5389,E,1,00,00025.534,M 
$GPGGA,231450.000,3101.6553,N,12125.5384,E,1,00,00022.097,M 
$GPGGA,231451.000,3101.6552,N,12125.5379,E,1,00,00022.097,M 
$GPGGA,231451.000,3101.6551,N,12125.5374,E,1,00,00022.523,M 
$GPGGA,231452.000,3101.6551,N,12125.5369,E,1,00,00022.523,M 
$GPGGA,231452.000,3101.6550,N,12125.5364,E,1,00,00022.283,M 
$GPGGA,231453.000,3101.6550,N,12125.5358,E,1,00,00022.283,M 
$GPGGA,231453.000,3101.6549,N,12125.5352,E,1,00,00020.276,M 
$GPGGA,231454.000,3101.6549,N,12125.5347,E,1,00,00019.380,M 
$GPGGA,231455.000,3101.6548,N,12125.5342,E,1,00,00019.380,M 
$GPGGA,231455.000,3101.6548,N,12125.5337,E,1,00,00021.169,M 
$GPGGA,231456.000,3101.6548,N,12125.5331,E,1,00,00021.169,M 
$GPGGA,231456.000,3101.6547,N,12125.5326,E,1,00,00021.578,M 
$GPGGA,231457.000,3101.6547,N,12125.5321,E,1,00,00021.578,M 
$GPGGA,231457.000,3101.6547,N,12125.5317,E,1,00,00021.607,M 
$GPGGA,231458.000,3101.6547,N,12125.5312,E,1,00,00021.607,M 
$GPGGA,231458.000,3101.6546,N,12125.5307,E,1,00,00022.968,M 
$GPGGA,231459.000,3101.6546,N,12125.5303,E,1,00,00022.968,M 
$GPGGA,231459.000,3101.6545,N,12125.5298,E,1,00,00022.708,M 
$GPGGA,231500.000,3101.6544,N,12125.5293,E,1,00,00021.349,M 
$GPGGA,231501.000,3101.6544,N,12125.5289,E,1,00,00021.349,M 
$GPGGA,231501.000,3101.6543,N,12125.5284,E,1,00,00022.580,M 
$GPGGA,231502.000,3101.6542,N,12125.5279,E,1,00,00022.580,M 
$GPGGA,231502.000,3101.6542,N,12125.5275,E,1,00,00024.444,M 
$GPGGA,231503.000,3101.6541,N,12125.5270,E,1,00,00024.444,M 
$GPGGA,231503.000,3101.6540,N,12125.5265,E,1,00,00025.211,M 
$GPGGA,231504.000,3101.6540,N,12125.5260,E,1,00,00025.212,M 
$GPGGA,231504.000,3101.6539,N,12125.5255,E,1,00,00026.566,M 
$GPGGA,231505.000,3101.6538,N,12125.5251,E,1,00,00026.567,M 
$GPGGA,231505.000,3101.6538,N,12125.5247,E,1,00,00027.577,M 
$GPGGA,231506.000,3101.6537,N,12125.5243,E,1,00,00027.578,M 
$GPGGA,231507.000,3101.6536,N,12125.5238,E,1,00,00027.578,M 
$GPGGA,231507.000,3101.6536,N,12125.5234,E,1,00,00029.327,M 
$GPGGA,231508.000,3101.6535,N,12125.5230,E,1,00,00029.327,M 
$GPGGA,231508.000,3101.6534,N,12125.5227,E,1,00,00030.277,M 
$GPGGA,231509.000,3101.6533,N,12125.5222,E,1,00,00030.278,M 
$GPGGA,231509.000,3101.6532,N,12125.5219,E,1,00,00031.429,M 
$GPGGA,231510.000,3101.6530,N,12125.5215,E,1,00,00031.429,M 
$GPGGA,231510.000,3101.6529,N,12125.5211,E,1,00,00033.278,M 
$GPGGA,231511.000,3101.6528,N,12125.5208,E,1,00,00033.278,M 
$GPGGA,231511.000,3101.6527,N,12125.5204,E,1,00,00034.361,M 
$GPGGA,231512.000,3101.6525,N,12125.5200,E,1,00,00034.361,M 
$GPGGA,231512.000,3101.6524,N,12125.5197,E,1,00,00036.072,M 
$GPGGA,231513.000,3101.6522,N,12125.5193,E,1,00,00037.817,M 
$GPGGA,231514.000,3101.6520,N,12125.5188,E,1,00,00037.818,M 
$GPGGA,231514.000,3101.6518,N,12125.5184,E,1,00,00037.346,M 
$GPGGA,231515.000,3101.6516,N,12125.5180,E,1,00,00037.346,M 
$GPGGA,231515.000,3101.6514,N,12125.5175,E,1,00,00038.372,M 
$GPGGA,231516.000,3101.6512,N,12125.5170,E,1,00,00038.372,M 
$GPGGA,231516.000,3101.6511,N,12125.5166,E,1,00,00037.519,M 
$GPGGA,231517.000,3101.6509,N,12125.5161,E,1,00,00037.519,M 
$GPGGA,231517.000,3101.6508,N,12125.5157,E,1,00,00036.174,M 
$GPGGA,231518.000,3101.6507,N,12125.5152,E,1,00,00036.174,M 
$GPGGA,231518.000,3101.6506,N,12125.5147,E,1,00,00033.972,M 
$GPGGA,231519.000,3101.6506,N,12125.5142,E,1,00,00033.664,M 
$GPGGA,231520.000,3101.6505,N,12125.5136,E,1,00,00033.665,M 
$GPGGA,231520.000,3101.6505,N,12125.5131,E,1,00,00026.056,M 
$GPGGA,231521.000,3101.6504,N,12125.5125,E,1,00,00026.056,M 
$GPGGA,231521.000,3101.6503,N,12125.5120,E,1,00,00022.459,M 
$GPGGA,231522.000,3101.6501,N,12125.5114,E,1,00,00022.459,M 
$GPGGA,231522.000,3101.6499,N,12125.5108,E,1,00,00023.686,M 
$GPGGA,231523.000,3101.6497,N,12125.5102,E,1,00,00023.686,M 
$GPGGA,231523.000,3101.6495,N,12125.5097,E,1,00,00019.631,M 
$GPGGA,231524.000,3101.6493,N,12125.5091,E,1,00,00019.631,M 
$GPGGA,231524.000,3101.6491,N,12125.5086,E,1,00,00018.218,M 
$GPGGA,231525.000,3101.6488,N,12125.5081,E,1,00,00018.218,M 
$GPGGA,231525.000,3101.6486,N,12125.5076,E,1,00,00016.418,M 
$GPGGA,231526.000,3101.6484,N,12125.5071,E,1,00,00013.038,M 
$GPGGA,231527.000,3101.6482,N,12125.5065,E,1,00,00013.038,M 
$GPGGA,231527.000,3101.6480,N,12125.5059,E,1,00,00013.513,M 
$GPGGA,231528.000,3101.6479,N,12125.5054,E,1,00,00013.513,M 
$GPGGA,231528.000,3101.6478,N,12125.5048,E,1,00,00012.093,M 
$GPGGA,231529.000,3101.6477,N,12125.5043,E,1,00,00012.093,M 
$GPGGA,231529.000,3101.6476,N,12125.5037,E,1,00,00012.749,M 
$GPGGA,231530.000,3101.6475,N,12125.5032,E,1,00,00012.749,M 
$GPGGA,231530.000,3101.6474,N,12125.5027,E,1,00,00011.450,M 
$GPGGA,231531.000,3101.6473,N,12125.5022,E,1,00,00011.450,M 
$GPGGA,231531.000,3101.6472,N,12125.5017,E,1,00,00011.414,M 
$GPGGA,231532.000,3101.6471,N,12125.5011,E,1,00,00011.414,M 
$GPGGA,231532.000,3101.6470,N,12125.5006,E,1,00,00008.987,M 
$GPGGA,231533.000,3101.6469,N,12125.5000,E,1,00,00009.673,M 
$GPGGA,231534.000,3101.6467,N,12125.4994,E,1,00,00009.673,M 
$GPGGA,231534.000,3101.6466,N,12125.4989,E,1,00,00009.130,M 
$GPGGA,231535.000,3101.6464,N,12125.4984,E,1,00,00009.130,M 
$GPGGA,231535.000,3101.6462,N,12125.4980,E,1,00,00009.597,M 
$GPGGA,231536.000,3101.6461,N,12125.4975,E,1,00,00009.597,M 
$GPGGA,231536.000,3101.6459,N,12125.4971,E,1,00,00011.930,M 
$GPGGA,231537.000,3101.6458,N,12125.4966,E,1,00,00011.930,M 
$GPGGA,231537.000,3101.6457,N,12125.4962,E,1,00,00013.207,M 
$GPGGA,231538.000,3101.6455,N,12125.4957,E,1,00,00013.207,M 
$GPGGA,231538.000,3101.6454,N,12125.4953,E,1,00,00013.213,M 
$GPGGA,231539.000,3101.6452,N,12125.4948,E,1,00,00014.136,M 
$GPGGA,231540.000,3101.6450,N,12125.4943,E,1,00,00014.136,M 
$GPGGA,231540.000,3101.6449,N,12125.4939,E,1,00,00012.610,M 
$GPGGA,231541.000,3101.6447,N,12125.4933,E,1,00,00012.611,M 
$GPGGA,231541.000,3101.6445,N,12125.4928,E,1,00,00012.670,M 
$GPGGA,231542.000,3101.6444,N,12125.4923,E,1,00,00012.670,M 
$GPGGA,231542.000,3101.6443,N,12125.4918,E,1,00,00012.607,M 
$GPGGA,231543.000,3101.6441,N,12125.4913,E,1,00,00012.607,M 
$GPGGA,231543.000,3101.6440,N,12125.4908,E,1,00,00010.786,M 
$GPGGA,231544.000,3101.6439,N,12125.4903,E,1,00,00010.786,M 
$GPGGA,231544.000,3101.6438,N,12125.4898,E,1,00,00010.413,M 
$GPGGA,231545.000,3101.6436,N,12125.4893,E,1,00,00010.563,M 
$GPGGA,231546.000,3101.6435,N,12125.4888,E,1,00,00010.563,M 
$GPGGA,231546.000,3101.6434,N,12125.4883,E,1,00,00009.693,M 
$GPGGA,231547.000,3101.6432,N,12125.4878,E,1,00,00009.693,M 
$GPGGA,231547.000,3101.6431,N,12125.4873,E,1,00,00009.721,M 
$GPGGA,231548.000,3101.6430,N,12125.4868,E,1,00,00009.721,M 
$GPGGA,231548.000,3101.6429,N,12125.4863,E,1,00,00010.393,M 
$GPGGA,231549.000,3101.6428,N,12125.4858,E,1,00,00010.393,M 
$GPGGA,231549.000,3101.6427,N,12125.4854,E,1,00,00010.921,M 
$GPGGA,231550.000,3101.6426,N,12125.4848,E,1,00,00010.921,M 
$GPGGA,231550.000,3101.6425,N,12125.4844,E,1,00,00012.731,M 
$GPGGA,231551.000,3101.6423,N,12125.4838,E,1,00,00011.588,M 
$GPGGA,231552.000,3101.6422,N,12125.4833,E,1,00,00011.588,M 
$GPGGA,231552.000,3101.6421,N,12125.4828,E,1,00,00013.175,M 
$GPGGA,231553.000,3101.6420,N,12125.4823,E,1,00,00013.175,M 
$GPGGA,231553.000,3101.6419,N,12125.4818,E,1,00,00011.452,M 
$GPGGA,231554.000,3101.6417,N,12125.4813,E,1,00,00011.453,M 
$GPGGA,231554.000,3101.6416,N,12125.4808,E,1,00,00013.406,M 
$GPGGA,231555.000,3101.6415,N,12125.4803,E,1,00,00013.406,M 
$GPGGA,231555.000,3101.6414,N,12125.4798,E,1,00,00012.686,M 
$GPGGA,231556.000,3101.6413,N,12125.4793,E,1,00,00012.686,M 
$GPGGA,231556.000,3101.6411,N,12125.4789,E,1,00,00013.005,M 
$GPGGA,231557.000,3101.6410,N,12125.4785,E,1,00,00014.105,M 
$GPGGA,231558.000,3101.6409,N,12125.4780,E,1,00,00014.106,M 
$GPGGA,231558.000,3101.6409,N,12125.4775,E,1,00,00014.626,M 
$GPGGA,231559.000,3101.6408,N,12125.4771,E,1,00,00014.626,M 
$GPGGA,231559.000,3101.6407,N,12125.4766,E,1,00,00016.712,M 
$GPGGA,231600.000,3101.6407,N,12125.4762,E,1,00,00016.712,M 
$GPGGA,231600.000,3101.6406,N,12125.4757,E,1,00,00017.561,M 
$GPGGA,231601.000,3101.6406,N,12125.4753,E,1,00,00017.561,M 
$GPGGA,231601.000,3101.6405,N,12125.4748,E,1,00,00018.928,M 
$GPGGA,231602.000,3101.6404,N,12125.4743,E,1,00,00018.459,M 
$GPGGA,231603.000,3101.6403,N,12125.4739,E,1,00,00018.459,M 
$GPGGA,231603.000,3101.6402,N,12125.4734,E,1,00,00018.002,M 
$GPGGA,231604.000,3101.6401,N,12125.4730,E,1,00,00018.002,M 
$GPGGA,231604.000,3101.6400,N,12125.4726,E,1,00,00019.288,M 
$GPGGA,231605.000,3101.6399,N,12125.4721,E,1,00,00019.288,M 
$GPGGA,231605.000,3101.6398,N,12125.4717,E,1,00,00019.802,M 
$GPGGA,231606.000,3101.6397,N,12125.4713,E,1,00,00019.802,M 
$GPGGA,231606.000,3101.6395,N,12125.4708,E,1,00,00020.512,M 
$GPGGA,231607.000,3101.6394,N,12125.4704,E,1,00,00020.512,M 
$GPGGA,231607.000,3101.6392,N,12125.4700,E,1,00,00021.591,M 
$GPGGA,231608.000,3101.6391,N,12125.4696,E,1,00,00021.679,M 
$GPGGA,231609.000,3101.6389,N,12125.4691,E,1,00,00021.679,M 
$GPGGA,231609.000,3101.6387,N,12125.4688,E,1,00,00022.878,M 
$GPGGA,231610.000,3101.6385,N,12125.4684,E,1,00,00022.878,M 
$GPGGA,231610.000,3101.6383,N,12125.4679,E,1,00,00023.722,M 
$GPGGA,231611.000,3101.6381,N,12125.4675,E,1,00,00023.723,M 
$GPGGA,231611.000,3101.6380,N,12125.4671,E,1,00,00025.271,M 
$GPGGA,231612.000,3101.6378,N,12125.4667,E,1,00,00025.271,M 
$GPGGA,231612.000,3101.6376,N,12125.4663,E,1,00,00023.991,M 
$GPGGA,231613.000,3101.6374,N,12125.4659,E,1,00,00020.369,M 
$GPGGA,231614.000,3101.6372,N,12125.4655,E,1,00,00020.369,M 
$GPGGA,231614.000,3101.6370,N,12125.4650,E,1,00,00019.934,M 
$GPGGA,231615.000,3101.6368,N,12125.4645,E,1,00,00019.934,M 
$GPGGA,231615.000,3101.6366,N,12125.4641,E,1,00,00019.604,M 
$GPGGA,231616.000,3101.6364,N,12125.4636,E,1,00,00019.604,M 
$GPGGA,231616.000,3101.6363,N,12125.4632,E,1,00,00020.930,M 
$GPGGA,231617.000,3101.6361,N,12125.4628,E,1,00,00020.930,M 
$GPGGA,231617.000,3101.6360,N,12125.4623,E,1,00,00019.512,M 
$GPGGA,231618.000,3101.6358,N,12125.4619,E,1,00,00019.512,M 
$GPGGA,231618.000,3101.6357,N,12125.4614,E,1,00,00019.432,M 
$GPGGA,231619.000,3101.6355,N,12125.4610,E,1,00,00021.424,M 
$GPGGA,231620.000,3101.6354,N,12125.4606,E,1,00,00021.424,M 
$GPGGA,231620.000,3101.6352,N,12125.4602,E,1,00,00020.386,M 
$GPGGA,231621.000,3101.6350,N,12125.4598,E,1,00,00020.386,M 
$GPGGA,231621.000,3101.6348,N,12125.4594,E,1,00,00019.628,M 
$GPGGA,231622.000,3101.6346,N,12125.4590,E,1,00,00019.628,M 
$GPGGA,231622.000,3101.6344,N,12125.4586,E,1,00,00018.852,M 
$GPGGA,231623.000,3101.6342,N,12125.4581,E,1,00,00018.852,M 
$GPGGA,231623.000,3101.6340,N,12125.4577,E,1,00,00018.524,M 
$GPGGA,231624.000,3101.6338,N,12125.4573,E,1,00,00018.298,M 
$GPGGA,231625.000,3101.6337,N,12125.4568,E,1,00,00018.298,M 
$GPGGA,231625.000,3101.6335,N,12125.4564,E,1,00,00018.321,M 
$GPGGA,231626.000,3101.6333,N,12125.4560,E,1,00,00018.321,M 
$GPGGA,231626.000,3101.6331,N,12125.4555,E,1,00,00016.161,M 
$GPGGA,231627.000,3101.6329,N,12125.4551,E,1,00,00016.161,M 
$GPGGA,231627.000,3101.6328,N,12125.4547,E,1,00,00016.973,M 
$GPGGA,231628.000,3101.6326,N,12125.4542,E,1,00,00016.973,M 
$GPGGA,231628.000,3101.6325,N,12125.4538,E,1,00,00018.329,M 
$GPGGA,231629.000,3101.6323,N,12125.4534,E,1,00,00018.329,M 
$GPGGA,231629.000,3101.6322,N,12125.4529,E,1,00,00017.063,M 
$GPGGA,231630.000,3101.6320,N,12125.4525,E,1,00,00017.287,M 
$GPGGA,231631.000,3101.6319,N,12125.4520,E,1,00,00017.287,M 
$GPGGA,231631.000,3101.6317,N,12125.4515,E,1,00,00015.809,M 
$GPGGA,231632.000,3101.6315,N,12125.4510,E,1,00,00015.809,M 
$GPGGA,231632.000,3101.6313,N,12125.4506,E,1,00,00015.823,M 
$GPGGA,231633.000,3101.6311,N,12125.4501,E,1,00,00015.823,M 
$GPGGA,231633.000,3101.6309,N,12125.4497,E,1,00,00016.612,M 
$GPGGA,231634.000,3101.6307,N,12125.4493,E,1,00,00016.014,M 
$GPGGA,231635.000,3101.6304,N,12125.4489,E,1,00,00016.014,M 
$GPGGA,231635.000,3101.6302,N,12125.4485,E,1,00,00016.247,M 
$GPGGA,231636.000,3101.6300,N,12125.4480,E,1,00,00016.247,M 
$GPGGA,231636.000,3101.6298,N,12125.4476,E,1,00,00016.275,M 
$GPGGA,231637.000,3101.6297,N,12125.4471,E,1,00,00016.275,M 
$GPGGA,231637.000,3101.6295,N,12125.4467,E,1,00,00014.641,M 
$GPGGA,231638.000,3101.6294,N,12125.4462,E,1,00,00015.737,M 
$GPGGA,231639.000,3101.6292,N,12125.4457,E,1,00,00015.737,M 
$GPGGA,231639.000,3101.6291,N,12125.4453,E,1,00,00015.435,M 
$GPGGA,231640.000,3101.6289,N,12125.4449,E,1,00,00015.435,M 
$GPGGA,231640.000,3101.6288,N,12125.4444,E,1,00,00015.156,M 
$GPGGA,231641.000,3101.6286,N,12125.4440,E,1,00,00015.156,M 
$GPGGA,231641.000,3101.6285,N,12125.4436,E,1,00,00015.127,M 
$GPGGA,231642.000,3101.6283,N,12125.4433,E,1,00,00014.049,M 
$GPGGA,231643.000,3101.6281,N,12125.4429,E,1,00,00014.049,M 
$GPGGA,231643.000,3101.6278,N,12125.4425,E,1,00,00015.318,M 
$GPGGA,231644.000,3101.6276,N,12125.4422,E,1,00,00015.318,M 
$GPGGA,231644.000,3101.6274,N,12125.4418,E,1,00,00015.994,M 
$GPGGA,231645.000,3101.6272,N,12125.4415,E,1,00,00016.790,M 
$GPGGA,231646.000,3101.6270,N,12125.4412,E,1,00,00016.790,M 
$GPGGA,231646.000,3101.6269,N,12125.4409,E,1,00,00016.384,M 
$GPGGA,231647.000,3101.6267,N,12125.4405,E,1,00,00016.384,M 
$GPGGA,231647.000,3101.6266,N,12125.4402,E,1,00,00015.072,M 
$GPGGA,231648.000,3101.6265,N,12125.4397,E,1,00,00015.032,M 
$GPGGA,231649.000,3101.6265,N,12125.4393,E,1,00,00015.033,M 
$GPGGA,231649.000,3101.6264,N,12125.4388,E,1,00,00015.929,M 
$GPGGA,231650.000,3101.6264,N,12125.4383,E,1,00,00015.929,M 
$GPGGA,231650.000,3101.6264,N,12125.4379,E,1,00,00017.513,M 
$GPGGA,231651.000,3101.6264,N,12125.4374,E,1,00,00016.101,M 
$GPGGA,231652.000,3101.6264,N,12125.4369,E,1,00,00016.101,M 
$GPGGA,231652.000,3101.6265,N,12125.4364,E,1,00,00017.021,M 
$GPGGA,231653.000,3101.6264,N,12125.4359,E,1,00,00017.022,M 
$GPGGA,231653.000,3101.6264,N,12125.4354,E,1,00,00016.186,M 
$GPGGA,231654.000,3101.6264,N,12125.4349,E,1,00,00016.874,M 
$GPGGA,231655.000,3101.6263,N,12125.4344,E,1,00,00016.874,M 
$GPGGA,231655.000,3101.6262,N,12125.4339,E,1,00,00016.558,M 
$GPGGA,231656.000,3101.6260,N,12125.4335,E,1,00,00016.559,M 
$GPGGA,231656.000,3101.6258,N,12125.4331,E,1,00,00017.786,M 
$GPGGA,231657.000,3101.6256,N,12125.4327,E,1,00,00018.044,M 
$GPGGA,231658.000,3101.6254,N,12125.4323,E,1,00,00018.044,M 
$GPGGA,231658.000,3101.6252,N,12125.4318,E,1,00,00019.343,M 
$GPGGA,231659.000,3101.6249,N,12125.4314,E,1,00,00019.343,M 
$GPGGA,231659.000,3101.6247,N,12125.4310,E,1,00,00019.671,M 
$GPGGA,231700.000,3101.6244,N,12125.4306,E,1,00,00020.752,M 
$GPGGA,231701.000,3101.6241,N,12125.4302,E,1,00,00020.752,M 
$GPGGA,231701.000,3101.6239,N,12125.4299,E,1,00,00021.174,M 
$GPGGA,231702.000,3101.6236,N,12125.4295,E,1,00,00021.174,M 
$GPGGA,231702.000,3101.6233,N,12125.4291,E,1,00,00023.498,M 
$GPGGA,231703.000,3101.6231,N,12125.4287,E,1,00,00022.153,M 
$GPGGA,231704.000,3101.6228,N,12125.4282,E,1,00,00022.153,M 
$GPGGA,231704.000,3101.6226,N,12125.4278,E,1,00,00022.374,M 
$GPGGA,231705.000,3101.6224,N,12125.4274,E,1,00,00022.374,M 
$GPGGA,231705.000,3101.6222,N,12125.4270,E,1,00,00022.595,M 
$GPGGA,231706.000,3101.6220,N,12125.4266,E,1,00,00020.807,M 
$GPGGA,231707.000,3101.6218,N,12125.4262,E,1,00,00020.807,M 
$GPGGA,231707.000,3101.6216,N,12125.4258,E,1,00,00020.165,M 
$GPGGA,231708.000,3101.6214,N,12125.4254,E,1,00,00020.165,M 
$GPGGA,231708.000,3101.6212,N,12125.4250,E,1,00,00019.660,M 
$GPGGA,231709.000,3101.6210,N,12125.4246,E,1,00,00018.530,M 
$GPGGA,231710.000,3101.6208,N,12125.4242,E,1,00,00018.530,M 
$GPGGA,231710.000,3101.6206,N,12125.4238,E,1,00,00019.125,M 
$GPGGA,231711.000,3101.6203,N,12125.4234,E,1,00,00019.125,M 
$GPGGA,231711.000,3101.6201,N,12125.4230,E,1,00,00021.062,M 
$GPGGA,231712.000,3101.6199,N,12125.4226,E,1,00,00021.002,M 
$GPGGA,231713.000,3101.6196,N,12125.4222,E,1,00,00021.002,M 
$GPGGA,231713.000,3101.6194,N,12125.4218,E,1,00,00021.572,M 
$GPGGA,231714.000,3101.6192,N,12125.4214,E,1,00,00021.572,M 
$GPGGA,231714.000,3101.6189,N,12125.4210,E,1,00,00022.760,M 
$GPGGA,231715.000,3101.6186,N,12125.4206,E,1,00,00022.760,M 
$GPGGA,231715.000,3101.6184,N,12125.4202,E,1,00,00023.493,M 
$GPGGA,231716.000,3101.6181,N,12125.4199,E,1,00,00024.986,M 
$GPGGA,231717.000,3101.6178,N,12125.4195,E,1,00,00024.986,M 
$GPGGA,231717.000,3101.6176,N,12125.4191,E,1,00,00025.424,M 
$GPGGA,231718.000,3101.6173,N,12125.4187,E,1,00,00025.424,M 
$GPGGA,231718.000,3101.6171,N,12125.4184,E,1,00,00024.968,M 
$GPGGA,231719.000,3101.6168,N,12125.4180,E,1,00,00024.968,M 
$GPGGA,231719.000,3101.6166,N,12125.4176,E,1,00,00024.085,M 
$GPGGA,231720.000,3101.6164,N,12125.4172,E,1,00,00022.083,M 
$GPGGA,231721.000,3101.6161,N,12125.4168,E,1,00,00022.083,M 
$GPGGA,231721.000,3101.6159,N,12125.4164,E,1,00,00022.818,M 
$GPGGA,231722.000,3101.6157,N,12125.4160,E,1,00,00022.818,M 
$GPGGA,231722.000,3101.6154,N,12125.4157,E,1,00,00022.718,M 
$GPGGA,231723.000,3101.6152,N,12125.4153,E,1,00,00022.719,M 
$GPGGA,231723.000,3101.6150,N,12125.4149,E,1,00,00023.359,M 
$GPGGA,231724.000,3101.6147,N,12125.4145,E,1,00,00024.424,M 
$GPGGA,231725.000,3101.6145,N,12125.4141,E,1,00,00024.424,M 
$GPGGA,231725.000,3101.6143,N,12125.4138,E,1,00,00024.842,M 
$GPGGA,231726.000,3101.6141,N,12125.4134,E,1,00,00024.842,M 
$GPGGA,231726.000,3101.6139,N,12125.4130,E,1,00,00025.507,M 
$GPGGA,231727.000,3101.6138,N,12125.4126,E,1,00,00025.507,M 
$GPGGA,231727.000,3101.6136,N,12125.4121,E,1,00,00025.709,M 
$GPGGA,231728.000,3101.6133,N,12125.4117,E,1,00,00025.709,M 
$GPGGA,231728.000,3101.6131,N,12125.4112,E,1,00,00023.962,M 
$GPGGA,231729.000,3101.6129,N,12125.4108,E,1,00,00023.962,M 
$GPGGA,231729.000,3101.6127,N,12125.4104,E,1,00,00024.128,M 
$GPGGA,231730.000,3101.6124,N,12125.4099,E,1,00,00021.478,M 
$GPGGA,231731.000,3101.6122,N,12125.4095,E,1,00,00021.478,M 
$GPGGA,231731.000,3101.6119,N,12125.4090,E,1,00,00021.113,M 
$GPGGA,231732.000,3101.6116,N,12125.4086,E,1,00,00021.113,M 
$GPGGA,231732.000,3101.6113,N,12125.4082,E,1,00,00019.772,M 
$GPGGA,231733.000,3101.6111,N,12125.4078,E,1,00,00019.772,M 
$GPGGA,231733.000,3101.6108,N,12125.4073,E,1,00,00020.780,M 
$GPGGA,231734.000,3101.6106,N,12125.4069,E,1,00,00020.780,M 
$GPGGA,231734.000,3101.6104,N,12125.4065,E,1,00,00019.369,M 
$GPGGA,231735.000,3101.6102,N,12125.4060,E,1,00,00018.342,M 
$GPGGA,231736.000,3101.6100,N,12125.4055,E,1,00,00018.342,M 
$GPGGA,231736.000,3101.6098,N,12125.4050,E,1,00,00017.889,M 
$GPGGA,231737.000,3101.6096,N,12125.4045,E,1,00,00017.889,M 
$GPGGA,231737.000,3101.6094,N,12125.4041,E,1,00,00016.663,M 
$GPGGA,231738.000,3101.6092,N,12125.4036,E,1,00,00016.663,M 
$GPGGA,231738.000,3101.6091,N,12125.4031,E,1,00,00016.558,M 
$GPGGA,231739.000,3101.6090,N,12125.4026,E,1,00,00016.052,M 
$GPGGA,231740.000,3101.6089,N,12125.4020,E,1,00,00016.052,M 
$GPGGA,231740.000,3101.6088,N,12125.4015,E,1,00,00016.877,M 
$GPGGA,231741.000,3101.6088,N,12125.4010,E,1,00,00016.878,M 
$GPGGA,231741.000,3101.6088,N,12125.4005,E,1,00,00016.671,M 
$GPGGA,231742.000,3101.6090,N,12125.4001,E,1,00,00015.211,M 
$GPGGA,231747.000,3101.6095,N,12125.3995,E,1,00,00014.086,M 
$GPGGA,231748.000,3101.6100,N,12125.3989,E,1,00,00014.086,M 
$GPGGA,231748.000,3101.6104,N,12125.3983,E,1,00,00018.472,M 
$GPGGA,231749.000,3101.6108,N,12125.3978,E,1,00,00018.472,M 
$GPGGA,231749.000,3101.6112,N,12125.3974,E,1,00,00018.019,M 
$GPGGA,231750.000,3101.6116,N,12125.3969,E,1,00,00019.201,M 
$GPGGA,231751.000,3101.6120,N,12125.3965,E,1,00,00019.202,M 
$GPGGA,231751.000,3101.6123,N,12125.3960,E,1,00,00022.021,M 
$GPGGA,231752.000,3101.6127,N,12125.3956,E,1,00,00022.021,M 
$GPGGA,231752.000,3101.6131,N,12125.3953,E,1,00,00022.807,M 
$GPGGA,231753.000,3101.6135,N,12125.3949,E,1,00,00022.807,M 
$GPGGA,231753.000,3101.6139,N,12125.3945,E,1,00,00024.382,M 
$GPGGA,231754.000,3101.6143,N,12125.3942,E,1,00,00023.413,M 
$GPGGA,231755.000,3101.6147,N,12125.3940,E,1,00,00023.414,M 
$GPGGA,231755.000,3101.6151,N,12125.3937,E,1,00,00024.069,M 
$GPGGA,231756.000,3101.6154,N,12125.3934,E,1,00,00024.069,M 
$GPGGA,231756.000,3101.6158,N,12125.3932,E,1,00,00023.463,M 
$GPGGA,231757.000,3101.6161,N,12125.3929,E,1,00,00023.463,M 
$GPGGA,231757.000,3101.6165,N,12125.3927,E,1,00,00022.718,M 
$GPGGA,231758.000,3101.6168,N,12125.3925,E,1,00,00022.718,M 
$GPGGA,231758.000,3101.6172,N,12125.3923,E,1,00,00022.960,M 
$GPGGA,231759.000,3101.6175,N,12125.3920,E,1,00,00021.355,M 
$GPGGA,231800.000,3101.6179,N,12125.3917,E,1,00,00021.355,M 
$GPGGA,231800.000,3101.6182,N,12125.3915,E,1,00,00024.167,M 
$GPGGA,231801.000,3101.6185,N,12125.3912,E,1,00,00024.168,M 
$GPGGA,231801.000,3101.6189,N,12125.3910,E,1,00,00023.090,M 
$GPGGA,231802.000,3101.6192,N,12125.3907,E,1,00,00023.090,M 
$GPGGA,231802.000,3101.6195,N,12125.3905,E,1,00,00021.753,M 
$GPGGA,231803.000,3101.6198,N,12125.3903,E,1,00,00021.753,M 
$GPGGA,231803.000,3101.6202,N,12125.3901,E,1,00,00023.161,M 
$GPGGA,231804.000,3101.6205,N,12125.3899,E,1,00,00022.918,M 
$GPGGA,231805.000,3101.6209,N,12125.3897,E,1,00,00022.918,M 
$GPGGA,231805.000,3101.6213,N,12125.3895,E,1,00,00022.730,M 
$GPGGA,231806.000,3101.6217,N,12125.3892,E,1,00,00022.731,M 
$GPGGA,231806.000,3101.6221,N,12125.3889,E,1,00,00024.310,M 
$GPGGA,231807.000,3101.6225,N,12125.3887,E,1,00,00024.310,M 
$GPGGA,231807.000,3101.6229,N,12125.3884,E,1,00,00023.268,M 
$GPGGA,231808.000,3101.6234,N,12125.3882,E,1,00,00023.729,M 
$GPGGA,231809.000,3101.6238,N,12125.3879,E,1,00,00023.729,M 
$GPGGA,231809.000,3101.6243,N,12125.3877,E,1,00,00022.618,M 
$GPGGA,231810.000,3101.6247,N,12125.3875,E,1,00,00022.618,M 
$GPGGA,231810.000,3101.6252,N,12125.3873,E,1,00,00022.797,M 
$GPGGA,231811.000,3101.6257,N,12125.3871,E,1,00,00022.797,M 
$GPGGA,231811.000,3101.6262,N,12125.3869,E,1,00,00021.037,M 
$GPGGA,231812.000,3101.6267,N,12125.3867,E,1,00,00021.661,M 
$GPGGA,231813.000,3101.6272,N,12125.3864,E,1,00,00021.661,M 
$GPGGA,231813.000,3101.6277,N,12125.3862,E,1,00,00021.323,M 
$GPGGA,231814.000,3101.6282,N,12125.3859,E,1,00,00021.323,M 
$GPGGA,231814.000,3101.6287,N,12125.3857,E,1,00,00020.894,M 
$GPGGA,231815.000,3101.6293,N,12125.3855,E,1,00,00020.894,M 
$GPGGA,231815.000,3101.6298,N,12125.3852,E,1,00,00022.332,M 
$GPGGA,231816.000,3101.6303,N,12125.3850,E,1,00,00022.332,M 
$GPGGA,231816.000,3101.6307,N,12125.3847,E,1,00,00021.888,M 
$GPGGA,231817.000,3101.6312,N,12125.3845,E,1,00,00021.244,M 
$GPGGA,231818.000,3101.6318,N,12125.3842,E,1,00,00021.245,M 
$GPGGA,231818.000,3101.6323,N,12125.3840,E,1,00,00020.147,M 
$GPGGA,231819.000,3101.6328,N,12125.3838,E,1,00,00020.147,M 
$GPGGA,231819.000,3101.6333,N,12125.3837,E,1,00,00019.985,M 
$GPGGA,231820.000,3101.6338,N,12125.3835,E,1,00,00019.985,M 
$GPGGA,231820.000,3101.6343,N,12125.3833,E,1,00,00019.653,M 
$GPGGA,231821.000,3101.6347,N,12125.3832,E,1,00,00019.146,M 
$GPGGA,231822.000,3101.6352,N,12125.3830,E,1,00,00019.146,M 
$GPGGA,231822.000,3101.6357,N,12125.3829,E,1,00,00020.788,M 
$GPGGA,231823.000,3101.6361,N,12125.3828,E,1,00,00020.788,M 
$GPGGA,231823.000,3101.6366,N,12125.3826,E,1,00,00019.818,M 
$GPGGA,231824.000,3101.6370,N,12125.3825,E,1,00,00019.818,M 
$GPGGA,231824.000,3101.6374,N,12125.3824,E,1,00,00021.829,M 
$GPGGA,231825.000,3101.6378,N,12125.3823,E,1,00,00022.492,M 
$GPGGA,231826.000,3101.6382,N,12125.3822,E,1,00,00022.492,M 
$GPGGA,231826.000,3101.6385,N,12125.3820,E,1,00,00022.903,M 
$GPGGA,231827.000,3101.6389,N,12125.3819,E,1,00,00022.903,M 
$GPGGA,231827.000,3101.6393,N,12125.3818,E,1,00,00020.329,M 
$GPGGA,231828.000,3101.6396,N,12125.3817,E,1,00,00020.329,M 
$GPGGA,231828.000,3101.6399,N,12125.3816,E,1,00,00018.719,M 
$GPGGA,231829.000,3101.6403,N,12125.3815,E,1,00,00017.026,M 
$GPGGA,231830.000,3101.6406,N,12125.3813,E,1,00,00017.026,M 
$GPGGA,231830.000,3101.6409,N,12125.3812,E,1,00,00016.376,M 
$GPGGA,231831.000,3101.6412,N,12125.3811,E,1,00,00016.376,M 
$GPGGA,231831.000,3101.6416,N,12125.3810,E,1,00,00016.123,M 
$GPGGA,231832.000,3101.6418,N,12125.3808,E,1,00,00016.123,M 
$GPGGA,231832.000,3101.6421,N,12125.3807,E,1,00,00017.354,M 
$GPGGA,231833.000,3101.6424,N,12125.3805,E,1,00,00016.889,M 
$GPGGA,231834.000,3101.6427,N,12125.3804,E,1,00,00016.889,M 
$GPGGA,231834.000,3101.6430,N,12125.3802,E,1,00,00015.562,M 
$GPGGA,231835.000,3101.6434,N,12125.3800,E,1,00,00015.562,M 
$GPGGA,231835.000,3101.6437,N,12125.3799,E,1,00,00014.221,M 
$GPGGA,231836.000,3101.6440,N,12125.3797,E,1,00,00014.222,M 
$GPGGA,231836.000,3101.6444,N,12125.3795,E,1,00,00014.245,M 
$GPGGA,231837.000,3101.6447,N,12125.3793,E,1,00,00013.824,M 
$GPGGA,231838.000,3101.6450,N,12125.3791,E,1,00,00013.824,M 
$GPGGA,231838.000,3101.6454,N,12125.3789,E,1,00,00013.825,M 
$GPGGA,231838.000,3101.6457,N,12125.3787,E,1,00,00013.825,M 
$GPGGA,231838.000,3101.6459,N,12125.3785,E,1,00,00013.928,M 
$GPGGA,231840.000,3101.6463,N,12125.3783,E,1,00,00013.928,M 
$GPGGA,231840.000,3101.6466,N,12125.3782,E,1,00,00014.955,M 
$GPGGA,231841.000,3101.6469,N,12125.3780,E,1,00,00013.693,M 
$GPGGA,231842.000,3101.6473,N,12125.3778,E,1,00,00013.693,M 
$GPGGA,231842.000,3101.6476,N,12125.3776,E,1,00,00013.693,M 
$GPGGA,231842.000,3101.6479,N,12125.3774,E,1,00,00013.694,M 
$GPGGA,231842.000,3101.6482,N,12125.3772,E,1,00,00013.993,M 
$GPGGA,231843.000,3101.6485,N,12125.3771,E,1,00,00013.993,M 
$GPGGA,231843.000,3101.6488,N,12125.3769,E,1,00,00016.700,M 
$GPGGA,231845.000,3101.6491,N,12125.3767,E,1,00,00016.700,M 
$GPGGA,231845.000,3101.6495,N,12125.3765,E,1,00,00016.106,M 
$GPGGA,231846.000,3101.6499,N,12125.3764,E,1,00,00016.107,M 
$GPGGA,231846.000,3101.6502,N,12125.3762,E,1,00,00016.107,M 
$GPGGA,231846.000,3101.6506,N,12125.3760,E,1,00,00016.651,M 
$GPGGA,231847.000,3101.6509,N,12125.3759,E,1,00,00016.651,M 
$GPGGA,231847.000,3101.6512,N,12125.3758,E,1,00,00016.662,M 
$GPGGA,231848.000,3101.6516,N,12125.3756,E,1,00,00016.662,M 
$GPGGA,231848.000,3101.6519,N,12125.3755,E,1,00,00017.850,M 
$GPGGA,231849.000,3101.6523,N,12125.3754,E,1,00,00017.851,M 
$GPGGA,231849.000,3101.6526,N,12125.3753,E,1,00,00017.999,M 
$GPGGA,231850.000,3101.6530,N,12125.3753,E,1,00,00019.141,M 
$GPGGA,231852.000,3101.6533,N,12125.3752,E,1,00,00019.141,M 
$GPGGA,231852.000,3101.6536,N,12125.3751,E,1,00,00017.422,M 
$GPGGA,231853.000,3101.6538,N,12125.3752,E,1,00,00019.777,M 
$GPGGA,231855.000,3101.6541,N,12125.3757,E,1,00,00017.408,M 
$GPGGA,231856.000,3101.6544,N,12125.3760,E,1,00,00016.450,M 
$GPGGA,231857.000,3101.6548,N,12125.3763,E,1,00,00016.450,M 
$GPGGA,231857.000,3101.6552,N,12125.3765,E,1,00,00015.461,M 
$GPGGA,231858.000,3101.6555,N,12125.3767,E,1,00,00015.461,M 
$GPGGA,231858.000,3101.6559,N,12125.3769,E,1,00,00015.443,M 
$GPGGA,231859.000,3101.6562,N,12125.3771,E,1,00,00015.443,M 
$GPGGA,231859.000,3101.6565,N,12125.3773,E,1,00,00016.852,M 
$GPGGA,231900.000,3101.6568,N,12125.3775,E,1,00,00016.852,M 
$GPGGA,231900.000,3101.6571,N,12125.3777,E,1,00,00016.377,M 
$GPGGA,231901.000,3101.6574,N,12125.3779,E,1,00,00015.923,M 
$GPGGA,231902.000,3101.6577,N,12125.3780,E,1,00,00015.923,M 
$GPGGA,231902.000,3101.6579,N,12125.3782,E,1,00,00016.593,M 
$GPGGA,231903.000,3101.6582,N,12125.3784,E,1,00,00016.593,M 
$GPGGA,231903.000,3101.6585,N,12125.3786,E,1,00,00018.199,M 
$GPGGA,231904.000,3101.6587,N,12125.3788,E,1,00,00018.199,M 
$GPGGA,231904.000,3101.6590,N,12125.3790,E,1,00,00019.995,M 
$GPGGA,231905.000,3101.6592,N,12125.3792,E,1,00,00019.995,M 
$GPGGA,231905.000,3101.6594,N,12125.3794,E,1,00,00019.944,M 
$GPGGA,231906.000,3101.6597,N,12125.3797,E,1,00,00020.015,M 
$GPGGA,231907.000,3101.6599,N,12125.3799,E,1,00,00020.015,M 
$GPGGA,231907.000,3101.6602,N,12125.3802,E,1,00,00020.018,M 
$GPGGA,231908.000,3101.6604,N,12125.3805,E,1,00,00020.018,M 
$GPGGA,231908.000,3101.6607,N,12125.3807,E,1,00,00020.511,M 
$GPGGA,231909.000,3101.6609,N,12125.3810,E,1,00,00020.511,M 
$GPGGA,231909.000,3101.6612,N,12125.3812,E,1,00,00019.705,M 
$GPGGA,231910.000,3101.6614,N,12125.3816,E,1,00,00020.698,M 
$GPGGA,231911.000,3101.6616,N,12125.3819,E,1,00,00020.698,M 
$GPGGA,231911.000,3101.6619,N,12125.3822,E,1,00,00022.405,M 
$GPGGA,231912.000,3101.6621,N,12125.3826,E,1,00,00022.404,M 
$GPGGA,231912.000,3101.6623,N,12125.3830,E,1,00,00020.930,M 
$GPGGA,231913.000,3101.6625,N,12125.3833,E,1,00,00020.930,M 
$GPGGA,231913.000,3101.6627,N,12125.3837,E,1,00,00020.795,M 
$GPGGA,231914.000,3101.6629,N,12125.3841,E,1,00,00020.795,M 
$GPGGA,231914.000,3101.6631,N,12125.3845,E,1,00,00019.045,M 
$GPGGA,231915.000,3101.6633,N,12125.3849,E,1,00,00018.338,M 
$GPGGA,231916.000,3101.6635,N,12125.3853,E,1,00,00018.338,M 
$GPGGA,231916.000,3101.6638,N,12125.3857,E,1,00,00018.135,M 
$GPGGA,231917.000,3101.6640,N,12125.3861,E,1,00,00018.135,M 
$GPGGA,231917.000,3101.6642,N,12125.3866,E,1,00,00019.634,M 
$GPGGA,231918.000,3101.6643,N,12125.3870,E,1,00,00019.634,M 
$GPGGA,231918.000,3101.6645,N,12125.3874,E,1,00,00019.247,M 
$GPGGA,231919.000,3101.6647,N,12125.3877,E,1,00,00019.655,M 
$GPGGA,231920.000,3101.6649,N,12125.3881,E,1,00,00019.655,M 
$GPGGA,231920.000,3101.6651,N,12125.3885,E,1,00,00019.924,M 
$GPGGA,231921.000,3101.6653,N,12125.3889,E,1,00,00019.924,M 
$GPGGA,231921.000,3101.6655,N,12125.3893,E,1,00,00019.304,M 
$GPGGA,231922.000,3101.6657,N,12125.3898,E,1,00,00019.303,M 
$GPGGA,231922.000,3101.6659,N,12125.3902,E,1,00,00016.977,M 
$GPGGA,231923.000,3101.6661,N,12125.3907,E,1,00,00016.976,M 
$GPGGA,231923.000,3101.6662,N,12125.3911,E,1,00,00017.844,M 
$GPGGA,231924.000,3101.6664,N,12125.3915,E,1,00,00017.846,M 
$GPGGA,231925.000,3101.6666,N,12125.3920,E,1,00,00017.845,M 
$GPGGA,231925.000,3101.6668,N,12125.3925,E,1,00,00016.693,M 
$GPGGA,231926.000,3101.6669,N,12125.3930,E,1,00,00016.693,M 
$GPGGA,231926.000,3101.6671,N,12125.3934,E,1,00,00016.569,M 
$GPGGA,231927.000,3101.6672,N,12125.3939,E,1,00,00016.569,M 
$GPGGA,231927.000,3101.6674,N,12125.3944,E,1,00,00016.825,M 
$GPGGA,231928.000,3101.6675,N,12125.3948,E,1,00,00017.594,M 
$GPGGA,231929.000,3101.6677,N,12125.3953,E,1,00,00017.594,M 
$GPGGA,231929.000,3101.6678,N,12125.3957,E,1,00,00018.460,M 
$GPGGA,231930.000,3101.6679,N,12125.3962,E,1,00,00018.460,M 
$GPGGA,231930.000,3101.6680,N,12125.3967,E,1,00,00017.435,M 
$GPGGA,231931.000,3101.6681,N,12125.3972,E,1,00,00017.435,M 
$GPGGA,231931.000,3101.6683,N,12125.3976,E,1,00,00016.001,M 
$GPGGA,231932.000,3101.6684,N,12125.3980,E,1,00,00016.001,M 
$GPGGA,231932.000,3101.6686,N,12125.3985,E,1,00,00016.855,M 
$GPGGA,231933.000,3101.6687,N,12125.3989,E,1,00,00017.808,M 
$GPGGA,231934.000,3101.6688,N,12125.3994,E,1,00,00017.807,M 
$GPGGA,231934.000,3101.6690,N,12125.3998,E,1,00,00018.816,M 
$GPGGA,231935.000,3101.6691,N,12125.4003,E,1,00,00018.816,M 
$GPGGA,231935.000,3101.6692,N,12125.4007,E,1,00,00018.924,M 
$GPGGA,231936.000,3101.6694,N,12125.4011,E,1,00,00018.924,M 
$GPGGA,231936.000,3101.6695,N,12125.4014,E,1,00,00019.499,M 
$GPGGA,231937.000,3101.6697,N,12125.4018,E,1,00,00018.918,M 
$GPGGA,231938.000,3101.6699,N,12125.4022,E,1,00,00018.918,M 
$GPGGA,231938.000,3101.6700,N,12125.4026,E,1,00,00018.333,M 
$GPGGA,231939.000,3101.6702,N,12125.4030,E,1,00,00018.333,M 
$GPGGA,231939.000,3101.6704,N,12125.4034,E,1,00,00017.711,M 
$GPGGA,231940.000,3101.6705,N,12125.4038,E,1,00,00017.711,M 
$GPGGA,231940.000,3101.6707,N,12125.4042,E,1,00,00017.269,M 
$GPGGA,231941.000,3101.6709,N,12125.4045,E,1,00,00017.269,M 
$GPGGA,231941.000,3101.6711,N,12125.4049,E,1,00,00017.386,M 
$GPGGA,231942.000,3101.6713,N,12125.4053,E,1,00,00018.190,M 
$GPGGA,231943.000,3101.6715,N,12125.4057,E,1,00,00018.190,M 
$GPGGA,231943.000,3101.6717,N,12125.4061,E,1,00,00019.179,M 
$GPGGA,231944.000,3101.6719,N,12125.4065,E,1,00,00019.179,M 
$GPGGA,231944.000,3101.6720,N,12125.4069,E,1,00,00019.506,M 
$GPGGA,231945.000,3101.6722,N,12125.4073,E,1,00,00019.506,M 
$GPGGA,231945.000,3101.6724,N,12125.4077,E,1,00,00017.893,M 
$GPGGA,231946.000,3101.6725,N,12125.4081,E,1,00,00017.893,M 
$GPGGA,231946.000,3101.6727,N,12125.4085,E,1,00,00018.069,M 
$GPGGA,231947.000,3101.6729,N,12125.4090,E,1,00,00018.271,M 
$GPGGA,231948.000,3101.6730,N,12125.4094,E,1,00,00018.271,M 
$GPGGA,231948.000,3101.6732,N,12125.4099,E,1,00,00017.364,M 
$GPGGA,231949.000,3101.6733,N,12125.4103,E,1,00,00017.364,M 
$GPGGA,231949.000,3101.6735,N,12125.4108,E,1,00,00016.180,M 
$GPGGA,231950.000,3101.6736,N,12125.4112,E,1,00,00016.180,M 
$GPGGA,231950.000,3101.6738,N,12125.4116,E,1,00,00015.976,M 
$GPGGA,231951.000,3101.6740,N,12125.4120,E,1,00,00015.976,M 
$GPGGA,231951.000,3101.6741,N,12125.4124,E,1,00,00015.682,M 
$GPGGA,231952.000,3101.6743,N,12125.4128,E,1,00,00015.932,M 
$GPGGA,231953.000,3101.6745,N,12125.4133,E,1,00,00015.932,M 
$GPGGA,231953.000,3101.6747,N,12125.4137,E,1,00,00016.549,M 
$GPGGA,231954.000,3101.6749,N,12125.4142,E,1,00,00016.549,M 
$GPGGA,231954.000,3101.6752,N,12125.4147,E,1,00,00016.488,M 
$GPGGA,231955.000,3101.6754,N,12125.4152,E,1,00,00016.487,M 
$GPGGA,231955.000,3101.6756,N,12125.4156,E,1,00,00016.179,M 
$GPGGA,231956.000,3101.6758,N,12125.4160,E,1,00,00016.178,M 
$GPGGA,231956.000,3101.6760,N,12125.4164,E,1,00,00016.562,M 
$GPGGA,231957.000,3101.6762,N,12125.4168,E,1,00,00015.919,M 
$GPGGA,231958.000,3101.6763,N,12125.4172,E,1,00,00015.919,M 
$GPGGA,231958.000,3101.6765,N,12125.4176,E,1,00,00014.678,M 
$GPGGA,231959.000,3101.6767,N,12125.4181,E,1,00,00014.678,M 
$GPGGA,231959.000,3101.6769,N,12125.4186,E,1,00,00017.249,M 
$GPGGA,232000.000,3101.6770,N,12125.4191,E,1,00,00017.249,M 
$GPGGA,232000.000,3101.6771,N,12125.4196,E,1,00,00017.908,M 
$GPGGA,232001.000,3101.6772,N,12125.4201,E,1,00,00020.666,M 
$GPGGA,232002.000,3101.6772,N,12125.4206,E,1,00,00020.666,M 
$GPGGA,232002.000,3101.6773,N,12125.4211,E,1,00,00020.121,M 
$GPGGA,232003.000,3101.6774,N,12125.4216,E,1,00,00020.121,M 
$GPGGA,232003.000,3101.6775,N,12125.4221,E,1,00,00019.519,M 
$GPGGA,232004.000,3101.6776,N,12125.4226,E,1,00,00019.519,M 
$GPGGA,232004.000,3101.6776,N,12125.4231,E,1,00,00020.927,M 
$GPGGA,232005.000,3101.6777,N,12125.4236,E,1,00,00020.927,M 
$GPGGA,232005.000,3101.6777,N,12125.4241,E,1,00,00020.234,M 
$GPGGA,232006.000,3101.6778,N,12125.4246,E,1,00,00019.765,M 
$GPGGA,232007.000,3101.6779,N,12125.4251,E,1,00,00019.765,M 
$GPGGA,232007.000,3101.6781,N,12125.4256,E,1,00,00020.316,M 
$GPGGA,232008.000,3101.6782,N,12125.4260,E,1,00,00020.315,M 
$GPGGA,232008.000,3101.6784,N,12125.4265,E,1,00,00020.245,M 
$GPGGA,232009.000,3101.6785,N,12125.4269,E,1,00,00020.245,M 
$GPGGA,232009.000,3101.6786,N,12125.4274,E,1,00,00023.879,M 
$GPGGA,232010.000,3101.6788,N,12125.4278,E,1,00,00023.879,M 
$GPGGA,232010.000,3101.6789,N,12125.4283,E,1,00,00023.994,M 
$GPGGA,232011.000,3101.6789,N,12125.4287,E,1,00,00022.394,M 
$GPGGA,232012.000,3101.6790,N,12125.4292,E,1,00,00022.394,M 
$GPGGA,232012.000,3101.6790,N,12125.4297,E,1,00,00023.825,M 
$GPGGA,232013.000,3101.6791,N,12125.4303,E,1,00,00023.825,M 
$GPGGA,232013.000,3101.6791,N,12125.4308,E,1,00,00026.500,M 
$GPGGA,232014.000,3101.6791,N,12125.4313,E,1,00,00026.500,M 
$GPGGA,232014.000,3101.6791,N,12125.4319,E,1,00,00027.819,M 
$GPGGA,232015.000,3101.6791,N,12125.4324,E,1,00,00027.819,M 
$GPGGA,232015.000,3101.6791,N,12125.4329,E,1,00,00027.716,M 
$GPGGA,232016.000,3101.6790,N,12125.4334,E,1,00,00025.295,M 
$GPGGA,232017.000,3101.6790,N,12125.4339,E,1,00,00025.294,M 
$GPGGA,232017.000,3101.6789,N,12125.4345,E,1,00,00025.252,M 
$GPGGA,232018.000,3101.6789,N,12125.4350,E,1,00,00025.252,M 
$GPGGA,232018.000,3101.6788,N,12125.4355,E,1,00,00025.553,M 
$GPGGA,232019.000,3101.6788,N,12125.4360,E,1,00,00025.553,M 
$GPGGA,232019.000,3101.6788,N,12125.4365,E,1,00,00025.278,M 
$GPGGA,232020.000,3101.6788,N,12125.4370,E,1,00,00025.277,M 
$GPGGA,232020.000,3101.6787,N,12125.4376,E,1,00,00025.981,M 
$GPGGA,232021.000,3101.6787,N,12125.4381,E,1,00,00024.444,M 
$GPGGA,232022.000,3101.6787,N,12125.4387,E,1,00,00024.444,M 
$GPGGA,232022.000,3101.6786,N,12125.4393,E,1,00,00024.754,M 
$GPGGA,232023.000,3101.6786,N,12125.4399,E,1,00,00024.754,M 
$GPGGA,232023.000,3101.6786,N,12125.4404,E,1,00,00024.909,M 
$GPGGA,232024.000,3101.6786,N,12125.4410,E,1,00,00024.908,M 
$GPGGA,232024.000,3101.6787,N,12125.4415,E,1,00,00027.154,M 
$GPGGA,232025.000,3101.6787,N,12125.4420,E,1,00,00027.154,M 
$GPGGA,232025.000,3101.6788,N,12125.4426,E,1,00,00026.026,M 
$GPGGA,232026.000,3101.6789,N,12125.4431,E,1,00,00023.312,M 
$GPGGA,232027.000,3101.6790,N,12125.4436,E,1,00,00023.312,M 
$GPGGA,232027.000,3101.6792,N,12125.4442,E,1,00,00022.982,M 
$GPGGA,232028.000,3101.6794,N,12125.4447,E,1,00,00022.982,M 
$GPGGA,232028.000,3101.6796,N,12125.4452,E,1,00,00020.539,M 
$GPGGA,232029.000,3101.6798,N,12125.4456,E,1,00,00020.539,M 
$GPGGA,232029.000,3101.6800,N,12125.4460,E,1,00,00020.477,M 
$GPGGA,232030.000,3101.6802,N,12125.4464,E,1,00,00020.246,M 
$GPGGA,232031.000,3101.6804,N,12125.4468,E,1,00,00020.246,M 
$GPGGA,232031.000,3101.6807,N,12125.4473,E,1,00,00020.849,M 
$GPGGA,232032.000,3101.6810,N,12125.4477,E,1,00,00020.848,M 
$GPGGA,232032.000,3101.6812,N,12125.4482,E,1,00,00021.273,M 
$GPGGA,232033.000,3101.6814,N,12125.4487,E,1,00,00021.273,M 
$GPGGA,232033.000,3101.6816,N,12125.4491,E,1,00,00021.995,M 
$GPGGA,232034.000,3101.6819,N,12125.4496,E,1,00,00021.995,M 
$GPGGA,232034.000,3101.6820,N,12125.4501,E,1,00,00023.357,M 
$GPGGA,232035.000,3101.6822,N,12125.4507,E,1,00,00023.177,M 
$GPGGA,232036.000,3101.6824,N,12125.4512,E,1,00,00023.177,M 
$GPGGA,232036.000,3101.6825,N,12125.4517,E,1,00,00024.551,M 
$GPGGA,232037.000,3101.6827,N,12125.4523,E,1,00,00024.550,M 
$GPGGA,232037.000,3101.6828,N,12125.4528,E,1,00,00025.452,M 
$GPGGA,232038.000,3101.6829,N,12125.4533,E,1,00,00025.452,M 
$GPGGA,232038.000,3101.6830,N,12125.4538,E,1,00,00027.140,M 
$GPGGA,232039.000,3101.6831,N,12125.4543,E,1,00,00027.139,M 
$GPGGA,232039.000,3101.6832,N,12125.4548,E,1,00,00026.242,M 
$GPGGA,232040.000,3101.6833,N,12125.4553,E,1,00,00026.667,M 
$GPGGA,232041.000,3101.6834,N,12125.4558,E,1,00,00026.667,M 
$GPGGA,232041.000,3101.6835,N,12125.4563,E,1,00,00026.078,M 
$GPGGA,232042.000,3101.6837,N,12125.4568,E,1,00,00026.078,M 
$GPGGA,232042.000,3101.6838,N,12125.4573,E,1,00,00026.650,M 
$GPGGA,232043.000,3101.6839,N,12125.4577,E,1,00,00026.649,M 
$GPGGA,232043.000,3101.6841,N,12125.4582,E,1,00,00025.317,M 
$GPGGA,232044.000,3101.6842,N,12125.4586,E,1,00,00025.520,M 
$GPGGA,232045.000,3101.6844,N,12125.4591,E,1,00,00025.520,M 
$GPGGA,232045.000,3101.6845,N,12125.4595,E,1,00,00025.216,M 
$GPGGA,232046.000,3101.6847,N,12125.4600,E,1,00,00025.216,M 
$GPGGA,232046.000,3101.6848,N,12125.4605,E,1,00,00025.899,M 
$GPGGA,232047.000,3101.6849,N,12125.4609,E,1,00,00025.899,M 
$GPGGA,232047.000,3101.6851,N,12125.4614,E,1,00,00026.331,M 
$GPGGA,232048.000,3101.6852,N,12125.4618,E,1,00,00028.121,M 
$GPGGA,232049.000,3101.6853,N,12125.4623,E,1,00,00028.121,M 
$GPGGA,232049.000,3101.6855,N,12125.4627,E,1,00,00028.023,M 
$GPGGA,232050.000,3101.6857,N,12125.4631,E,1,00,00028.022,M 
$GPGGA,232050.000,3101.6859,N,12125.4636,E,1,00,00025.456,M 
$GPGGA,232051.000,3101.6861,N,12125.4640,E,1,00,00025.455,M 
$GPGGA,232051.000,3101.6863,N,12125.4644,E,1,00,00025.218,M 
$GPGGA,232052.000,3101.6864,N,12125.4648,E,1,00,00025.218,M 
$GPGGA,232052.000,3101.6866,N,12125.4653,E,1,00,00024.005,M 
$GPGGA,232053.000,3101.6868,N,12125.4657,E,1,00,00022.555,M 
$GPGGA,232054.000,3101.6870,N,12125.4661,E,1,00,00022.555,M 
$GPGGA,232054.000,3101.6873,N,12125.4665,E,1,00,00021.444,M 
$GPGGA,232055.000,3101.6875,N,12125.4670,E,1,00,00021.444,M 
$GPGGA,232055.000,3101.6878,N,12125.4674,E,1,00,00021.976,M 
$GPGGA,232056.000,3101.6880,N,12125.4678,E,1,00,00021.976,M 
$GPGGA,232056.000,3101.6883,N,12125.4681,E,1,00,00021.423,M 
$GPGGA,232057.000,3101.6885,N,12125.4686,E,1,00,00021.422,M 
$GPGGA,232057.000,3101.6887,N,12125.4690,E,1,00,00019.506,M 
$GPGGA,232058.000,3101.6889,N,12125.4694,E,1,00,00018.602,M 
$GPGGA,232059.000,3101.6891,N,12125.4699,E,1,00,00018.601,M 
$GPGGA,232059.000,3101.6894,N,12125.4703,E,1,00,00018.095,M 
$GPGGA,232100.000,3101.6896,N,12125.4707,E,1,00,00018.095,M 
$GPGGA,232100.000,3101.6898,N,12125.4711,E,1,00,00016.160,M 
$GPGGA,232101.000,3101.6901,N,12125.4715,E,1,00,00016.160,M 
$GPGGA,232101.000,3101.6903,N,12125.4719,E,1,00,00016.134,M 
$GPGGA,232102.000,3101.6905,N,12125.4724,E,1,00,00016.134,M 
$GPGGA,232102.000,3101.6907,N,12125.4728,E,1,00,00016.308,M 
$GPGGA,232103.000,3101.6909,N,12125.4732,E,1,00,00016.308,M 
$GPGGA,232103.000,3101.6912,N,12125.4736,E,1,00,00014.988,M 
$GPGGA,232104.000,3101.6914,N,12125.4740,E,1,00,00013.971,M 
$GPGGA,232105.000,3101.6916,N,12125.4744,E,1,00,00013.971,M 
$GPGGA,232105.000,3101.6918,N,12125.4747,E,1,00,00014.687,M 
$GPGGA,232106.000,3101.6921,N,12125.4751,E,1,00,00014.687,M 
$GPGGA,232106.000,3101.6923,N,12125.4755,E,1,00,00014.641,M 
$GPGGA,232107.000,3101.6925,N,12125.4759,E,1,00,00014.641,M 
$GPGGA,232107.000,3101.6927,N,12125.4763,E,1,00,00014.146,M 
$GPGGA,232108.000,3101.6929,N,12125.4766,E,1,00,00014.146,M 
$GPGGA,232108.000,3101.6931,N,12125.4770,E,1,00,00014.545,M 
$GPGGA,232109.000,3101.6932,N,12125.4774,E,1,00,00015.454,M 
$GPGGA,232110.000,3101.6934,N,12125.4778,E,1,00,00015.454,M 
$GPGGA,232110.000,3101.6936,N,12125.4782,E,1,00,00016.664,M 
$GPGGA,232111.000,3101.6938,N,12125.4786,E,1,00,00016.664,M 
$GPGGA,232111.000,3101.6940,N,12125.4791,E,1,00,00015.996,M 
$GPGGA,232112.000,3101.6941,N,12125.4795,E,1,00,00015.996,M 
$GPGGA,232112.000,3101.6942,N,12125.4800,E,1,00,00015.558,M 
$GPGGA,232113.000,3101.6944,N,12125.4804,E,1,00,00015.557,M 
$GPGGA,232113.000,3101.6945,N,12125.4808,E,1,00,00014.913,M 
$GPGGA,232114.000,3101.6947,N,12125.4811,E,1,00,00015.263,M 
$GPGGA,232115.000,3101.6948,N,12125.4815,E,1,00,00015.263,M 
$GPGGA,232115.000,3101.6950,N,12125.4819,E,1,00,00013.398,M 
$GPGGA,232116.000,3101.6952,N,12125.4822,E,1,00,00013.398,M 
$GPGGA,232116.000,3101.6953,N,12125.4826,E,1,00,00013.384,M 
$GPGGA,232117.000,3101.6955,N,12125.4830,E,1,00,00013.383,M 
$GPGGA,232117.000,3101.6956,N,12125.4834,E,1,00,00012.872,M 
$GPGGA,232118.000,3101.6958,N,12125.4839,E,1,00,00012.872,M 
$GPGGA,232118.000,3101.6960,N,12125.4843,E,1,00,00013.739,M 
$GPGGA,232119.000,3101.6962,N,12125.4847,E,1,00,00012.700,M 
$GPGGA,232120.000,3101.6963,N,12125.4851,E,1,00,00012.700,M 
$GPGGA,232120.000,3101.6965,N,12125.4856,E,1,00,00012.449,M 
$GPGGA,232121.000,3101.6967,N,12125.4860,E,1,00,00012.449,M 
$GPGGA,232121.000,3101.6969,N,12125.4864,E,1,00,00012.970,M 
$GPGGA,232122.000,3101.6970,N,12125.4868,E,1,00,00012.970,M 
$GPGGA,232122.000,3101.6971,N,12125.4872,E,1,00,00012.874,M 
$GPGGA,232123.000,3101.6973,N,12125.4877,E,1,00,00012.469,M 
$GPGGA,232124.000,3101.6974,N,12125.4882,E,1,00,00012.469,M 
$GPGGA,232124.000,3101.6975,N,12125.4887,E,1,00,00014.786,M 
$GPGGA,232125.000,3101.6976,N,12125.4892,E,1,00,00014.786,M 
$GPGGA,232125.000,3101.6977,N,12125.4897,E,1,00,00016.581,M 
$GPGGA,232126.000,3101.6978,N,12125.4902,E,1,00,00016.581,M 
$GPGGA,232126.000,3101.6979,N,12125.4908,E,1,00,00017.360,M 
$GPGGA,232127.000,3101.6980,N,12125.4913,E,1,00,00017.360,M 
$GPGGA,232127.000,3101.6981,N,12125.4917,E,1,00,00018.859,M 
$GPGGA,232128.000,3101.6982,N,12125.4923,E,1,00,00020.338,M 
$GPGGA,232129.000,3101.6982,N,12125.4928,E,1,00,00020.338,M 
$GPGGA,232129.000,3101.6983,N,12125.4933,E,1,00,00019.273,M 
$GPGGA,232130.000,3101.6983,N,12125.4939,E,1,00,00019.273,M 
$GPGGA,232130.000,3101.6984,N,12125.4944,E,1,00,00019.880,M 
$GPGGA,232131.000,3101.6984,N,12125.4949,E,1,00,00019.880,M 
$GPGGA,232131.000,3101.6985,N,12125.4953,E,1,00,00019.961,M 
$GPGGA,232132.000,3101.6985,N,12125.4958,E,1,00,00020.671,M 
$GPGGA,232133.000,3101.6986,N,12125.4963,E,1,00,00020.671,M 
$GPGGA,232133.000,3101.6987,N,12125.4968,E,1,00,00020.531,M 
$GPGGA,232134.000,3101.6987,N,12125.4972,E,1,00,00020.531,M 
$GPGGA,232134.000,3101.6988,N,12125.4977,E,1,00,00020.301,M 
$GPGGA,232135.000,3101.6988,N,12125.4981,E,1,00,00020.301,M 
$GPGGA,232135.000,3101.6988,N,12125.4985,E,1,00,00020.858,M 
$GPGGA,232136.000,3101.6989,N,12125.4989,E,1,00,00020.857,M 
$GPGGA,232136.000,3101.6989,N,12125.4993,E,1,00,00020.212,M 
$GPGGA,232137.000,3101.6989,N,12125.4997,E,1,00,00021.308,M 
$GPGGA,232138.000,3101.6989,N,12125.5002,E,1,00,00021.308,M 
$GPGGA,232138.000,3101.6989,N,12125.5006,E,1,00,00022.777,M 
$GPGGA,232139.000,3101.6989,N,12125.5011,E,1,00,00022.777,M 
$GPGGA,232139.000,3101.6989,N,12125.5016,E,1,00,00021.874,M 
$GPGGA,232140.000,3101.6989,N,12125.5021,E,1,00,00021.874,M 
$GPGGA,232140.000,3101.6990,N,12125.5026,E,1,00,00022.957,M 
$GPGGA,232141.000,3101.6991,N,12125.5030,E,1,00,00022.449,M 
$GPGGA,232142.000,3101.6991,N,12125.5035,E,1,00,00022.449,M 
$GPGGA,232142.000,3101.6992,N,12125.5039,E,1,00,00022.909,M 
$GPGGA,232143.000,3101.6993,N,12125.5044,E,1,00,00022.909,M 
$GPGGA,232143.000,3101.6993,N,12125.5049,E,1,00,00024.098,M 
$GPGGA,232144.000,3101.6994,N,12125.5053,E,1,00,00024.098,M 
$GPGGA,232144.000,3101.6995,N,12125.5057,E,1,00,00026.169,M 
$GPGGA,232145.000,3101.6995,N,12125.5062,E,1,00,00026.169,M 
$GPGGA,232145.000,3101.6996,N,12125.5066,E,1,00,00025.838,M 
$GPGGA,232146.000,3101.6996,N,12125.5071,E,1,00,00024.311,M 
$GPGGA,232147.000,3101.6997,N,12125.5076,E,1,00,00024.311,M 
$GPGGA,232147.000,3101.6997,N,12125.5081,E,1,00,00026.646,M 
$GPGGA,232148.000,3101.6998,N,12125.5087,E,1,00,00026.646,M 
$GPGGA,232148.000,3101.6998,N,12125.5092,E,1,00,00027.801,M 
$GPGGA,232149.000,3101.6998,N,12125.5098,E,1,00,00027.801,M 
$GPGGA,232149.000,3101.6999,N,12125.5104,E,1,00,00026.899,M 
$GPGGA,232150.000,3101.6999,N,12125.5109,E,1,00,00028.952,M 
$GPGGA,232151.000,3101.6999,N,12125.5115,E,1,00,00028.952,M 
$GPGGA,232151.000,3101.6999,N,12125.5120,E,1,00,00028.659,M 
$GPGGA,232152.000,3101.6999,N,12125.5126,E,1,00,00028.659,M 
$GPGGA,232152.000,3101.6999,N,12125.5132,E,1,00,00029.730,M 
$GPGGA,232153.000,3101.6999,N,12125.5137,E,1,00,00029.730,M 
$GPGGA,232153.000,3101.6999,N,12125.5143,E,1,00,00029.138,M 
$GPGGA,232154.000,3101.6999,N,12125.5149,E,1,00,00029.268,M 
$GPGGA,232155.000,3101.6998,N,12125.5155,E,1,00,00029.267,M 
$GPGGA,232155.000,3101.6998,N,12125.5160,E,1,00,00029.691,M 
$GPGGA,232156.000,3101.6998,N,12125.5166,E,1,00,00029.691,M 
$GPGGA,232156.000,3101.6998,N,12125.5172,E,1,00,00029.328,M 
$GPGGA,232157.000,3101.6997,N,12125.5178,E,1,00,00029.328,M 
$GPGGA,232157.000,3101.6997,N,12125.5184,E,1,00,00029.261,M 
$GPGGA,232158.000,3101.6997,N,12125.5190,E,1,00,00029.261,M 
$GPGGA,232158.000,3101.6997,N,12125.5196,E,1,00,00028.347,M 
$GPGGA,232159.000,3101.6997,N,12125.5201,E,1,00,00028.346,M 
$GPGGA,232159.000,3101.6998,N,12125.5207,E,1,00,00028.156,M 
$GPGGA,232200.000,3101.6998,N,12125.5212,E,1,00,00029.889,M 
$GPGGA,232201.000,3101.6998,N,12125.5217,E,1,00,00029.889,M 
$GPGGA,232201.000,3101.6998,N,12125.5223,E,1,00,00031.567,M 
$GPGGA,232202.000,3101.6999,N,12125.5228,E,1,00,00031.567,M 
$GPGGA,232202.000,3101.6999,N,12125.5233,E,1,00,00032.218,M 
$GPGGA,232203.000,3101.7000,N,12125.5238,E,1,00,00032.218,M 
$GPGGA,232203.000,3101.7001,N,12125.5243,E,1,00,00031.753,M 
$GPGGA,232204.000,3101.7002,N,12125.5247,E,1,00,00031.753,M 
$GPGGA,232204.000,3101.7003,N,12125.5252,E,1,00,00032.616,M 
$GPGGA,232205.000,3101.7004,N,12125.5257,E,1,00,00032.883,M 
$GPGGA,232206.000,3101.7006,N,12125.5263,E,1,00,00032.883,M 
$GPGGA,232206.000,3101.7007,N,12125.5268,E,1,00,00033.992,M 
$GPGGA,232207.000,3101.7009,N,12125.5273,E,1,00,00033.992,M 
$GPGGA,232207.000,3101.7011,N,12125.5279,E,1,00,00033.609,M 
$GPGGA,232208.000,3101.7013,N,12125.5284,E,1,00,00033.609,M 
$GPGGA,232208.000,3101.7014,N,12125.5290,E,1,00,00032.326,M 
$GPGGA,232209.000,3101.7016,N,12125.5295,E,1,00,00032.326,M 
$GPGGA,232209.000,3101.7018,N,12125.5299,E,1,00,00033.403,M 
$GPGGA,232210.000,3101.7020,N,12125.5304,E,1,00,00033.916,M 
$GPGGA,232211.000,3101.7022,N,12125.5309,E,1,00,00033.916,M 
$GPGGA,232211.000,3101.7024,N,12125.5313,E,1,00,00035.101,M 
$GPGGA,232212.000,3101.7025,N,12125.5318,E,1,00,00035.101,M 
$GPGGA,232212.000,3101.7026,N,12125.5322,E,1,00,00035.368,M 
$GPGGA,232213.000,3101.7027,N,12125.5327,E,1,00,00035.368,M 
$GPGGA,232213.000,3101.7028,N,12125.5332,E,1,00,00034.743,M 
$GPGGA,232214.000,3101.7028,N,12125.5336,E,1,00,00034.743,M 
$GPGGA,232214.000,3101.7029,N,12125.5340,E,1,00,00033.740,M 
$GPGGA,232215.000,3101.7029,N,12125.5344,E,1,00,00034.083,M 
$GPGGA,232216.000,3101.7029,N,12125.5349,E,1,00,00034.083,M 
$GPGGA,232216.000,3101.7030,N,12125.5353,E,1,00,00033.563,M 
$GPGGA,232217.000,3101.7030,N,12125.5358,E,1,00,00033.563,M 
$GPGGA,232217.000,3101.7031,N,12125.5363,E,1,00,00031.931,M 
$GPGGA,232218.000,3101.7031,N,12125.5368,E,1,00,00031.931,M 
$GPGGA,232218.000,3101.7032,N,12125.5372,E,1,00,00034.668,M 
$GPGGA,232219.000,3101.7033,N,12125.5377,E,1,00,00035.825,M 
$GPGGA,232220.000,3101.7033,N,12125.5382,E,1,00,00035.825,M 
$GPGGA,232220.000,3101.7034,N,12125.5387,E,1,00,00035.182,M 
$GPGGA,232221.000,3101.7035,N,12125.5392,E,1,00,00035.182,M 
$GPGGA,232221.000,3101.7035,N,12125.5397,E,1,00,00035.400,M 
$GPGGA,232222.000,3101.7036,N,12125.5402,E,1,00,00035.399,M 
$GPGGA,232222.000,3101.7038,N,12125.5406,E,1,00,00035.470,M 
$GPGGA,232223.000,3101.7039,N,12125.5411,E,1,00,00035.470,M 
$GPGGA,232223.000,3101.7040,N,12125.5415,E,1,00,00035.485,M 
$GPGGA,232224.000,3101.7041,N,12125.5419,E,1,00,00033.894,M 
$GPGGA,232225.000,3101.7042,N,12125.5424,E,1,00,00033.894,M 
$GPGGA,232225.000,3101.7044,N,12125.5428,E,1,00,00034.827,M 
$GPGGA,232226.000,3101.7045,N,12125.5433,E,1,00,00034.827,M 
$GPGGA,232226.000,3101.7047,N,12125.5438,E,1,00,00035.075,M 
$GPGGA,232227.000,3101.7048,N,12125.5443,E,1,00,00035.075,M 
$GPGGA,232227.000,3101.7049,N,12125.5447,E,1,00,00034.626,M 
$GPGGA,232228.000,3101.7050,N,12125.5452,E,1,00,00034.626,M 
$GPGGA,232228.000,3101.7052,N,12125.5457,E,1,00,00033.030,M 
$GPGGA,232229.000,3101.7053,N,12125.5462,E,1,00,00033.030,M 
$GPGGA,232229.000,3101.7054,N,12125.5466,E,1,00,00033.184,M 
$GPGGA,232230.000,3101.7055,N,12125.5470,E,1,00,00034.268,M 
$GPGGA,232231.000,3101.7057,N,12125.5474,E,1,00,00034.268,M 
$GPGGA,232231.000,3101.7058,N,12125.5478,E,1,00,00033.206,M 
$GPGGA,232232.000,3101.7059,N,12125.5483,E,1,00,00033.206,M 
$GPGGA,232232.000,3101.7060,N,12125.5487,E,1,00,00032.136,M 
$GPGGA,232233.000,3101.7061,N,12125.5491,E,1,00,00032.135,M 
$GPGGA,232233.000,3101.7062,N,12125.5496,E,1,00,00032.774,M 
$GPGGA,232234.000,3101.7063,N,12125.5500,E,1,00,00032.773,M 
$GPGGA,232234.000,3101.7064,N,12125.5504,E,1,00,00032.245,M 
$GPGGA,232235.000,3101.7066,N,12125.5509,E,1,00,00032.245,M 
$GPGGA,232235.000,3101.7067,N,12125.5514,E,1,00,00032.167,M 
$GPGGA,232236.000,3101.7069,N,12125.5519,E,1,00,00030.303,M 
$GPGGA,232237.000,3101.7071,N,12125.5524,E,1,00,00030.303,M 
$GPGGA,232237.000,3101.7072,N,12125.5529,E,1,00,00030.109,M 
$GPGGA,232238.000,3101.7074,N,12125.5534,E,1,00,00030.109,M 
$GPGGA,232238.000,3101.7076,N,12125.5538,E,1,00,00029.810,M 
$GPGGA,232239.000,3101.7077,N,12125.5543,E,1,00,00029.810,M 
$GPGGA,232239.000,3101.7079,N,12125.5547,E,1,00,00029.330,M 
$GPGGA,232240.000,3101.7082,N,12125.5552,E,1,00,00029.330,M 
$GPGGA,232240.000,3101.7084,N,12125.5556,E,1,00,00026.556,M 
$GPGGA,232241.000,3101.7088,N,12125.5560,E,1,00,00024.503,M 
$GPGGA,232242.000,3101.7092,N,12125.5564,E,1,00,00024.503,M 
$GPGGA,232242.000,3101.7096,N,12125.5566,E,1,00,00021.868,M 
$GPGGA,232243.000,3101.7099,N,12125.5567,E,1,00,00017.528,M 
$GPGGA,232245.000,3101.7099,N,12125.5570,E,1,00,00018.359,M 
$GPGGA,232246.000,3101.7099,N,12125.5573,E,1,00,00018.359,M 
$GPGGA,232246.000,3101.7100,N,12125.5576,E,1,00,00017.417,M 
$GPGGA,232247.000,3101.7100,N,12125.5578,E,1,00,00017.438,M 
$GPGGA,232248.000,3101.7100,N,12125.5581,E,1,00,00017.438,M 
$GPGGA,232248.000,3101.7101,N,12125.5584,E,1,00,00017.326,M 
$GPGGA,232249.000,3101.7101,N,12125.5586,E,1,00,00017.326,M 
$GPGGA,232249.000,3101.7101,N,12125.5589,E,1,00,00016.545,M 
$GPGGA,232250.000,3101.7101,N,12125.5591,E,1,00,00016.545,M 
$GPGGA,232250.000,3101.7101,N,12125.5594,E,1,00,00017.534,M 
$GPGGA,232251.000,3101.7101,N,12125.5596,E,1,00,00017.168,M 
$GPGGA,232252.000,3101.7101,N,12125.5598,E,1,00,00017.168,M 
$GPGGA,232252.000,3101.7101,N,12125.5600,E,1,00,00016.479,M 
$GPGGA,232253.000,3101.7101,N,12125.5602,E,1,00,00016.479,M 
$GPGGA,232253.000,3101.7100,N,12125.5604,E,1,00,00017.722,M 
$GPGGA,232254.000,3101.7100,N,12125.5605,E,1,00,00017.722,M 
$GPGGA,232254.000,3101.7099,N,12125.5607,E,1,00,00016.902,M 
$GPGGA,232255.000,3101.7099,N,12125.5608,E,1,00,00018.893,M 
$GPGGA,232256.000,3101.7098,N,12125.5610,E,1,00,00018.893,M 
$GPGGA,232256.000,3101.7097,N,12125.5611,E,1,00,00019.751,M 
$GPGGA,232257.000,3101.7095,N,12125.5613,E,1,00,00019.751,M 
$GPGGA,232257.000,3101.7094,N,12125.5615,E,1,00,00018.801,M 
$GPGGA,232258.000,3101.7093,N,12125.5616,E,1,00,00018.801,M 
$GPGGA,232258.000,3101.7091,N,12125.5618,E,1,00,00020.200,M 
$GPGGA,232259.000,3101.7089,N,12125.5619,E,1,00,00019.860,M 
$GPGGA,232300.000,3101.7087,N,12125.5621,E,1,00,00019.860,M 
$GPGGA,232300.000,3101.7085,N,12125.5622,E,1,00,00018.845,M 
$GPGGA,232301.000,3101.7083,N,12125.5624,E,1,00,00018.845,M 
$GPGGA,232301.000,3101.7081,N,12125.5626,E,1,00,00015.745,M 
$GPGGA,232302.000,3101.7078,N,12125.5628,E,1,00,00015.745,M 
$GPGGA,232302.000,3101.7076,N,12125.5629,E,1,00,00018.072,M 
$GPGGA,232303.000,3101.7073,N,12125.5630,E,1,00,00018.072,M 
$GPGGA,232303.000,3101.7070,N,12125.5631,E,1,00,00019.529,M 
$GPGGA,232304.000,3101.7067,N,12125.5632,E,1,00,00018.281,M 
$GPGGA,232305.000,3101.7064,N,12125.5634,E,1,00,00018.281,M 
