$GPGGA,223536.000,3101.4312,N,12126.2390,E,1,00,00015.102,M 
$GPGGA,223601.000,3101.4313,N,12126.2394,E,1,00,00021.677,M 
$GPGGA,223602.000,3101.4314,N,12126.2399,E,1,00,00021.677,M 
$GPGGA,223602.000,3101.4315,N,12126.2403,E,1,00,00018.439,M 
$GPGGA,223603.000,3101.4317,N,12126.2407,E,1,00,00018.439,M 
$GPGGA,223603.000,3101.4318,N,12126.2411,E,1,00,00021.748,M 
$GPGGA,223604.000,3101.4319,N,12126.2416,E,1,00,00021.748,M 
$GPGGA,223604.000,3101.4320,N,12126.2420,E,1,00,00018.038,M 
$GPGGA,223605.000,3101.4321,N,12126.2424,E,1,00,00020.777,M 
$GPGGA,223606.000,3101.4322,N,12126.2429,E,1,00,00020.777,M 
$GPGGA,223606.000,3101.4323,N,12126.2433,E,1,00,00019.205,M 
$GPGGA,223607.000,3101.4324,N,12126.2437,E,1,00,00019.205,M 
$GPGGA,223607.000,3101.4325,N,12126.2441,E,1,00,00015.293,M 
$GPGGA,223608.000,3101.4326,N,12126.2446,E,1,00,00015.293,M 
$GPGGA,223608.000,3101.4328,N,12126.2450,E,1,00,00014.220,M 
$GPGGA,223609.000,3101.4329,N,12126.2454,E,1,00,00013.650,M 
$GPGGA,223610.000,3101.4330,N,12126.2458,E,1,00,00013.650,M 
$GPGGA,223610.000,3101.4331,N,12126.2462,E,1,00,00013.969,M 
$GPGGA,223611.000,3101.4332,N,12126.2467,E,1,00,00013.969,M 
$GPGGA,223611.000,3101.4334,N,12126.2471,E,1,00,00012.437,M 
$GPGGA,223612.000,3101.4335,N,12126.2475,E,1,00,00012.437,M 
$GPGGA,223612.000,3101.4336,N,12126.2480,E,1,00,00012.113,M 
$GPGGA,223613.000,3101.4337,N,12126.2484,E,1,00,00012.113,M 
$GPGGA,223613.000,3101.4338,N,12126.2488,E,1,00,00013.205,M 
$GPGGA,223614.000,3101.4339,N,12126.2492,E,1,00,00012.296,M 
$GPGGA,223615.000,3101.4341,N,12126.2497,E,1,00,00012.296,M 
$GPGGA,223615.000,3101.4342,N,12126.2501,E,1,00,00012.545,M 
$GPGGA,223616.000,3101.4343,N,12126.2505,E,1,00,00012.545,M 
$GPGGA,223616.000,3101.4344,N,12126.2510,E,1,00,00012.690,M 
$GPGGA,223617.000,3101.4345,N,12126.2514,E,1,00,00012.690,M 
$GPGGA,223617.000,3101.4346,N,12126.2518,E,1,00,00013.648,M 
$GPGGA,223618.000,3101.4347,N,12126.2523,E,1,00,00013.648,M 
$GPGGA,223618.000,3101.4348,N,12126.2527,E,1,00,00014.198,M 
$GPGGA,223619.000,3101.4349,N,12126.2531,E,1,00,00015.264,M 
$GPGGA,223620.000,3101.4350,N,12126.2536,E,1,00,00015.264,M 
$GPGGA,223620.000,3101.4351,N,12126.2540,E,1,00,00015.495,M 
$GPGGA,223621.000,3101.4352,N,12126.2544,E,1,00,00015.495,M 
$GPGGA,223621.000,3101.4353,N,12126.2549,E,1,00,00016.551,M 
$GPGGA,223622.000,3101.4354,N,12126.2553,E,1,00,00016.551,M 
$GPGGA,223622.000,3101.4355,N,12126.2557,E,1,00,00016.552,M 
$GPGGA,223623.000,3101.4356,N,12126.2562,E,1,00,00015.984,M 
$GPGGA,223624.000,3101.4358,N,12126.2566,E,1,00,00015.984,M 
$GPGGA,223624.000,3101.4359,N,12126.2570,E,1,00,00015.236,M 
$GPGGA,223625.000,3101.4360,N,12126.2575,E,1,00,00015.236,M 
$GPGGA,223625.000,3101.4361,N,12126.2579,E,1,00,00014.225,M 
$GPGGA,223626.000,3101.4362,N,12126.2583,E,1,00,00014.225,M 
$GPGGA,223626.000,3101.4363,N,12126.2588,E,1,00,00015.280,M 
$GPGGA,223627.000,3101.4364,N,12126.2592,E,1,00,00015.280,M 
$GPGGA,223627.000,3101.4364,N,12126.2596,E,1,00,00015.213,M 
$GPGGA,223628.000,3101.4366,N,12126.2600,E,1,00,00016.190,M 
$GPGGA,223629.000,3101.4367,N,12126.2605,E,1,00,00016.190,M 
$GPGGA,223629.000,3101.4368,N,12126.2609,E,1,00,00016.308,M 
$GPGGA,223630.000,3101.4369,N,12126.2614,E,1,00,00016.308,M 
$GPGGA,223630.000,3101.4370,N,12126.2618,E,1,00,00015.818,M 
$GPGGA,223631.000,3101.4371,N,12126.2622,E,1,00,00015.818,M 
$GPGGA,223631.000,3101.4372,N,12126.2627,E,1,00,00015.532,M 
$GPGGA,223632.000,3101.4372,N,12126.2631,E,1,00,00015.532,M 
$GPGGA,223632.000,3101.4373,N,12126.2635,E,1,00,00015.931,M 
$GPGGA,223633.000,3101.4374,N,12126.2639,E,1,00,00014.974,M 
$GPGGA,223634.000,3101.4375,N,12126.2644,E,1,00,00014.974,M 
$GPGGA,223634.000,3101.4376,N,12126.2648,E,1,00,00016.014,M 
$GPGGA,223635.000,3101.4377,N,12126.2652,E,1,00,00016.014,M 
$GPGGA,223635.000,3101.4378,N,12126.2657,E,1,00,00014.404,M 
$GPGGA,223636.000,3101.4379,N,12126.2661,E,1,00,00014.404,M 
$GPGGA,223636.000,3101.4380,N,12126.2666,E,1,00,00014.506,M 
$GPGGA,223637.000,3101.4381,N,12126.2670,E,1,00,00015.928,M 
$GPGGA,223638.000,3101.4382,N,12126.2674,E,1,00,00015.928,M 
$GPGGA,223638.000,3101.4383,N,12126.2679,E,1,00,00015.192,M 
$GPGGA,223639.000,3101.4384,N,12126.2683,E,1,00,00015.192,M 
$GPGGA,223639.000,3101.4385,N,12126.2687,E,1,00,00014.994,M 
$GPGGA,223640.000,3101.4386,N,12126.2692,E,1,00,00014.994,M 
$GPGGA,223640.000,3101.4387,N,12126.2696,E,1,00,00014.947,M 
$GPGGA,223641.000,3101.4388,N,12126.2700,E,1,00,00014.947,M 
$GPGGA,223641.000,3101.4389,N,12126.2705,E,1,00,00013.920,M 
$GPGGA,223642.000,3101.4390,N,12126.2709,E,1,00,00013.273,M 
$GPGGA,223643.000,3101.4391,N,12126.2714,E,1,00,00013.273,M 
$GPGGA,223643.000,3101.4391,N,12126.2718,E,1,00,00013.474,M 
$GPGGA,223644.000,3101.4393,N,12126.2722,E,1,00,00013.474,M 
$GPGGA,223644.000,3101.4393,N,12126.2727,E,1,00,00013.224,M 
$GPGGA,223645.000,3101.4395,N,12126.2731,E,1,00,00013.224,M 
$GPGGA,223645.000,3101.4395,N,12126.2735,E,1,00,00014.049,M 
$GPGGA,223646.000,3101.4396,N,12126.2740,E,1,00,00014.049,M 
$GPGGA,223646.000,3101.4397,N,12126.2744,E,1,00,00014.879,M 
$GPGGA,223647.000,3101.4398,N,12126.2749,E,1,00,00013.196,M 
$GPGGA,223648.000,3101.4399,N,12126.2753,E,1,00,00013.196,M 
$GPGGA,223648.000,3101.4400,N,12126.2757,E,1,00,00012.556,M 
$GPGGA,223649.000,3101.4401,N,12126.2762,E,1,00,00012.556,M 
$GPGGA,223649.000,3101.4402,N,12126.2766,E,1,00,00013.521,M 
$GPGGA,223650.000,3101.4403,N,12126.2770,E,1,00,00013.521,M 
$GPGGA,223650.000,3101.4404,N,12126.2775,E,1,00,00013.761,M 
$GPGGA,223651.000,3101.4405,N,12126.2779,E,1,00,00013.761,M 
$GPGGA,223651.000,3101.4406,N,12126.2783,E,1,00,00014.433,M 
$GPGGA,223652.000,3101.4407,N,12126.2788,E,1,00,00014.667,M 
$GPGGA,223653.000,3101.4409,N,12126.2792,E,1,00,00014.668,M 
$GPGGA,223653.000,3101.4410,N,12126.2796,E,1,00,00014.150,M 
$GPGGA,223654.000,3101.4411,N,12126.2801,E,1,00,00014.150,M 
$GPGGA,223654.000,3101.4412,N,12126.2805,E,1,00,00015.655,M 
$GPGGA,223655.000,3101.4413,N,12126.2809,E,1,00,00015.655,M 
$GPGGA,223655.000,3101.4414,N,12126.2814,E,1,00,00014.173,M 
$GPGGA,223656.000,3101.4415,N,12126.2818,E,1,00,00014.173,M 
$GPGGA,223656.000,3101.4416,N,12126.2823,E,1,00,00014.087,M 
$GPGGA,223657.000,3101.4417,N,12126.2827,E,1,00,00012.857,M 
$GPGGA,223658.000,3101.4418,N,12126.2831,E,1,00,00012.857,M 
$GPGGA,223658.000,3101.4419,N,12126.2835,E,1,00,00012.069,M 
$GPGGA,223659.000,3101.4420,N,12126.2840,E,1,00,00012.069,M 
$GPGGA,223659.000,3101.4421,N,12126.2844,E,1,00,00012.512,M 
$GPGGA,223700.000,3101.4422,N,12126.2848,E,1,00,00012.512,M 
$GPGGA,223700.000,3101.4423,N,12126.2853,E,1,00,00014.248,M 
$GPGGA,223701.000,3101.4424,N,12126.2857,E,1,00,00013.286,M 
$GPGGA,223702.000,3101.4425,N,12126.2861,E,1,00,00013.286,M 
$GPGGA,223702.000,3101.4426,N,12126.2866,E,1,00,00011.887,M 
$GPGGA,223703.000,3101.4427,N,12126.2870,E,1,00,00011.887,M 
$GPGGA,223703.000,3101.4428,N,12126.2874,E,1,00,00011.642,M 
$GPGGA,223704.000,3101.4429,N,12126.2879,E,1,00,00011.642,M 
$GPGGA,223704.000,3101.4430,N,12126.2883,E,1,00,00011.316,M 
$GPGGA,223705.000,3101.4432,N,12126.2887,E,1,00,00011.316,M 
$GPGGA,223705.000,3101.4433,N,12126.2892,E,1,00,00010.828,M 
$GPGGA,223706.000,3101.4434,N,12126.2896,E,1,00,00010.828,M 
$GPGGA,223706.000,3101.4435,N,12126.2901,E,1,00,00014.876,M 
$GPGGA,223707.000,3101.4436,N,12126.2905,E,1,00,00014.027,M 
$GPGGA,223708.000,3101.4437,N,12126.2909,E,1,00,00014.027,M 
$GPGGA,223708.000,3101.4438,N,12126.2914,E,1,00,00013.680,M 
$GPGGA,223709.000,3101.4439,N,12126.2918,E,1,00,00013.680,M 
$GPGGA,223709.000,3101.4440,N,12126.2922,E,1,00,00013.894,M 
$GPGGA,223710.000,3101.4441,N,12126.2927,E,1,00,00013.894,M 
$GPGGA,223710.000,3101.4441,N,12126.2931,E,1,00,00012.828,M 
$GPGGA,223711.000,3101.4442,N,12126.2935,E,1,00,00013.032,M 
$GPGGA,223712.000,3101.4443,N,12126.2940,E,1,00,00013.032,M 
$GPGGA,223712.000,3101.4444,N,12126.2944,E,1,00,00013.373,M 
$GPGGA,223713.000,3101.4445,N,12126.2948,E,1,00,00013.373,M 
$GPGGA,223713.000,3101.4446,N,12126.2953,E,1,00,00012.035,M 
$GPGGA,223714.000,3101.4447,N,12126.2957,E,1,00,00012.035,M 
$GPGGA,223714.000,3101.4448,N,12126.2961,E,1,00,00011.784,M 
$GPGGA,223715.000,3101.4449,N,12126.2966,E,1,00,00011.784,M 
$GPGGA,223715.000,3101.4449,N,12126.2970,E,1,00,00011.197,M 
$GPGGA,223716.000,3101.4450,N,12126.2974,E,1,00,00011.106,M 
$GPGGA,223717.000,3101.4451,N,12126.2979,E,1,00,00011.106,M 
$GPGGA,223717.000,3101.4452,N,12126.2983,E,1,00,00012.158,M 
$GPGGA,223718.000,3101.4453,N,12126.2988,E,1,00,00012.158,M 
$GPGGA,223718.000,3101.4454,N,12126.2992,E,1,00,00011.653,M 
$GPGGA,223719.000,3101.4455,N,12126.2996,E,1,00,00011.653,M 
$GPGGA,223719.000,3101.4456,N,12126.3000,E,1,00,00010.988,M 
$GPGGA,223720.000,3101.4457,N,12126.3005,E,1,00,00010.262,M 
$GPGGA,223721.000,3101.4458,N,12126.3009,E,1,00,00010.262,M 
$GPGGA,223721.000,3101.4459,N,12126.3013,E,1,00,00009.606,M 
$GPGGA,223722.000,3101.4460,N,12126.3017,E,1,00,00009.606,M 
$GPGGA,223722.000,3101.4461,N,12126.3022,E,1,00,00010.242,M 
$GPGGA,223723.000,3101.4462,N,12126.3026,E,1,00,00010.242,M 
$GPGGA,223723.000,3101.4463,N,12126.3030,E,1,00,00010.716,M 
$GPGGA,223724.000,3101.4465,N,12126.3035,E,1,00,00009.924,M 
$GPGGA,223725.000,3101.4466,N,12126.3039,E,1,00,00009.924,M 
$GPGGA,223725.000,3101.4467,N,12126.3043,E,1,00,00013.037,M 
$GPGGA,223726.000,3101.4468,N,12126.3047,E,1,00,00013.037,M 
$GPGGA,223726.000,3101.4469,N,12126.3052,E,1,00,00011.167,M 
$GPGGA,223727.000,3101.4469,N,12126.3056,E,1,00,00011.167,M 
$GPGGA,223727.000,3101.4471,N,12126.3060,E,1,00,00012.615,M 
$GPGGA,223728.000,3101.4472,N,12126.3065,E,1,00,00012.615,M 
$GPGGA,223728.000,3101.4473,N,12126.3069,E,1,00,00012.061,M 
$GPGGA,223729.000,3101.4474,N,12126.3073,E,1,00,00012.714,M 
$GPGGA,223730.000,3101.4475,N,12126.3078,E,1,00,00012.714,M 
$GPGGA,223730.000,3101.4476,N,12126.3082,E,1,00,00011.858,M 
$GPGGA,223731.000,3101.4477,N,12126.3086,E,1,00,00011.858,M 
$GPGGA,223731.000,3101.4477,N,12126.3090,E,1,00,00010.877,M 
$GPGGA,223732.000,3101.4478,N,12126.3095,E,1,00,00010.877,M 
$GPGGA,223732.000,3101.4479,N,12126.3099,E,1,00,00010.119,M 
$GPGGA,223733.000,3101.4480,N,12126.3103,E,1,00,00009.251,M 
$GPGGA,223734.000,3101.4481,N,12126.3108,E,1,00,00009.251,M 
$GPGGA,223734.000,3101.4482,N,12126.3112,E,1,00,00008.963,M 
$GPGGA,223735.000,3101.4483,N,12126.3116,E,1,00,00008.963,M 
$GPGGA,223735.000,3101.4484,N,12126.3121,E,1,00,00010.163,M 
$GPGGA,223736.000,3101.4485,N,12126.3125,E,1,00,00010.163,M 
$GPGGA,223736.000,3101.4486,N,12126.3129,E,1,00,00008.776,M 
$GPGGA,223737.000,3101.4486,N,12126.3134,E,1,00,00009.200,M 
$GPGGA,223738.000,3101.4488,N,12126.3138,E,1,00,00009.200,M 
$GPGGA,223738.000,3101.4489,N,12126.3142,E,1,00,00009.007,M 
$GPGGA,223739.000,3101.4490,N,12126.3146,E,1,00,00009.007,M 
$GPGGA,223739.000,3101.4491,N,12126.3151,E,1,00,00008.504,M 
$GPGGA,223740.000,3101.4492,N,12126.3155,E,1,00,00008.504,M 
$GPGGA,223740.000,3101.4492,N,12126.3159,E,1,00,00010.072,M 
$GPGGA,223741.000,3101.4494,N,12126.3164,E,1,00,00009.954,M 
$GPGGA,223742.000,3101.4494,N,12126.3168,E,1,00,00009.954,M 
$GPGGA,223742.000,3101.4495,N,12126.3172,E,1,00,00010.258,M 
$GPGGA,223743.000,3101.4496,N,12126.3177,E,1,00,00010.258,M 
$GPGGA,223743.000,3101.4497,N,12126.3181,E,1,00,00010.261,M 
$GPGGA,223744.000,3101.4498,N,12126.3185,E,1,00,00010.261,M 
$GPGGA,223744.000,3101.4499,N,12126.3189,E,1,00,00010.452,M 
$GPGGA,223745.000,3101.4500,N,12126.3194,E,1,00,00010.452,M 
$GPGGA,223745.000,3101.4501,N,12126.3198,E,1,00,00010.028,M 
$GPGGA,223746.000,3101.4502,N,12126.3202,E,1,00,00008.800,M 
$GPGGA,223747.000,3101.4503,N,12126.3207,E,1,00,00008.800,M 
$GPGGA,223747.000,3101.4504,N,12126.3211,E,1,00,00007.136,M 
$GPGGA,223748.000,3101.4505,N,12126.3215,E,1,00,00007.136,M 
$GPGGA,223748.000,3101.4506,N,12126.3220,E,1,00,00007.361,M 
$GPGGA,223749.000,3101.4507,N,12126.3224,E,1,00,00007.361,M 
$GPGGA,223749.000,3101.4508,N,12126.3228,E,1,00,00005.850,M 
$GPGGA,223750.000,3101.4509,N,12126.3233,E,1,00,00005.485,M 
$GPGGA,223751.000,3101.4510,N,12126.3237,E,1,00,00005.485,M 
$GPGGA,223751.000,3101.4511,N,12126.3241,E,1,00,00006.022,M 
$GPGGA,223752.000,3101.4512,N,12126.3245,E,1,00,00006.022,M 
$GPGGA,223752.000,3101.4513,N,12126.3250,E,1,00,00006.041,M 
$GPGGA,223753.000,3101.4514,N,12126.3254,E,1,00,00006.041,M 
$GPGGA,223753.000,3101.4515,N,12126.3258,E,1,00,00007.023,M 
$GPGGA,223754.000,3101.4515,N,12126.3263,E,1,00,00009.193,M 
$GPGGA,223755.000,3101.4516,N,12126.3267,E,1,00,00009.193,M 
$GPGGA,223755.000,3101.4517,N,12126.3271,E,1,00,00010.002,M 
$GPGGA,223756.000,3101.4519,N,12126.3276,E,1,00,00010.002,M 
$GPGGA,223756.000,3101.4520,N,12126.3280,E,1,00,00008.214,M 
$GPGGA,223757.000,3101.4521,N,12126.3284,E,1,00,00008.214,M 
$GPGGA,223757.000,3101.4522,N,12126.3288,E,1,00,00010.471,M 
$GPGGA,223758.000,3101.4523,N,12126.3292,E,1,00,00010.296,M 
$GPGGA,223759.000,3101.4524,N,12126.3297,E,1,00,00010.296,M 
$GPGGA,223759.000,3101.4525,N,12126.3301,E,1,00,00010.058,M 
$GPGGA,223800.000,3101.4526,N,12126.3305,E,1,00,00010.058,M 
$GPGGA,223800.000,3101.4527,N,12126.3310,E,1,00,00009.669,M 
$GPGGA,223801.000,3101.4528,N,12126.3314,E,1,00,00009.669,M 
$GPGGA,223801.000,3101.4529,N,12126.3318,E,1,00,00009.754,M 
$GPGGA,223802.000,3101.4530,N,12126.3322,E,1,00,00011.073,M 
$GPGGA,223803.000,3101.4531,N,12126.3325,E,1,00,00011.073,M 
$GPGGA,223803.000,3101.4531,N,12126.3326,E,1,00,00000.488,M 
$GPGGA,223839.000,3101.4532,N,12126.3330,E,1,00,00002.753,M 
$GPGGA,223840.000,3101.4533,N,12126.3335,E,1,00,00002.753,M 
$GPGGA,223840.000,3101.4534,N,12126.3339,E,1,00,00004.717,M 
$GPGGA,223841.000,3101.4535,N,12126.3343,E,1,00,00004.717,M 
$GPGGA,223841.000,3101.4536,N,12126.3348,E,1,00,00004.495,M 
$GPGGA,223842.000,3101.4537,N,12126.3352,E,1,00,00004.495,M 
$GPGGA,223842.000,3101.4538,N,12126.3357,E,1,00,00007.131,M 
$GPGGA,223843.000,3101.4539,N,12126.3361,E,1,00,00007.131,M 
$GPGGA,223843.000,3101.4541,N,12126.3366,E,1,00,00007.852,M 
$GPGGA,223844.000,3101.4541,N,12126.3370,E,1,00,00009.185,M 
$GPGGA,223845.000,3101.4542,N,12126.3374,E,1,00,00009.185,M 
$GPGGA,223845.000,3101.4543,N,12126.3379,E,1,00,00008.934,M 
$GPGGA,223846.000,3101.4545,N,12126.3383,E,1,00,00008.934,M 
$GPGGA,223846.000,3101.4545,N,12126.3388,E,1,00,00010.174,M 
$GPGGA,223847.000,3101.4546,N,12126.3392,E,1,00,00010.174,M 
$GPGGA,223847.000,3101.4547,N,12126.3396,E,1,00,00010.921,M 
$GPGGA,223848.000,3101.4548,N,12126.3401,E,1,00,00010.921,M 
$GPGGA,223848.000,3101.4549,N,12126.3405,E,1,00,00010.887,M 
$GPGGA,223849.000,3101.4550,N,12126.3409,E,1,00,00011.232,M 
$GPGGA,223850.000,3101.4551,N,12126.3414,E,1,00,00011.232,M 
$GPGGA,223850.000,3101.4552,N,12126.3418,E,1,00,00011.264,M 
$GPGGA,223851.000,3101.4553,N,12126.3422,E,1,00,00011.264,M 
$GPGGA,223851.000,3101.4554,N,12126.3427,E,1,00,00011.085,M 
$GPGGA,223852.000,3101.4555,N,12126.3431,E,1,00,00011.085,M 
$GPGGA,223852.000,3101.4556,N,12126.3435,E,1,00,00010.792,M 
$GPGGA,223853.000,3101.4557,N,12126.3440,E,1,00,00010.792,M 
$GPGGA,223853.000,3101.4558,N,12126.3444,E,1,00,00010.600,M 
$GPGGA,223854.000,3101.4559,N,12126.3448,E,1,00,00011.251,M 
$GPGGA,223855.000,3101.4561,N,12126.3453,E,1,00,00011.251,M 
$GPGGA,223855.000,3101.4562,N,12126.3457,E,1,00,00010.418,M 
$GPGGA,223856.000,3101.4563,N,12126.3461,E,1,00,00010.418,M 
$GPGGA,223856.000,3101.4564,N,12126.3466,E,1,00,00010.677,M 
$GPGGA,223857.000,3101.4565,N,12126.3470,E,1,00,00010.677,M 
$GPGGA,223857.000,3101.4566,N,12126.3475,E,1,00,00011.321,M 
$GPGGA,223858.000,3101.4567,N,12126.3479,E,1,00,00011.321,M 
$GPGGA,223858.000,3101.4568,N,12126.3483,E,1,00,00011.968,M 
$GPGGA,223859.000,3101.4569,N,12126.3488,E,1,00,00011.718,M 
$GPGGA,223900.000,3101.4570,N,12126.3492,E,1,00,00011.718,M 
$GPGGA,223900.000,3101.4571,N,12126.3496,E,1,00,00012.403,M 
$GPGGA,223901.000,3101.4572,N,12126.3501,E,1,00,00012.403,M 
$GPGGA,223901.000,3101.4573,N,12126.3505,E,1,00,00011.414,M 
$GPGGA,223902.000,3101.4574,N,12126.3509,E,1,00,00011.414,M 
$GPGGA,223902.000,3101.4575,N,12126.3514,E,1,00,00010.459,M 
$GPGGA,223903.000,3101.4576,N,12126.3518,E,1,00,00010.459,M 
$GPGGA,223903.000,3101.4577,N,12126.3522,E,1,00,00009.263,M 
$GPGGA,223904.000,3101.4578,N,12126.3527,E,1,00,00010.592,M 
$GPGGA,223905.000,3101.4579,N,12126.3531,E,1,00,00010.592,M 
$GPGGA,223905.000,3101.4580,N,12126.3535,E,1,00,00009.693,M 
$GPGGA,223906.000,3101.4581,N,12126.3540,E,1,00,00009.693,M 
$GPGGA,223906.000,3101.4582,N,12126.3544,E,1,00,00009.079,M 
$GPGGA,223907.000,3101.4583,N,12126.3548,E,1,00,00009.079,M 
$GPGGA,223907.000,3101.4584,N,12126.3553,E,1,00,00008.846,M 
$GPGGA,223908.000,3101.4585,N,12126.3557,E,1,00,00008.846,M 
$GPGGA,223908.000,3101.4586,N,12126.3561,E,1,00,00009.327,M 
$GPGGA,223909.000,3101.4587,N,12126.3566,E,1,00,00008.707,M 
$GPGGA,223910.000,3101.4588,N,12126.3570,E,1,00,00008.707,M 
$GPGGA,223910.000,3101.4589,N,12126.3574,E,1,00,00007.953,M 
$GPGGA,223911.000,3101.4590,N,12126.3579,E,1,00,00007.953,M 
$GPGGA,223911.000,3101.4591,N,12126.3583,E,1,00,00007.850,M 
$GPGGA,223912.000,3101.4592,N,12126.3587,E,1,00,00007.850,M 
$GPGGA,223912.000,3101.4593,N,12126.3592,E,1,00,00008.571,M 
$GPGGA,223913.000,3101.4594,N,12126.3596,E,1,00,00008.898,M 
$GPGGA,223914.000,3101.4595,N,12126.3600,E,1,00,00008.898,M 
$GPGGA,223914.000,3101.4596,N,12126.3605,E,1,00,00008.996,M 
$GPGGA,223915.000,3101.4597,N,12126.3609,E,1,00,00008.996,M 
$GPGGA,223915.000,3101.4599,N,12126.3614,E,1,00,00009.610,M 
$GPGGA,223916.000,3101.4599,N,12126.3618,E,1,00,00009.610,M 
$GPGGA,223916.000,3101.4600,N,12126.3622,E,1,00,00009.045,M 
$GPGGA,223917.000,3101.4601,N,12126.3626,E,1,00,00009.045,M 
$GPGGA,223917.000,3101.4602,N,12126.3631,E,1,00,00009.257,M 
$GPGGA,223918.000,3101.4603,N,12126.3635,E,1,00,00010.328,M 
$GPGGA,223919.000,3101.4604,N,12126.3640,E,1,00,00010.328,M 
$GPGGA,223919.000,3101.4605,N,12126.3644,E,1,00,00012.150,M 
$GPGGA,223920.000,3101.4606,N,12126.3648,E,1,00,00012.150,M 
$GPGGA,223920.000,3101.4607,N,12126.3653,E,1,00,00012.670,M 
$GPGGA,223921.000,3101.4608,N,12126.3657,E,1,00,00012.670,M 
$GPGGA,223921.000,3101.4609,N,12126.3661,E,1,00,00012.480,M 
$GPGGA,223922.000,3101.4610,N,12126.3666,E,1,00,00012.480,M 
$GPGGA,223922.000,3101.4611,N,12126.3670,E,1,00,00011.264,M 
$GPGGA,223923.000,3101.4612,N,12126.3674,E,1,00,00011.763,M 
$GPGGA,223924.000,3101.4613,N,12126.3679,E,1,00,00011.763,M 
$GPGGA,223924.000,3101.4614,N,12126.3683,E,1,00,00012.135,M 
$GPGGA,223925.000,3101.4615,N,12126.3687,E,1,00,00012.135,M 
$GPGGA,223925.000,3101.4616,N,12126.3692,E,1,00,00011.980,M 
$GPGGA,223926.000,3101.4617,N,12126.3696,E,1,00,00011.980,M 
$GPGGA,223926.000,3101.4618,N,12126.3701,E,1,00,00012.195,M 
$GPGGA,223927.000,3101.4619,N,12126.3705,E,1,00,00012.195,M 
$GPGGA,223927.000,3101.4620,N,12126.3709,E,1,00,00013.469,M 
$GPGGA,223928.000,3101.4621,N,12126.3714,E,1,00,00014.164,M 
$GPGGA,223929.000,3101.4622,N,12126.3718,E,1,00,00014.164,M 
$GPGGA,223929.000,3101.4623,N,12126.3723,E,1,00,00013.560,M 
$GPGGA,223930.000,3101.4624,N,12126.3727,E,1,00,00013.560,M 
$GPGGA,223930.000,3101.4625,N,12126.3731,E,1,00,00014.164,M 
$GPGGA,223931.000,3101.4626,N,12126.3736,E,1,00,00014.164,M 
$GPGGA,223931.000,3101.4627,N,12126.3740,E,1,00,00012.110,M 
$GPGGA,223932.000,3101.4628,N,12126.3744,E,1,00,00012.110,M 
$GPGGA,223932.000,3101.4629,N,12126.3749,E,1,00,00011.842,M 
$GPGGA,223933.000,3101.4629,N,12126.3753,E,1,00,00012.364,M 
$GPGGA,223934.000,3101.4630,N,12126.3758,E,1,00,00012.364,M 
$GPGGA,223934.000,3101.4631,N,12126.3762,E,1,00,00012.402,M 
$GPGGA,223935.000,3101.4632,N,12126.3766,E,1,00,00012.402,M 
$GPGGA,223935.000,3101.4633,N,12126.3771,E,1,00,00013.147,M 
$GPGGA,223936.000,3101.4634,N,12126.3775,E,1,00,00013.147,M 
$GPGGA,223936.000,3101.4634,N,12126.3779,E,1,00,00013.474,M 
$GPGGA,223937.000,3101.4635,N,12126.3784,E,1,00,00013.590,M 
$GPGGA,223938.000,3101.4636,N,12126.3788,E,1,00,00013.590,M 
$GPGGA,223938.000,3101.4637,N,12126.3792,E,1,00,00012.977,M 
$GPGGA,223939.000,3101.4637,N,12126.3797,E,1,00,00012.977,M 
$GPGGA,223939.000,3101.4639,N,12126.3801,E,1,00,00013.036,M 
$GPGGA,223940.000,3101.4639,N,12126.3806,E,1,00,00013.036,M 
$GPGGA,223940.000,3101.4640,N,12126.3810,E,1,00,00013.135,M 
$GPGGA,223941.000,3101.4641,N,12126.3814,E,1,00,00013.135,M 
$GPGGA,223941.000,3101.4642,N,12126.3818,E,1,00,00011.719,M 
$GPGGA,223942.000,3101.4643,N,12126.3823,E,1,00,00010.695,M 
$GPGGA,223943.000,3101.4644,N,12126.3827,E,1,00,00010.695,M 
$GPGGA,223943.000,3101.4645,N,12126.3831,E,1,00,00011.026,M 
$GPGGA,223944.000,3101.4646,N,12126.3836,E,1,00,00011.026,M 
$GPGGA,223944.000,3101.4647,N,12126.3840,E,1,00,00011.272,M 
$GPGGA,223945.000,3101.4648,N,12126.3844,E,1,00,00011.272,M 
$GPGGA,223945.000,3101.4649,N,12126.3849,E,1,00,00011.531,M 
$GPGGA,223946.000,3101.4650,N,12126.3853,E,1,00,00012.023,M 
$GPGGA,223947.000,3101.4651,N,12126.3857,E,1,00,00012.023,M 
$GPGGA,223947.000,3101.4652,N,12126.3862,E,1,00,00013.123,M 
$GPGGA,223948.000,3101.4653,N,12126.3866,E,1,00,00013.123,M 
$GPGGA,223948.000,3101.4654,N,12126.3870,E,1,00,00013.658,M 
$GPGGA,223949.000,3101.4655,N,12126.3874,E,1,00,00013.658,M 
$GPGGA,223949.000,3101.4656,N,12126.3879,E,1,00,00014.435,M 
$GPGGA,223950.000,3101.4657,N,12126.3883,E,1,00,00014.435,M 
$GPGGA,223950.000,3101.4658,N,12126.3887,E,1,00,00015.126,M 
$GPGGA,223951.000,3101.4659,N,12126.3892,E,1,00,00016.807,M 
$GPGGA,223952.000,3101.4660,N,12126.3896,E,1,00,00016.807,M 
$GPGGA,223952.000,3101.4661,N,12126.3900,E,1,00,00018.352,M 
$GPGGA,223953.000,3101.4662,N,12126.3904,E,1,00,00018.352,M 
$GPGGA,223953.000,3101.4663,N,12126.3909,E,1,00,00018.149,M 
$GPGGA,223954.000,3101.4664,N,12126.3913,E,1,00,00018.149,M 
$GPGGA,223954.000,3101.4665,N,12126.3917,E,1,00,00018.006,M 
$GPGGA,223955.000,3101.4666,N,12126.3922,E,1,00,00018.721,M 
$GPGGA,223956.000,3101.4667,N,12126.3926,E,1,00,00018.721,M 
$GPGGA,223956.000,3101.4668,N,12126.3930,E,1,00,00018.611,M 
$GPGGA,223957.000,3101.4668,N,12126.3935,E,1,00,00018.611,M 
$GPGGA,223957.000,3101.4669,N,12126.3939,E,1,00,00019.260,M 
$GPGGA,223958.000,3101.4670,N,12126.3943,E,1,00,00019.260,M 
$GPGGA,223958.000,3101.4671,N,12126.3948,E,1,00,00018.092,M 
$GPGGA,223959.000,3101.4672,N,12126.3952,E,1,00,00017.047,M 
$GPGGA,224000.000,3101.4673,N,12126.3956,E,1,00,00017.047,M 
$GPGGA,224000.000,3101.4674,N,12126.3961,E,1,00,00018.151,M 
$GPGGA,224001.000,3101.4675,N,12126.3965,E,1,00,00018.151,M 
$GPGGA,224001.000,3101.4676,N,12126.3969,E,1,00,00018.985,M 
$GPGGA,224002.000,3101.4677,N,12126.3973,E,1,00,00018.985,M 
$GPGGA,224002.000,3101.4678,N,12126.3977,E,1,00,00018.989,M 
$GPGGA,224003.000,3101.4679,N,12126.3982,E,1,00,00017.161,M 
$GPGGA,224004.000,3101.4680,N,12126.3986,E,1,00,00017.161,M 
$GPGGA,224004.000,3101.4681,N,12126.3990,E,1,00,00017.438,M 
$GPGGA,224005.000,3101.4682,N,12126.3995,E,1,00,00017.438,M 
$GPGGA,224005.000,3101.4683,N,12126.3999,E,1,00,00017.222,M 
$GPGGA,224006.000,3101.4684,N,12126.4003,E,1,00,00017.222,M 
$GPGGA,224006.000,3101.4685,N,12126.4007,E,1,00,00017.331,M 
$GPGGA,224007.000,3101.4686,N,12126.4012,E,1,00,00016.130,M 
$GPGGA,224008.000,3101.4687,N,12126.4016,E,1,00,00016.130,M 
$GPGGA,224008.000,3101.4688,N,12126.4020,E,1,00,00016.370,M 
$GPGGA,224009.000,3101.4689,N,12126.4024,E,1,00,00016.370,M 
$GPGGA,224009.000,3101.4690,N,12126.4029,E,1,00,00017.172,M 
$GPGGA,224010.000,3101.4691,N,12126.4033,E,1,00,00017.172,M 
$GPGGA,224010.000,3101.4692,N,12126.4037,E,1,00,00017.491,M 
$GPGGA,224011.000,3101.4693,N,12126.4042,E,1,00,00018.404,M 
$GPGGA,224012.000,3101.4694,N,12126.4046,E,1,00,00018.404,M 
$GPGGA,224012.000,3101.4695,N,12126.4050,E,1,00,00017.584,M 
$GPGGA,224013.000,3101.4695,N,12126.4055,E,1,00,00017.584,M 
$GPGGA,224013.000,3101.4696,N,12126.4059,E,1,00,00016.241,M 
$GPGGA,224014.000,3101.4697,N,12126.4063,E,1,00,00016.241,M 
$GPGGA,224014.000,3101.4698,N,12126.4068,E,1,00,00017.061,M 
$GPGGA,224015.000,3101.4699,N,12126.4072,E,1,00,00017.061,M 
$GPGGA,224015.000,3101.4700,N,12126.4076,E,1,00,00017.935,M 
$GPGGA,224016.000,3101.4701,N,12126.4081,E,1,00,00017.824,M 
$GPGGA,224017.000,3101.4702,N,12126.4085,E,1,00,00017.824,M 
$GPGGA,224017.000,3101.4703,N,12126.4089,E,1,00,00018.801,M 
$GPGGA,224018.000,3101.4704,N,12126.4094,E,1,00,00018.801,M 
$GPGGA,224018.000,3101.4705,N,12126.4098,E,1,00,00019.378,M 
$GPGGA,224019.000,3101.4706,N,12126.4102,E,1,00,00019.378,M 
$GPGGA,224019.000,3101.4707,N,12126.4106,E,1,00,00018.807,M 
$GPGGA,224020.000,3101.4708,N,12126.4111,E,1,00,00018.909,M 
$GPGGA,224021.000,3101.4709,N,12126.4115,E,1,00,00018.909,M 
$GPGGA,224021.000,3101.4710,N,12126.4120,E,1,00,00019.525,M 
$GPGGA,224022.000,3101.4711,N,12126.4124,E,1,00,00019.525,M 
$GPGGA,224022.000,3101.4712,N,12126.4128,E,1,00,00018.105,M 
$GPGGA,224023.000,3101.4713,N,12126.4133,E,1,00,00018.105,M 
$GPGGA,224023.000,3101.4714,N,12126.4137,E,1,00,00017.344,M 
$GPGGA,224024.000,3101.4714,N,12126.4142,E,1,00,00017.344,M 
$GPGGA,224024.000,3101.4715,N,12126.4146,E,1,00,00016.969,M 
$GPGGA,224025.000,3101.4716,N,12126.4150,E,1,00,00018.543,M 
$GPGGA,224026.000,3101.4717,N,12126.4154,E,1,00,00018.543,M 
$GPGGA,224026.000,3101.4718,N,12126.4159,E,1,00,00018.238,M 
$GPGGA,224027.000,3101.4719,N,12126.4163,E,1,00,00018.238,M 
$GPGGA,224027.000,3101.4720,N,12126.4168,E,1,00,00017.371,M 
$GPGGA,224028.000,3101.4721,N,12126.4172,E,1,00,00017.371,M 
$GPGGA,224028.000,3101.4722,N,12126.4176,E,1,00,00017.545,M 
$GPGGA,224029.000,3101.4723,N,12126.4181,E,1,00,00017.545,M 
$GPGGA,224029.000,3101.4724,N,12126.4185,E,1,00,00016.935,M 
$GPGGA,224030.000,3101.4725,N,12126.4190,E,1,00,00017.037,M 
$GPGGA,224031.000,3101.4726,N,12126.4194,E,1,00,00017.037,M 
$GPGGA,224031.000,3101.4727,N,12126.4198,E,1,00,00017.574,M 
$GPGGA,224032.000,3101.4727,N,12126.4203,E,1,00,00017.574,M 
$GPGGA,224032.000,3101.4728,N,12126.4207,E,1,00,00018.904,M 
$GPGGA,224033.000,3101.4729,N,12126.4211,E,1,00,00018.904,M 
$GPGGA,224033.000,3101.4730,N,12126.4216,E,1,00,00018.161,M 
$GPGGA,224034.000,3101.4731,N,12126.4220,E,1,00,00017.017,M 
$GPGGA,224035.000,3101.4732,N,12126.4224,E,1,00,00017.017,M 
$GPGGA,224035.000,3101.4733,N,12126.4229,E,1,00,00019.260,M 
$GPGGA,224036.000,3101.4734,N,12126.4233,E,1,00,00019.260,M 
$GPGGA,224036.000,3101.4735,N,12126.4237,E,1,00,00018.635,M 
$GPGGA,224037.000,3101.4736,N,12126.4242,E,1,00,00018.635,M 
$GPGGA,224037.000,3101.4737,N,12126.4246,E,1,00,00019.146,M 
$GPGGA,224038.000,3101.4738,N,12126.4250,E,1,00,00019.146,M 
$GPGGA,224038.000,3101.4739,N,12126.4254,E,1,00,00018.472,M 
$GPGGA,224039.000,3101.4740,N,12126.4259,E,1,00,00018.345,M 
$GPGGA,224040.000,3101.4741,N,12126.4263,E,1,00,00018.345,M 
$GPGGA,224040.000,3101.4742,N,12126.4268,E,1,00,00017.167,M 
$GPGGA,224041.000,3101.4743,N,12126.4272,E,1,00,00017.168,M 
$GPGGA,224041.000,3101.4744,N,12126.4276,E,1,00,00017.880,M 
$GPGGA,224042.000,3101.4745,N,12126.4280,E,1,00,00017.880,M 
$GPGGA,224042.000,3101.4746,N,12126.4284,E,1,00,00017.670,M 
$GPGGA,224043.000,3101.4747,N,12126.4289,E,1,00,00018.962,M 
$GPGGA,224044.000,3101.4748,N,12126.4293,E,1,00,00018.962,M 
$GPGGA,224044.000,3101.4749,N,12126.4298,E,1,00,00017.015,M 
$GPGGA,224045.000,3101.4750,N,12126.4302,E,1,00,00017.015,M 
$GPGGA,224045.000,3101.4751,N,12126.4306,E,1,00,00017.253,M 
$GPGGA,224046.000,3101.4752,N,12126.4310,E,1,00,00017.253,M 
$GPGGA,224046.000,3101.4752,N,12126.4315,E,1,00,00017.927,M 
$GPGGA,224047.000,3101.4753,N,12126.4319,E,1,00,00018.258,M 
$GPGGA,224048.000,3101.4754,N,12126.4323,E,1,00,00018.258,M 
$GPGGA,224048.000,3101.4755,N,12126.4327,E,1,00,00020.006,M 
$GPGGA,224049.000,3101.4756,N,12126.4332,E,1,00,00020.006,M 
$GPGGA,224049.000,3101.4756,N,12126.4336,E,1,00,00019.188,M 
$GPGGA,224050.000,3101.4757,N,12126.4341,E,1,00,00019.188,M 
$GPGGA,224050.000,3101.4758,N,12126.4345,E,1,00,00016.634,M 
$GPGGA,224051.000,3101.4759,N,12126.4349,E,1,00,00017.694,M 
$GPGGA,224052.000,3101.4759,N,12126.4353,E,1,00,00017.694,M 
$GPGGA,224052.000,3101.4760,N,12126.4357,E,1,00,00017.192,M 
$GPGGA,224053.000,3101.4760,N,12126.4358,E,1,00,00013.050,M 
$GPGGA,224143.000,3101.4761,N,12126.4363,E,1,00,00013.050,M 
$GPGGA,224143.000,3101.4762,N,12126.4367,E,1,00,00016.129,M 
$GPGGA,224144.000,3101.4763,N,12126.4371,E,1,00,00014.836,M 
$GPGGA,224145.000,3101.4764,N,12126.4375,E,1,00,00014.836,M 
$GPGGA,224145.000,3101.4765,N,12126.4380,E,1,00,00012.606,M 
$GPGGA,224146.000,3101.4766,N,12126.4385,E,1,00,00012.606,M 
$GPGGA,224146.000,3101.4766,N,12126.4389,E,1,00,00013.094,M 
$GPGGA,224147.000,3101.4767,N,12126.4394,E,1,00,00013.094,M 
$GPGGA,224147.000,3101.4768,N,12126.4398,E,1,00,00012.077,M 
$GPGGA,224148.000,3101.4769,N,12126.4403,E,1,00,00012.077,M 
$GPGGA,224148.000,3101.4769,N,12126.4407,E,1,00,00011.722,M 
$GPGGA,224149.000,3101.4770,N,12126.4412,E,1,00,00011.722,M 
$GPGGA,224149.000,3101.4771,N,12126.4416,E,1,00,00013.618,M 
$GPGGA,224150.000,3101.4772,N,12126.4421,E,1,00,00013.618,M 
$GPGGA,224150.000,3101.4773,N,12126.4425,E,1,00,00012.595,M 
$GPGGA,224151.000,3101.4773,N,12126.4430,E,1,00,00014.471,M 
$GPGGA,224152.000,3101.4774,N,12126.4434,E,1,00,00014.471,M 
$GPGGA,224152.000,3101.4775,N,12126.4439,E,1,00,00014.514,M 
$GPGGA,224153.000,3101.4776,N,12126.4443,E,1,00,00014.514,M 
$GPGGA,224153.000,3101.4777,N,12126.4448,E,1,00,00015.777,M 
$GPGGA,224154.000,3101.4778,N,12126.4452,E,1,00,00015.777,M 
$GPGGA,224154.000,3101.4778,N,12126.4456,E,1,00,00016.379,M 
$GPGGA,224155.000,3101.4779,N,12126.4461,E,1,00,00016.379,M 
$GPGGA,224155.000,3101.4780,N,12126.4465,E,1,00,00018.482,M 
$GPGGA,224156.000,3101.4781,N,12126.4470,E,1,00,00020.131,M 
$GPGGA,224157.000,3101.4782,N,12126.4474,E,1,00,00020.131,M 
$GPGGA,224157.000,3101.4783,N,12126.4479,E,1,00,00021.085,M 
$GPGGA,224158.000,3101.4784,N,12126.4483,E,1,00,00021.085,M 
$GPGGA,224158.000,3101.4784,N,12126.4488,E,1,00,00021.062,M 
$GPGGA,224159.000,3101.4785,N,12126.4492,E,1,00,00021.062,M 
$GPGGA,224159.000,3101.4786,N,12126.4497,E,1,00,00021.518,M 
$GPGGA,224200.000,3101.4787,N,12126.4501,E,1,00,00021.518,M 
$GPGGA,224200.000,3101.4787,N,12126.4506,E,1,00,00022.520,M 
$GPGGA,224201.000,3101.4788,N,12126.4510,E,1,00,00022.520,M 
$GPGGA,224201.000,3101.4789,N,12126.4515,E,1,00,00021.588,M 
$GPGGA,224202.000,3101.4790,N,12126.4519,E,1,00,00021.589,M 
$GPGGA,224202.000,3101.4791,N,12126.4524,E,1,00,00021.897,M 
$GPGGA,224203.000,3101.4791,N,12126.4528,E,1,00,00021.074,M 
$GPGGA,224204.000,3101.4792,N,12126.4532,E,1,00,00021.074,M 
$GPGGA,224204.000,3101.4793,N,12126.4537,E,1,00,00021.104,M 
$GPGGA,224205.000,3101.4794,N,12126.4541,E,1,00,00021.104,M 
$GPGGA,224205.000,3101.4794,N,12126.4546,E,1,00,00021.426,M 
$GPGGA,224206.000,3101.4795,N,12126.4550,E,1,00,00021.426,M 
$GPGGA,224206.000,3101.4796,N,12126.4555,E,1,00,00020.312,M 
$GPGGA,224207.000,3101.4797,N,12126.4559,E,1,00,00020.312,M 
$GPGGA,224207.000,3101.4797,N,12126.4564,E,1,00,00021.613,M 
$GPGGA,224208.000,3101.4798,N,12126.4568,E,1,00,00020.655,M 
$GPGGA,224209.000,3101.4799,N,12126.4573,E,1,00,00020.655,M 
$GPGGA,224209.000,3101.4800,N,12126.4577,E,1,00,00020.513,M 
$GPGGA,224210.000,3101.4800,N,12126.4581,E,1,00,00020.513,M 
$GPGGA,224210.000,3101.4801,N,12126.4586,E,1,00,00019.848,M 
$GPGGA,224211.000,3101.4802,N,12126.4590,E,1,00,00019.848,M 
$GPGGA,224211.000,3101.4803,N,12126.4595,E,1,00,00021.650,M 
$GPGGA,224212.000,3101.4804,N,12126.4599,E,1,00,00021.651,M 
$GPGGA,224212.000,3101.4804,N,12126.4604,E,1,00,00021.820,M 
$GPGGA,224213.000,3101.4805,N,12126.4608,E,1,00,00021.655,M 
$GPGGA,224214.000,3101.4806,N,12126.4613,E,1,00,00021.655,M 
$GPGGA,224214.000,3101.4806,N,12126.4617,E,1,00,00021.056,M 
$GPGGA,224215.000,3101.4807,N,12126.4622,E,1,00,00021.056,M 
$GPGGA,224215.000,3101.4808,N,12126.4626,E,1,00,00019.412,M 
$GPGGA,224216.000,3101.4809,N,12126.4630,E,1,00,00019.413,M 
$GPGGA,224216.000,3101.4809,N,12126.4635,E,1,00,00018.399,M 
$GPGGA,224217.000,3101.4810,N,12126.4640,E,1,00,00018.399,M 
$GPGGA,224217.000,3101.4811,N,12126.4644,E,1,00,00017.385,M 
$GPGGA,224218.000,3101.4812,N,12126.4648,E,1,00,00016.318,M 
$GPGGA,224219.000,3101.4813,N,12126.4653,E,1,00,00016.318,M 
$GPGGA,224219.000,3101.4813,N,12126.4657,E,1,00,00015.447,M 
$GPGGA,224220.000,3101.4814,N,12126.4661,E,1,00,00015.448,M 
$GPGGA,224220.000,3101.4815,N,12126.4666,E,1,00,00016.121,M 
$GPGGA,224221.000,3101.4816,N,12126.4670,E,1,00,00016.121,M 
$GPGGA,224221.000,3101.4817,N,12126.4674,E,1,00,00015.735,M 
$GPGGA,224222.000,3101.4818,N,12126.4679,E,1,00,00015.735,M 
$GPGGA,224222.000,3101.4819,N,12126.4683,E,1,00,00017.364,M 
$GPGGA,224223.000,3101.4819,N,12126.4688,E,1,00,00018.099,M 
$GPGGA,224224.000,3101.4820,N,12126.4692,E,1,00,00018.099,M 
$GPGGA,224224.000,3101.4821,N,12126.4696,E,1,00,00017.661,M 
$GPGGA,224225.000,3101.4822,N,12126.4701,E,1,00,00017.661,M 
$GPGGA,224225.000,3101.4823,N,12126.4705,E,1,00,00018.086,M 
$GPGGA,224226.000,3101.4824,N,12126.4710,E,1,00,00018.086,M 
$GPGGA,224226.000,3101.4825,N,12126.4714,E,1,00,00018.664,M 
$GPGGA,224227.000,3101.4826,N,12126.4718,E,1,00,00018.664,M 
$GPGGA,224227.000,3101.4827,N,12126.4723,E,1,00,00018.817,M 
$GPGGA,224228.000,3101.4828,N,12126.4727,E,1,00,00018.589,M 
$GPGGA,224229.000,3101.4829,N,12126.4731,E,1,00,00018.589,M 
$GPGGA,224229.000,3101.4830,N,12126.4736,E,1,00,00018.944,M 
$GPGGA,224230.000,3101.4831,N,12126.4740,E,1,00,00018.944,M 
$GPGGA,224230.000,3101.4832,N,12126.4745,E,1,00,00017.171,M 
$GPGGA,224231.000,3101.4833,N,12126.4749,E,1,00,00017.171,M 
$GPGGA,224231.000,3101.4834,N,12126.4753,E,1,00,00016.070,M 
$GPGGA,224232.000,3101.4834,N,12126.4758,E,1,00,00016.070,M 
$GPGGA,224232.000,3101.4836,N,12126.4762,E,1,00,00016.286,M 
$GPGGA,224233.000,3101.4836,N,12126.4767,E,1,00,00017.622,M 
$GPGGA,224234.000,3101.4837,N,12126.4771,E,1,00,00017.622,M 
$GPGGA,224234.000,3101.4838,N,12126.4775,E,1,00,00016.598,M 
$GPGGA,224235.000,3101.4839,N,12126.4780,E,1,00,00016.598,M 
$GPGGA,224235.000,3101.4840,N,12126.4784,E,1,00,00017.027,M 
$GPGGA,224236.000,3101.4841,N,12126.4789,E,1,00,00017.027,M 
$GPGGA,224236.000,3101.4842,N,12126.4793,E,1,00,00019.139,M 
$GPGGA,224237.000,3101.4842,N,12126.4797,E,1,00,00019.139,M 
$GPGGA,224237.000,3101.4843,N,12126.4802,E,1,00,00019.848,M 
$GPGGA,224238.000,3101.4844,N,12126.4806,E,1,00,00018.334,M 
$GPGGA,224239.000,3101.4845,N,12126.4811,E,1,00,00018.334,M 
$GPGGA,224239.000,3101.4846,N,12126.4815,E,1,00,00018.568,M 
$GPGGA,224240.000,3101.4847,N,12126.4819,E,1,00,00018.568,M 
$GPGGA,224240.000,3101.4848,N,12126.4824,E,1,00,00018.707,M 
$GPGGA,224241.000,3101.4848,N,12126.4828,E,1,00,00018.707,M 
$GPGGA,224241.000,3101.4849,N,12126.4833,E,1,00,00019.765,M 
$GPGGA,224242.000,3101.4850,N,12126.4837,E,1,00,00019.765,M 
$GPGGA,224242.000,3101.4851,N,12126.4841,E,1,00,00019.631,M 
$GPGGA,224243.000,3101.4852,N,12126.4846,E,1,00,00021.465,M 
$GPGGA,224244.000,3101.4853,N,12126.4850,E,1,00,00021.465,M 
$GPGGA,224244.000,3101.4854,N,12126.4854,E,1,00,00020.770,M 
$GPGGA,224245.000,3101.4854,N,12126.4859,E,1,00,00020.770,M 
$GPGGA,224245.000,3101.4855,N,12126.4863,E,1,00,00020.965,M 
$GPGGA,224246.000,3101.4856,N,12126.4867,E,1,00,00020.965,M 
$GPGGA,224246.000,3101.4857,N,12126.4872,E,1,00,00021.151,M 
$GPGGA,224247.000,3101.4858,N,12126.4876,E,1,00,00020.362,M 
$GPGGA,224248.000,3101.4859,N,12126.4880,E,1,00,00020.362,M 
$GPGGA,224248.000,3101.4860,N,12126.4885,E,1,00,00019.498,M 
$GPGGA,224249.000,3101.4861,N,12126.4889,E,1,00,00019.498,M 
$GPGGA,224249.000,3101.4862,N,12126.4893,E,1,00,00019.861,M 
$GPGGA,224250.000,3101.4862,N,12126.4898,E,1,00,00019.861,M 
$GPGGA,224250.000,3101.4863,N,12126.4902,E,1,00,00020.543,M 
$GPGGA,224251.000,3101.4864,N,12126.4907,E,1,00,00020.543,M 
$GPGGA,224251.000,3101.4865,N,12126.4911,E,1,00,00019.910,M 
$GPGGA,224252.000,3101.4866,N,12126.4916,E,1,00,00018.941,M 
$GPGGA,224253.000,3101.4867,N,12126.4920,E,1,00,00018.941,M 
$GPGGA,224253.000,3101.4867,N,12126.4925,E,1,00,00019.271,M 
$GPGGA,224254.000,3101.4868,N,12126.4929,E,1,00,00019.271,M 
$GPGGA,224254.000,3101.4869,N,12126.4934,E,1,00,00018.778,M 
$GPGGA,224255.000,3101.4870,N,12126.4938,E,1,00,00018.778,M 
$GPGGA,224255.000,3101.4870,N,12126.4942,E,1,00,00018.214,M 
$GPGGA,224256.000,3101.4871,N,12126.4947,E,1,00,00018.214,M 
$GPGGA,224256.000,3101.4872,N,12126.4951,E,1,00,00018.129,M 
$GPGGA,224257.000,3101.4872,N,12126.4952,E,1,00,00014.373,M 
$GPGGA,224324.000,3101.4873,N,12126.4957,E,1,00,00014.373,M 
$GPGGA,224324.000,3101.4873,N,12126.4961,E,1,00,00014.662,M 
$GPGGA,224325.000,3101.4874,N,12126.4965,E,1,00,00014.662,M 
$GPGGA,224325.000,3101.4875,N,12126.4970,E,1,00,00012.669,M 
$GPGGA,224326.000,3101.4875,N,12126.4974,E,1,00,00012.669,M 
$GPGGA,224326.000,3101.4876,N,12126.4979,E,1,00,00013.765,M 
$GPGGA,224327.000,3101.4877,N,12126.4983,E,1,00,00012.589,M 
$GPGGA,224328.000,3101.4878,N,12126.4987,E,1,00,00012.589,M 
$GPGGA,224328.000,3101.4878,N,12126.4992,E,1,00,00012.132,M 
$GPGGA,224329.000,3101.4879,N,12126.4996,E,1,00,00012.132,M 
$GPGGA,224329.000,3101.4880,N,12126.5001,E,1,00,00013.262,M 
$GPGGA,224330.000,3101.4881,N,12126.5005,E,1,00,00013.262,M 
$GPGGA,224330.000,3101.4881,N,12126.5010,E,1,00,00013.527,M 
$GPGGA,224331.000,3101.4882,N,12126.5014,E,1,00,00013.527,M 
$GPGGA,224331.000,3101.4883,N,12126.5019,E,1,00,00013.542,M 
$GPGGA,224332.000,3101.4884,N,12126.5023,E,1,00,00013.542,M 
$GPGGA,224332.000,3101.4885,N,12126.5028,E,1,00,00013.986,M 
$GPGGA,224333.000,3101.4885,N,12126.5032,E,1,00,00014.368,M 
$GPGGA,224334.000,3101.4886,N,12126.5037,E,1,00,00014.368,M 
$GPGGA,224334.000,3101.4887,N,12126.5041,E,1,00,00014.648,M 
$GPGGA,224335.000,3101.4888,N,12126.5046,E,1,00,00014.648,M 
$GPGGA,224335.000,3101.4889,N,12126.5050,E,1,00,00016.495,M 
$GPGGA,224336.000,3101.4890,N,12126.5055,E,1,00,00016.495,M 
$GPGGA,224336.000,3101.4891,N,12126.5059,E,1,00,00016.604,M 
$GPGGA,224337.000,3101.4891,N,12126.5064,E,1,00,00016.604,M 
$GPGGA,224337.000,3101.4892,N,12126.5068,E,1,00,00017.220,M 
$GPGGA,224338.000,3101.4893,N,12126.5073,E,1,00,00017.220,M 
$GPGGA,224338.000,3101.4894,N,12126.5077,E,1,00,00017.847,M 
$GPGGA,224339.000,3101.4894,N,12126.5081,E,1,00,00017.916,M 
$GPGGA,224340.000,3101.4895,N,12126.5086,E,1,00,00017.916,M 
$GPGGA,224340.000,3101.4896,N,12126.5090,E,1,00,00018.673,M 
$GPGGA,224341.000,3101.4896,N,12126.5095,E,1,00,00018.673,M 
$GPGGA,224341.000,3101.4897,N,12126.5099,E,1,00,00018.805,M 
$GPGGA,224342.000,3101.4898,N,12126.5104,E,1,00,00018.805,M 
$GPGGA,224342.000,3101.4899,N,12126.5108,E,1,00,00016.376,M 
$GPGGA,224343.000,3101.4899,N,12126.5113,E,1,00,00016.376,M 
$GPGGA,224343.000,3101.4900,N,12126.5117,E,1,00,00017.180,M 
$GPGGA,224344.000,3101.4901,N,12126.5122,E,1,00,00018.553,M 
$GPGGA,224345.000,3101.4901,N,12126.5126,E,1,00,00018.553,M 
$GPGGA,224345.000,3101.4902,N,12126.5130,E,1,00,00018.264,M 
$GPGGA,224346.000,3101.4903,N,12126.5135,E,1,00,00018.264,M 
$GPGGA,224346.000,3101.4904,N,12126.5140,E,1,00,00017.001,M 
$GPGGA,224347.000,3101.4904,N,12126.5144,E,1,00,00017.001,M 
$GPGGA,224347.000,3101.4905,N,12126.5149,E,1,00,00016.622,M 
$GPGGA,224348.000,3101.4905,N,12126.5153,E,1,00,00016.622,M 
$GPGGA,224348.000,3101.4906,N,12126.5158,E,1,00,00015.787,M 
$GPGGA,224349.000,3101.4907,N,12126.5162,E,1,00,00015.787,M 
$GPGGA,224349.000,3101.4907,N,12126.5166,E,1,00,00015.549,M 
$GPGGA,224350.000,3101.4908,N,12126.5171,E,1,00,00014.801,M 
$GPGGA,224351.000,3101.4909,N,12126.5175,E,1,00,00014.801,M 
$GPGGA,224351.000,3101.4909,N,12126.5180,E,1,00,00014.743,M 
$GPGGA,224352.000,3101.4910,N,12126.5184,E,1,00,00014.743,M 
$GPGGA,224352.000,3101.4911,N,12126.5188,E,1,00,00015.625,M 
$GPGGA,224353.000,3101.4911,N,12126.5193,E,1,00,00015.625,M 
$GPGGA,224353.000,3101.4912,N,12126.5198,E,1,00,00016.462,M 
$GPGGA,224354.000,3101.4913,N,12126.5202,E,1,00,00016.462,M 
$GPGGA,224354.000,3101.4913,N,12126.5206,E,1,00,00017.466,M 
$GPGGA,224355.000,3101.4914,N,12126.5211,E,1,00,00017.066,M 
$GPGGA,224356.000,3101.4915,N,12126.5215,E,1,00,00017.066,M 
$GPGGA,224356.000,3101.4916,N,12126.5220,E,1,00,00017.986,M 
$GPGGA,224357.000,3101.4916,N,12126.5224,E,1,00,00017.986,M 
$GPGGA,224357.000,3101.4917,N,12126.5228,E,1,00,00017.790,M 
$GPGGA,224358.000,3101.4918,N,12126.5233,E,1,00,00017.790,M 
$GPGGA,224358.000,3101.4918,N,12126.5237,E,1,00,00019.298,M 
$GPGGA,224359.000,3101.4919,N,12126.5242,E,1,00,00019.298,M 
$GPGGA,224359.000,3101.4920,N,12126.5246,E,1,00,00019.087,M 
$GPGGA,224400.000,3101.4920,N,12126.5251,E,1,00,00018.579,M 
$GPGGA,224401.000,3101.4921,N,12126.5255,E,1,00,00018.579,M 
$GPGGA,224401.000,3101.4921,N,12126.5260,E,1,00,00018.104,M 
$GPGGA,224402.000,3101.4922,N,12126.5264,E,1,00,00018.105,M 
$GPGGA,224402.000,3101.4922,N,12126.5269,E,1,00,00017.516,M 
$GPGGA,224403.000,3101.4923,N,12126.5273,E,1,00,00017.517,M 
$GPGGA,224403.000,3101.4924,N,12126.5278,E,1,00,00019.241,M 
$GPGGA,224404.000,3101.4924,N,12126.5282,E,1,00,00019.241,M 
$GPGGA,224404.000,3101.4925,N,12126.5287,E,1,00,00020.943,M 
$GPGGA,224405.000,3101.4925,N,12126.5291,E,1,00,00020.270,M 
$GPGGA,224406.000,3101.4926,N,12126.5296,E,1,00,00020.270,M 
$GPGGA,224406.000,3101.4926,N,12126.5300,E,1,00,00020.019,M 
$GPGGA,224407.000,3101.4927,N,12126.5304,E,1,00,00020.019,M 
$GPGGA,224407.000,3101.4927,N,12126.5309,E,1,00,00020.177,M 
$GPGGA,224408.000,3101.4928,N,12126.5313,E,1,00,00020.177,M 
$GPGGA,224408.000,3101.4928,N,12126.5318,E,1,00,00021.765,M 
$GPGGA,224409.000,3101.4929,N,12126.5322,E,1,00,00019.005,M 
$GPGGA,224410.000,3101.4929,N,12126.5326,E,1,00,00019.005,M 
$GPGGA,224410.000,3101.4930,N,12126.5331,E,1,00,00017.582,M 
$GPGGA,224411.000,3101.4931,N,12126.5335,E,1,00,00017.582,M 
$GPGGA,224411.000,3101.4931,N,12126.5340,E,1,00,00017.041,M 
$GPGGA,224412.000,3101.4932,N,12126.5344,E,1,00,00017.041,M 
$GPGGA,224412.000,3101.4932,N,12126.5349,E,1,00,00016.364,M 
$GPGGA,224413.000,3101.4933,N,12126.5353,E,1,00,00016.364,M 
$GPGGA,224413.000,3101.4933,N,12126.5358,E,1,00,00016.195,M 
$GPGGA,224414.000,3101.4934,N,12126.5362,E,1,00,00015.331,M 
$GPGGA,224415.000,3101.4934,N,12126.5366,E,1,00,00015.331,M 
$GPGGA,224415.000,3101.4935,N,12126.5371,E,1,00,00015.097,M 
$GPGGA,224416.000,3101.4935,N,12126.5375,E,1,00,00015.097,M 
$GPGGA,224416.000,3101.4936,N,12126.5380,E,1,00,00014.825,M 
$GPGGA,224417.000,3101.4936,N,12126.5384,E,1,00,00014.825,M 
$GPGGA,224417.000,3101.4937,N,12126.5389,E,1,00,00017.132,M 
$GPGGA,224418.000,3101.4937,N,12126.5393,E,1,00,00017.132,M 
$GPGGA,224418.000,3101.4938,N,12126.5397,E,1,00,00014.709,M 
$GPGGA,224419.000,3101.4938,N,12126.5402,E,1,00,00015.232,M 
$GPGGA,224420.000,3101.4938,N,12126.5406,E,1,00,00015.232,M 
$GPGGA,224420.000,3101.4939,N,12126.5411,E,1,00,00015.153,M 
$GPGGA,224421.000,3101.4939,N,12126.5416,E,1,00,00015.153,M 
$GPGGA,224421.000,3101.4940,N,12126.5420,E,1,00,00013.260,M 
$GPGGA,224422.000,3101.4940,N,12126.5424,E,1,00,00013.260,M 
$GPGGA,224422.000,3101.4941,N,12126.5429,E,1,00,00014.357,M 
$GPGGA,224423.000,3101.4941,N,12126.5433,E,1,00,00013.694,M 
$GPGGA,224424.000,3101.4941,N,12126.5438,E,1,00,00013.694,M 
$GPGGA,224424.000,3101.4942,N,12126.5442,E,1,00,00015.553,M 
$GPGGA,224425.000,3101.4942,N,12126.5447,E,1,00,00015.553,M 
$GPGGA,224425.000,3101.4943,N,12126.5451,E,1,00,00015.706,M 
$GPGGA,224426.000,3101.4943,N,12126.5456,E,1,00,00015.706,M 
$GPGGA,224426.000,3101.4943,N,12126.5460,E,1,00,00015.790,M 
$GPGGA,224427.000,3101.4944,N,12126.5465,E,1,00,00015.790,M 
$GPGGA,224427.000,3101.4944,N,12126.5470,E,1,00,00015.720,M 
$GPGGA,224428.000,3101.4944,N,12126.5474,E,1,00,00015.720,M 
$GPGGA,224428.000,3101.4945,N,12126.5478,E,1,00,00016.020,M 
$GPGGA,224429.000,3101.4945,N,12126.5483,E,1,00,00014.293,M 
$GPGGA,224430.000,3101.4946,N,12126.5487,E,1,00,00014.293,M 
$GPGGA,224430.000,3101.4946,N,12126.5492,E,1,00,00015.985,M 
$GPGGA,224431.000,3101.4947,N,12126.5497,E,1,00,00015.985,M 
$GPGGA,224431.000,3101.4947,N,12126.5501,E,1,00,00015.551,M 
$GPGGA,224432.000,3101.4948,N,12126.5506,E,1,00,00015.551,M 
$GPGGA,224432.000,3101.4948,N,12126.5510,E,1,00,00016.570,M 
$GPGGA,224433.000,3101.4948,N,12126.5515,E,1,00,00016.570,M 
$GPGGA,224433.000,3101.4949,N,12126.5519,E,1,00,00016.776,M 
$GPGGA,224434.000,3101.4949,N,12126.5524,E,1,00,00015.601,M 
$GPGGA,224435.000,3101.4950,N,12126.5528,E,1,00,00015.601,M 
$GPGGA,224435.000,3101.4950,N,12126.5533,E,1,00,00014.617,M 
$GPGGA,224436.000,3101.4951,N,12126.5537,E,1,00,00014.617,M 
$GPGGA,224436.000,3101.4951,N,12126.5542,E,1,00,00013.029,M 
$GPGGA,224437.000,3101.4952,N,12126.5546,E,1,00,00013.029,M 
$GPGGA,224437.000,3101.4952,N,12126.5550,E,1,00,00013.797,M 
$GPGGA,224438.000,3101.4953,N,12126.5555,E,1,00,00013.797,M 
$GPGGA,224438.000,3101.4953,N,12126.5560,E,1,00,00014.494,M 
$GPGGA,224439.000,3101.4953,N,12126.5564,E,1,00,00015.489,M 
$GPGGA,224440.000,3101.4954,N,12126.5569,E,1,00,00015.489,M 
$GPGGA,224440.000,3101.4954,N,12126.5573,E,1,00,00015.910,M 
$GPGGA,224441.000,3101.4955,N,12126.5577,E,1,00,00015.910,M 
$GPGGA,224441.000,3101.4955,N,12126.5582,E,1,00,00015.418,M 
$GPGGA,224442.000,3101.4956,N,12126.5587,E,1,00,00015.418,M 
$GPGGA,224442.000,3101.4956,N,12126.5591,E,1,00,00014.781,M 
$GPGGA,224443.000,3101.4957,N,12126.5595,E,1,00,00014.782,M 
$GPGGA,224443.000,3101.4957,N,12126.5600,E,1,00,00015.196,M 
$GPGGA,224444.000,3101.4958,N,12126.5604,E,1,00,00015.479,M 
$GPGGA,224445.000,3101.4958,N,12126.5609,E,1,00,00015.479,M 
$GPGGA,224445.000,3101.4958,N,12126.5613,E,1,00,00014.838,M 
$GPGGA,224446.000,3101.4959,N,12126.5618,E,1,00,00014.838,M 
$GPGGA,224446.000,3101.4959,N,12126.5622,E,1,00,00015.947,M 
$GPGGA,224447.000,3101.4960,N,12126.5627,E,1,00,00015.947,M 
$GPGGA,224447.000,3101.4960,N,12126.5631,E,1,00,00014.613,M 
$GPGGA,224448.000,3101.4961,N,12126.5636,E,1,00,00014.613,M 
$GPGGA,224448.000,3101.4961,N,12126.5640,E,1,00,00013.387,M 
$GPGGA,224449.000,3101.4961,N,12126.5644,E,1,00,00013.031,M 
$GPGGA,224450.000,3101.4962,N,12126.5649,E,1,00,00013.031,M 
$GPGGA,224450.000,3101.4962,N,12126.5653,E,1,00,00012.929,M 
$GPGGA,224451.000,3101.4963,N,12126.5657,E,1,00,00012.930,M 
$GPGGA,224451.000,3101.4963,N,12126.5662,E,1,00,00013.227,M 
$GPGGA,224452.000,3101.4964,N,12126.5666,E,1,00,00013.227,M 
$GPGGA,224452.000,3101.4964,N,12126.5671,E,1,00,00014.567,M 
$GPGGA,224453.000,3101.4965,N,12126.5675,E,1,00,00014.717,M 
$GPGGA,224454.000,3101.4965,N,12126.5679,E,1,00,00014.717,M 
$GPGGA,223536.000,3101.4312,N,12126.2390,E,1,00,00015.102,M 
$GPGGA,223601.000,3101.4313,N,12126.2394,E,1,00,00021.677,M 
$GPGGA,223602.000,3101.4314,N,12126.2399,E,1,00,00021.677,M 
$GPGGA,223602.000,3101.4315,N,12126.2403,E,1,00,00018.439,M 
$GPGGA,223603.000,3101.4317,N,12126.2407,E,1,00,00018.439,M 
$GPGGA,223603.000,3101.4318,N,12126.2411,E,1,00,00021.748,M 
$GPGGA,223604.000,3101.4319,N,12126.2416,E,1,00,00021.748,M 
$GPGGA,223604.000,3101.4320,N,12126.2420,E,1,00,00018.038,M 
$GPGGA,223605.000,3101.4321,N,12126.2424,E,1,00,00020.777,M 
$GPGGA,223606.000,3101.4322,N,12126.2429,E,1,00,00020.777,M 
$GPGGA,223606.000,3101.4323,N,12126.2433,E,1,00,00019.205,M 
$GPGGA,223607.000,3101.4324,N,12126.2437,E,1,00,00019.205,M 
$GPGGA,223607.000,3101.4325,N,12126.2441,E,1,00,00015.293,M 
$GPGGA,223608.000,3101.4326,N,12126.2446,E,1,00,00015.293,M 
$GPGGA,223608.000,3101.4328,N,12126.2450,E,1,00,00014.220,M 
$GPGGA,223609.000,3101.4329,N,12126.2454,E,1,00,00013.650,M 
$GPGGA,223610.000,3101.4330,N,12126.2458,E,1,00,00013.650,M 
$GPGGA,223610.000,3101.4331,N,12126.2462,E,1,00,00013.969,M 
$GPGGA,223611.000,3101.4332,N,12126.2467,E,1,00,00013.969,M 
$GPGGA,223611.000,3101.4334,N,12126.2471,E,1,00,00012.437,M 
$GPGGA,223612.000,3101.4335,N,12126.2475,E,1,00,00012.437,M 
$GPGGA,223612.000,3101.4336,N,12126.2480,E,1,00,00012.113,M 
$GPGGA,223613.000,3101.4337,N,12126.2484,E,1,00,00012.113,M 
$GPGGA,223613.000,3101.4338,N,12126.2488,E,1,00,00013.205,M 
$GPGGA,223614.000,3101.4339,N,12126.2492,E,1,00,00012.296,M 
$GPGGA,223615.000,3101.4341,N,12126.2497,E,1,00,00012.296,M 
$GPGGA,223615.000,3101.4342,N,12126.2501,E,1,00,00012.545,M 
$GPGGA,223616.000,3101.4343,N,12126.2505,E,1,00,00012.545,M 
$GPGGA,223616.000,3101.4344,N,12126.2510,E,1,00,00012.690,M 
$GPGGA,223617.000,3101.4345,N,12126.2514,E,1,00,00012.690,M 
$GPGGA,223617.000,3101.4346,N,12126.2518,E,1,00,00013.648,M 
$GPGGA,223618.000,3101.4347,N,12126.2523,E,1,00,00013.648,M 
$GPGGA,223618.000,3101.4348,N,12126.2527,E,1,00,00014.198,M 
$GPGGA,223619.000,3101.4349,N,12126.2531,E,1,00,00015.264,M 
$GPGGA,223620.000,3101.4350,N,12126.2536,E,1,00,00015.264,M 
$GPGGA,223620.000,3101.4351,N,12126.2540,E,1,00,00015.495,M 
$GPGGA,223621.000,3101.4352,N,12126.2544,E,1,00,00015.495,M 
$GPGGA,223621.000,3101.4353,N,12126.2549,E,1,00,00016.551,M 
$GPGGA,223622.000,3101.4354,N,12126.2553,E,1,00,00016.551,M 
$GPGGA,223622.000,3101.4355,N,12126.2557,E,1,00,00016.552,M 
$GPGGA,223623.000,3101.4356,N,12126.2562,E,1,00,00015.984,M 
$GPGGA,223624.000,3101.4358,N,12126.2566,E,1,00,00015.984,M 
$GPGGA,223624.000,3101.4359,N,12126.2570,E,1,00,00015.236,M 
$GPGGA,223625.000,3101.4360,N,12126.2575,E,1,00,00015.236,M 
$GPGGA,223625.000,3101.4361,N,12126.2579,E,1,00,00014.225,M 
$GPGGA,223626.000,3101.4362,N,12126.2583,E,1,00,00014.225,M 
$GPGGA,223626.000,3101.4363,N,12126.2588,E,1,00,00015.280,M 
$GPGGA,223627.000,3101.4364,N,12126.2592,E,1,00,00015.280,M 
$GPGGA,223627.000,3101.4364,N,12126.2596,E,1,00,00015.213,M 
$GPGGA,223628.000,3101.4366,N,12126.2600,E,1,00,00016.190,M 
$GPGGA,223629.000,3101.4367,N,12126.2605,E,1,00,00016.190,M 
$GPGGA,223629.000,3101.4368,N,12126.2609,E,1,00,00016.308,M 
$GPGGA,223630.000,3101.4369,N,12126.2614,E,1,00,00016.308,M 
$GPGGA,223630.000,3101.4370,N,12126.2618,E,1,00,00015.818,M 
$GPGGA,223631.000,3101.4371,N,12126.2622,E,1,00,00015.818,M 
$GPGGA,223631.000,3101.4372,N,12126.2627,E,1,00,00015.532,M 
$GPGGA,223632.000,3101.4372,N,12126.2631,E,1,00,00015.532,M 
$GPGGA,223632.000,3101.4373,N,12126.2635,E,1,00,00015.931,M 
$GPGGA,223633.000,3101.4374,N,12126.2639,E,1,00,00014.974,M 
$GPGGA,223634.000,3101.4375,N,12126.2644,E,1,00,00014.974,M 
$GPGGA,223634.000,3101.4376,N,12126.2648,E,1,00,00016.014,M 
$GPGGA,223635.000,3101.4377,N,12126.2652,E,1,00,00016.014,M 
$GPGGA,223635.000,3101.4378,N,12126.2657,E,1,00,00014.404,M 
$GPGGA,223636.000,3101.4379,N,12126.2661,E,1,00,00014.404,M 
$GPGGA,223636.000,3101.4380,N,12126.2666,E,1,00,00014.506,M 
$GPGGA,223637.000,3101.4381,N,12126.2670,E,1,00,00015.928,M 
$GPGGA,223638.000,3101.4382,N,12126.2674,E,1,00,00015.928,M 
$GPGGA,223638.000,3101.4383,N,12126.2679,E,1,00,00015.192,M 
$GPGGA,223639.000,3101.4384,N,12126.2683,E,1,00,00015.192,M 
$GPGGA,223639.000,3101.4385,N,12126.2687,E,1,00,00014.994,M 
$GPGGA,223640.000,3101.4386,N,12126.2692,E,1,00,00014.994,M 
$GPGGA,223640.000,3101.4387,N,12126.2696,E,1,00,00014.947,M 
$GPGGA,223641.000,3101.4388,N,12126.2700,E,1,00,00014.947,M 
$GPGGA,223641.000,3101.4389,N,12126.2705,E,1,00,00013.920,M 
$GPGGA,223642.000,3101.4390,N,12126.2709,E,1,00,00013.273,M 
$GPGGA,223643.000,3101.4391,N,12126.2714,E,1,00,00013.273,M 
$GPGGA,223643.000,3101.4391,N,12126.2718,E,1,00,00013.474,M 
$GPGGA,223644.000,3101.4393,N,12126.2722,E,1,00,00013.474,M 
$GPGGA,223644.000,3101.4393,N,12126.2727,E,1,00,00013.224,M 
$GPGGA,223645.000,3101.4395,N,12126.2731,E,1,00,00013.224,M 
$GPGGA,223645.000,3101.4395,N,12126.2735,E,1,00,00014.049,M 
$GPGGA,223646.000,3101.4396,N,12126.2740,E,1,00,00014.049,M 
$GPGGA,223646.000,3101.4397,N,12126.2744,E,1,00,00014.879,M 
$GPGGA,223647.000,3101.4398,N,12126.2749,E,1,00,00013.196,M 
$GPGGA,223648.000,3101.4399,N,12126.2753,E,1,00,00013.196,M 
$GPGGA,223648.000,3101.4400,N,12126.2757,E,1,00,00012.556,M 
$GPGGA,223649.000,3101.4401,N,12126.2762,E,1,00,00012.556,M 
$GPGGA,223649.000,3101.4402,N,12126.2766,E,1,00,00013.521,M 
$GPGGA,223650.000,3101.4403,N,12126.2770,E,1,00,00013.521,M 
$GPGGA,223650.000,3101.4404,N,12126.2775,E,1,00,00013.761,M 
$GPGGA,223651.000,3101.4405,N,12126.2779,E,1,00,00013.761,M 
$GPGGA,223651.000,3101.4406,N,12126.2783,E,1,00,00014.433,M 
$GPGGA,223652.000,3101.4407,N,12126.2788,E,1,00,00014.667,M 
$GPGGA,223653.000,3101.4409,N,12126.2792,E,1,00,00014.668,M 
$GPGGA,223653.000,3101.4410,N,12126.2796,E,1,00,00014.150,M 
$GPGGA,223654.000,3101.4411,N,12126.2801,E,1,00,00014.150,M 
$GPGGA,223654.000,3101.4412,N,12126.2805,E,1,00,00015.655,M 
$GPGGA,223655.000,3101.4413,N,12126.2809,E,1,00,00015.655,M 
$GPGGA,223655.000,3101.4414,N,12126.2814,E,1,00,00014.173,M 
$GPGGA,223656.000,3101.4415,N,12126.2818,E,1,00,00014.173,M 
$GPGGA,223656.000,3101.4416,N,12126.2823,E,1,00,00014.087,M 
$GPGGA,223657.000,3101.4417,N,12126.2827,E,1,00,00012.857,M 
$GPGGA,223658.000,3101.4418,N,12126.2831,E,1,00,00012.857,M 
$GPGGA,223658.000,3101.4419,N,12126.2835,E,1,00,00012.069,M 
$GPGGA,223659.000,3101.4420,N,12126.2840,E,1,00,00012.069,M 
$GPGGA,223659.000,3101.4421,N,12126.2844,E,1,00,00012.512,M 
$GPGGA,223700.000,3101.4422,N,12126.2848,E,1,00,00012.512,M 
$GPGGA,223700.000,3101.4423,N,12126.2853,E,1,00,00014.248,M 
$GPGGA,223701.000,3101.4424,N,12126.2857,E,1,00,00013.286,M 
$GPGGA,223702.000,3101.4425,N,12126.2861,E,1,00,00013.286,M 
$GPGGA,223702.000,3101.4426,N,12126.2866,E,1,00,00011.887,M 
$GPGGA,223703.000,3101.4427,N,12126.2870,E,1,00,00011.887,M 
$GPGGA,223703.000,3101.4428,N,12126.2874,E,1,00,00011.642,M 
$GPGGA,223704.000,3101.4429,N,12126.2879,E,1,00,00011.642,M 
$GPGGA,223704.000,3101.4430,N,12126.2883,E,1,00,00011.316,M 
$GPGGA,223705.000,3101.4432,N,12126.2887,E,1,00,00011.316,M 
$GPGGA,223705.000,3101.4433,N,12126.2892,E,1,00,00010.828,M 
$GPGGA,223706.000,3101.4434,N,12126.2896,E,1,00,00010.828,M 
$GPGGA,223706.000,3101.4435,N,12126.2901,E,1,00,00014.876,M 
$GPGGA,223707.000,3101.4436,N,12126.2905,E,1,00,00014.027,M 
$GPGGA,223708.000,3101.4437,N,12126.2909,E,1,00,00014.027,M 
$GPGGA,223708.000,3101.4438,N,12126.2914,E,1,00,00013.680,M 
$GPGGA,223709.000,3101.4439,N,12126.2918,E,1,00,00013.680,M 
$GPGGA,223709.000,3101.4440,N,12126.2922,E,1,00,00013.894,M 
$GPGGA,223710.000,3101.4441,N,12126.2927,E,1,00,00013.894,M 
$GPGGA,223710.000,3101.4441,N,12126.2931,E,1,00,00012.828,M 
$GPGGA,223711.000,3101.4442,N,12126.2935,E,1,00,00013.032,M 
$GPGGA,223712.000,3101.4443,N,12126.2940,E,1,00,00013.032,M 
$GPGGA,223712.000,3101.4444,N,12126.2944,E,1,00,00013.373,M 
$GPGGA,223713.000,3101.4445,N,12126.2948,E,1,00,00013.373,M 
$GPGGA,223713.000,3101.4446,N,12126.2953,E,1,00,00012.035,M 
$GPGGA,223714.000,3101.4447,N,12126.2957,E,1,00,00012.035,M 
$GPGGA,223714.000,3101.4448,N,12126.2961,E,1,00,00011.784,M 
$GPGGA,223715.000,3101.4449,N,12126.2966,E,1,00,00011.784,M 
$GPGGA,223715.000,3101.4449,N,12126.2970,E,1,00,00011.197,M 
$GPGGA,223716.000,3101.4450,N,12126.2974,E,1,00,00011.106,M 
$GPGGA,223717.000,3101.4451,N,12126.2979,E,1,00,00011.106,M 
$GPGGA,223717.000,3101.4452,N,12126.2983,E,1,00,00012.158,M 
$GPGGA,223718.000,3101.4453,N,12126.2988,E,1,00,00012.158,M 
$GPGGA,223718.000,3101.4454,N,12126.2992,E,1,00,00011.653,M 
$GPGGA,223719.000,3101.4455,N,12126.2996,E,1,00,00011.653,M 
$GPGGA,223719.000,3101.4456,N,12126.3000,E,1,00,00010.988,M 
$GPGGA,223720.000,3101.4457,N,12126.3005,E,1,00,00010.262,M 
$GPGGA,223721.000,3101.4458,N,12126.3009,E,1,00,00010.262,M 
$GPGGA,223721.000,3101.4459,N,12126.3013,E,1,00,00009.606,M 
$GPGGA,223722.000,3101.4460,N,12126.3017,E,1,00,00009.606,M 
$GPGGA,223722.000,3101.4461,N,12126.3022,E,1,00,00010.242,M 
$GPGGA,223723.000,3101.4462,N,12126.3026,E,1,00,00010.242,M 
$GPGGA,223723.000,3101.4463,N,12126.3030,E,1,00,00010.716,M 
$GPGGA,223724.000,3101.4465,N,12126.3035,E,1,00,00009.924,M 
$GPGGA,223725.000,3101.4466,N,12126.3039,E,1,00,00009.924,M 
$GPGGA,223725.000,3101.4467,N,12126.3043,E,1,00,00013.037,M 
$GPGGA,223726.000,3101.4468,N,12126.3047,E,1,00,00013.037,M 
$GPGGA,223726.000,3101.4469,N,12126.3052,E,1,00,00011.167,M 
$GPGGA,223727.000,3101.4469,N,12126.3056,E,1,00,00011.167,M 
$GPGGA,223727.000,3101.4471,N,12126.3060,E,1,00,00012.615,M 
$GPGGA,223728.000,3101.4472,N,12126.3065,E,1,00,00012.615,M 
$GPGGA,223728.000,3101.4473,N,12126.3069,E,1,00,00012.061,M 
$GPGGA,223729.000,3101.4474,N,12126.3073,E,1,00,00012.714,M 
$GPGGA,223730.000,3101.4475,N,12126.3078,E,1,00,00012.714,M 
$GPGGA,223730.000,3101.4476,N,12126.3082,E,1,00,00011.858,M 
$GPGGA,223731.000,3101.4477,N,12126.3086,E,1,00,00011.858,M 
$GPGGA,223731.000,3101.4477,N,12126.3090,E,1,00,00010.877,M 
$GPGGA,223732.000,3101.4478,N,12126.3095,E,1,00,00010.877,M 
$GPGGA,223732.000,3101.4479,N,12126.3099,E,1,00,00010.119,M 
$GPGGA,223733.000,3101.4480,N,12126.3103,E,1,00,00009.251,M 
$GPGGA,223734.000,3101.4481,N,12126.3108,E,1,00,00009.251,M 
$GPGGA,223734.000,3101.4482,N,12126.3112,E,1,00,00008.963,M 
$GPGGA,223735.000,3101.4483,N,12126.3116,E,1,00,00008.963,M 
$GPGGA,223735.000,3101.4484,N,12126.3121,E,1,00,00010.163,M 
$GPGGA,223736.000,3101.4485,N,12126.3125,E,1,00,00010.163,M 
$GPGGA,223736.000,3101.4486,N,12126.3129,E,1,00,00008.776,M 
$GPGGA,223737.000,3101.4486,N,12126.3134,E,1,00,00009.200,M 
$GPGGA,223738.000,3101.4488,N,12126.3138,E,1,00,00009.200,M 
$GPGGA,223738.000,3101.4489,N,12126.3142,E,1,00,00009.007,M 
$GPGGA,223739.000,3101.4490,N,12126.3146,E,1,00,00009.007,M 
$GPGGA,223739.000,3101.4491,N,12126.3151,E,1,00,00008.504,M 
$GPGGA,223740.000,3101.4492,N,12126.3155,E,1,00,00008.504,M 
$GPGGA,223740.000,3101.4492,N,12126.3159,E,1,00,00010.072,M 
$GPGGA,223741.000,3101.4494,N,12126.3164,E,1,00,00009.954,M 
$GPGGA,223742.000,3101.4494,N,12126.3168,E,1,00,00009.954,M 
$GPGGA,223742.000,3101.4495,N,12126.3172,E,1,00,00010.258,M 
$GPGGA,223743.000,3101.4496,N,12126.3177,E,1,00,00010.258,M 
$GPGGA,223743.000,3101.4497,N,12126.3181,E,1,00,00010.261,M 
$GPGGA,223744.000,3101.4498,N,12126.3185,E,1,00,00010.261,M 
$GPGGA,223744.000,3101.4499,N,12126.3189,E,1,00,00010.452,M 
$GPGGA,223745.000,3101.4500,N,12126.3194,E,1,00,00010.452,M 
$GPGGA,223745.000,3101.4501,N,12126.3198,E,1,00,00010.028,M 
$GPGGA,223746.000,3101.4502,N,12126.3202,E,1,00,00008.800,M 
$GPGGA,223747.000,3101.4503,N,12126.3207,E,1,00,00008.800,M 
$GPGGA,223747.000,3101.4504,N,12126.3211,E,1,00,00007.136,M 
$GPGGA,223748.000,3101.4505,N,12126.3215,E,1,00,00007.136,M 
$GPGGA,223748.000,3101.4506,N,12126.3220,E,1,00,00007.361,M 
$GPGGA,223749.000,3101.4507,N,12126.3224,E,1,00,00007.361,M 
$GPGGA,223749.000,3101.4508,N,12126.3228,E,1,00,00005.850,M 
$GPGGA,223750.000,3101.4509,N,12126.3233,E,1,00,00005.485,M 
$GPGGA,223751.000,3101.4510,N,12126.3237,E,1,00,00005.485,M 
$GPGGA,223751.000,3101.4511,N,12126.3241,E,1,00,00006.022,M 
$GPGGA,223752.000,3101.4512,N,12126.3245,E,1,00,00006.022,M 
$GPGGA,223752.000,3101.4513,N,12126.3250,E,1,00,00006.041,M 
$GPGGA,223753.000,3101.4514,N,12126.3254,E,1,00,00006.041,M 
$GPGGA,223753.000,3101.4515,N,12126.3258,E,1,00,00007.023,M 
$GPGGA,223754.000,3101.4515,N,12126.3263,E,1,00,00009.193,M 
$GPGGA,223755.000,3101.4516,N,12126.3267,E,1,00,00009.193,M 
$GPGGA,223755.000,3101.4517,N,12126.3271,E,1,00,00010.002,M 
$GPGGA,223756.000,3101.4519,N,12126.3276,E,1,00,00010.002,M 
$GPGGA,223756.000,3101.4520,N,12126.3280,E,1,00,00008.214,M 
$GPGGA,223757.000,3101.4521,N,12126.3284,E,1,00,00008.214,M 
$GPGGA,223757.000,3101.4522,N,12126.3288,E,1,00,00010.471,M 
$GPGGA,223758.000,3101.4523,N,12126.3292,E,1,00,00010.296,M 
$GPGGA,223759.000,3101.4524,N,12126.3297,E,1,00,00010.296,M 
