$GPGGA,223536.000,3101.4312,N,12126.2390,E,1,00,00013.940,M 
$GPGGA,223601.000,3101.4306,N,12126.2396,E,1,00,00015.102,M 
$GPGGA,223602.000,3101.4304,N,12126.2401,E,1,00,00021.677,M 
$GPGGA,223602.000,3101.4303,N,12126.2403,E,1,00,00021.677,M 
$GPGGA,223603.000,3101.4302,N,12126.2412,E,1,00,00018.439,M 
$GPGGA,223603.000,3101.4301,N,12126.2416,E,1,00,00018.439,M 
$GPGGA,223604.000,3101.4302,N,12126.2418,E,1,00,00021.748,M 
$GPGGA,223604.000,3101.4303,N,12126.2419,E,1,00,00021.748,M 
$GPGGA,223605.000,3101.4305,N,12126.2428,E,1,00,00018.038,M 
$GPGGA,223606.000,3101.4305,N,12126.2440,E,1,00,00020.777,M 
$GPGGA,223606.000,3101.4304,N,12126.2446,E,1,00,00020.777,M 
$GPGGA,223607.000,3101.4308,N,12126.2450,E,1,00,00019.205,M 
$GPGGA,223607.000,3101.4309,N,12126.2453,E,1,00,00019.205,M 
$GPGGA,223608.000,3101.4312,N,12126.2459,E,1,00,00015.293,M 
$GPGGA,223608.000,3101.4313,N,12126.2462,E,1,00,00015.293,M 
$GPGGA,223609.000,3101.4313,N,12126.2467,E,1,00,00014.220,M 
$GPGGA,223610.000,3101.4314,N,12126.2471,E,1,00,00013.650,M 
$GPGGA,223610.000,3101.4314,N,12126.2474,E,1,00,00013.650,M 
$GPGGA,223611.000,3101.4312,N,12126.2478,E,1,00,00013.969,M 
$GPGGA,223611.000,3101.4312,N,12126.2480,E,1,00,00013.969,M 
$GPGGA,223612.000,3101.4314,N,12126.2488,E,1,00,00012.437,M 
$GPGGA,223612.000,3101.4314,N,12126.2492,E,1,00,00012.437,M 
$GPGGA,223613.000,3101.4317,N,12126.2497,E,1,00,00012.113,M 
$GPGGA,223613.000,3101.4318,N,12126.2500,E,1,00,00012.113,M 
$GPGGA,223614.000,3101.4316,N,12126.2505,E,1,00,00013.205,M 
$GPGGA,223615.000,3101.4321,N,12126.2509,E,1,00,00012.296,M 
$GPGGA,223615.000,3101.4323,N,12126.2512,E,1,00,00012.296,M 
$GPGGA,223616.000,3101.4325,N,12126.2518,E,1,00,00012.545,M 
$GPGGA,223616.000,3101.4325,N,12126.2522,E,1,00,00012.545,M 
$GPGGA,223617.000,3101.4326,N,12126.2528,E,1,00,00012.690,M 
$GPGGA,223617.000,3101.4326,N,12126.2531,E,1,00,00012.690,M 
$GPGGA,223618.000,3101.4328,N,12126.2534,E,1,00,00013.648,M 
$GPGGA,223618.000,3101.4329,N,12126.2536,E,1,00,00013.648,M 
$GPGGA,223619.000,3101.4333,N,12126.2543,E,1,00,00014.198,M 
$GPGGA,223620.000,3101.4336,N,12126.2548,E,1,00,00015.264,M 
$GPGGA,223620.000,3101.4337,N,12126.2552,E,1,00,00015.264,M 
$GPGGA,223621.000,3101.4337,N,12126.2554,E,1,00,00015.495,M 
$GPGGA,223621.000,3101.4337,N,12126.2556,E,1,00,00015.495,M 
$GPGGA,223622.000,3101.4338,N,12126.2562,E,1,00,00016.551,M 
$GPGGA,223622.000,3101.4339,N,12126.2565,E,1,00,00016.551,M 
$GPGGA,223623.000,3101.4338,N,12126.2572,E,1,00,00016.552,M 
$GPGGA,223624.000,3101.4333,N,12126.2578,E,1,00,00015.984,M 
$GPGGA,223624.000,3101.4332,N,12126.2582,E,1,00,00015.984,M 
$GPGGA,223625.000,3101.4331,N,12126.2588,E,1,00,00015.236,M 
$GPGGA,223625.000,3101.4331,N,12126.2591,E,1,00,00015.236,M 
$GPGGA,223626.000,3101.4332,N,12126.2599,E,1,00,00014.225,M 
$GPGGA,223626.000,3101.4332,N,12126.2603,E,1,00,00014.225,M 
$GPGGA,223627.000,3101.4333,N,12126.2606,E,1,00,00015.280,M 
$GPGGA,223627.000,3101.4333,N,12126.2608,E,1,00,00015.280,M 
$GPGGA,223628.000,3101.4333,N,12126.2611,E,1,00,00015.213,M 
$GPGGA,223629.000,3101.4335,N,12126.2615,E,1,00,00016.190,M 
$GPGGA,223629.000,3101.4336,N,12126.2618,E,1,00,00016.190,M 
$GPGGA,223630.000,3101.4340,N,12126.2625,E,1,00,00016.308,M 
$GPGGA,223630.000,3101.4341,N,12126.2629,E,1,00,00016.308,M 
$GPGGA,223631.000,3101.4342,N,12126.2630,E,1,00,00015.818,M 
$GPGGA,223631.000,3101.4342,N,12126.2632,E,1,00,00015.818,M 
$GPGGA,223632.000,3101.4346,N,12126.2638,E,1,00,00015.532,M 
$GPGGA,223632.000,3101.4348,N,12126.2641,E,1,00,00015.532,M 
$GPGGA,223633.000,3101.4349,N,12126.2645,E,1,00,00015.931,M 
$GPGGA,223634.000,3101.4350,N,12126.2649,E,1,00,00014.974,M 
$GPGGA,223634.000,3101.4351,N,12126.2652,E,1,00,00014.974,M 
$GPGGA,223635.000,3101.4352,N,12126.2659,E,1,00,00016.014,M 
$GPGGA,223635.000,3101.4352,N,12126.2663,E,1,00,00016.014,M 
$GPGGA,223636.000,3101.4352,N,12126.2669,E,1,00,00014.404,M 
$GPGGA,223636.000,3101.4352,N,12126.2673,E,1,00,00014.404,M 
$GPGGA,223637.000,3101.4352,N,12126.2679,E,1,00,00014.506,M 
$GPGGA,223638.000,3101.4355,N,12126.2685,E,1,00,00015.928,M 
$GPGGA,223638.000,3101.4356,N,12126.2689,E,1,00,00015.928,M 
$GPGGA,223639.000,3101.4358,N,12126.2690,E,1,00,00015.192,M 
$GPGGA,223639.000,3101.4358,N,12126.2692,E,1,00,00015.192,M 
$GPGGA,223640.000,3101.4360,N,12126.2698,E,1,00,00014.994,M 
$GPGGA,223640.000,3101.4361,N,12126.2702,E,1,00,00014.994,M 
$GPGGA,223641.000,3101.4362,N,12126.2707,E,1,00,00014.947,M 
$GPGGA,223641.000,3101.4363,N,12126.2710,E,1,00,00014.947,M 
$GPGGA,223642.000,3101.4362,N,12126.2720,E,1,00,00013.920,M 
$GPGGA,223643.000,3101.4365,N,12126.2728,E,1,00,00013.273,M 
$GPGGA,223643.000,3101.4366,N,12126.2732,E,1,00,00013.273,M 
$GPGGA,223644.000,3101.4369,N,12126.2733,E,1,00,00013.474,M 
$GPGGA,223644.000,3101.4369,N,12126.2735,E,1,00,00013.474,M 
$GPGGA,223645.000,3101.4370,N,12126.2741,E,1,00,00013.224,M 
$GPGGA,223645.000,3101.4371,N,12126.2744,E,1,00,00013.224,M 
$GPGGA,223646.000,3101.4371,N,12126.2749,E,1,00,00014.049,M 
$GPGGA,223646.000,3101.4371,N,12126.2751,E,1,00,00014.049,M 
$GPGGA,223647.000,3101.4372,N,12126.2756,E,1,00,00014.879,M 
$GPGGA,223648.000,3101.4376,N,12126.2759,E,1,00,00013.196,M 
$GPGGA,223648.000,3101.4377,N,12126.2761,E,1,00,00013.196,M 
$GPGGA,223649.000,3101.4378,N,12126.2768,E,1,00,00012.556,M 
$GPGGA,223649.000,3101.4378,N,12126.2772,E,1,00,00012.556,M 
$GPGGA,223650.000,3101.4379,N,12126.2777,E,1,00,00013.521,M 
$GPGGA,223650.000,3101.4379,N,12126.2780,E,1,00,00013.521,M 
$GPGGA,223651.000,3101.4380,N,12126.2782,E,1,00,00013.761,M 
$GPGGA,223651.000,3101.4380,N,12126.2784,E,1,00,00013.761,M 
$GPGGA,223652.000,3101.4384,N,12126.2788,E,1,00,00014.433,M 
$GPGGA,223653.000,3101.4386,N,12126.2794,E,1,00,00014.667,M 
$GPGGA,223653.000,3101.4387,N,12126.2798,E,1,00,00014.668,M 
$GPGGA,223654.000,3101.4388,N,12126.2805,E,1,00,00014.150,M 
$GPGGA,223654.000,3101.4388,N,12126.2809,E,1,00,00014.150,M 
$GPGGA,223655.000,3101.4388,N,12126.2815,E,1,00,00015.655,M 
$GPGGA,223655.000,3101.4388,N,12126.2818,E,1,00,00015.655,M 
$GPGGA,223656.000,3101.4387,N,12126.2823,E,1,00,00014.173,M 
$GPGGA,223656.000,3101.4387,N,12126.2826,E,1,00,00014.173,M 
$GPGGA,223657.000,3101.4390,N,12126.2829,E,1,00,00014.087,M 
$GPGGA,223658.000,3101.4386,N,12126.2839,E,1,00,00012.857,M 
$GPGGA,223658.000,3101.4385,N,12126.2844,E,1,00,00012.857,M 
$GPGGA,223659.000,3101.4384,N,12126.2851,E,1,00,00012.069,M 
$GPGGA,223659.000,3101.4384,N,12126.2855,E,1,00,00012.069,M 
$GPGGA,223700.000,3101.4386,N,12126.2859,E,1,00,00012.512,M 
$GPGGA,223700.000,3101.4387,N,12126.2861,E,1,00,00012.512,M 
$GPGGA,223701.000,3101.4389,N,12126.2867,E,1,00,00014.248,M 
$GPGGA,223702.000,3101.4389,N,12126.2874,E,1,00,00013.286,M 
$GPGGA,223702.000,3101.4389,N,12126.2878,E,1,00,00013.286,M 
$GPGGA,223703.000,3101.4389,N,12126.2882,E,1,00,00011.887,M 
$GPGGA,223703.000,3101.4389,N,12126.2885,E,1,00,00011.887,M 
$GPGGA,223704.000,3101.4389,N,12126.2891,E,1,00,00011.642,M 
$GPGGA,223704.000,3101.4388,N,12126.2895,E,1,00,00011.642,M 
$GPGGA,223705.000,3101.4387,N,12126.2903,E,1,00,00011.316,M 
$GPGGA,223705.000,3101.4386,N,12126.2907,E,1,00,00011.316,M 
$GPGGA,223706.000,3101.4390,N,12126.2907,E,1,00,00010.828,M 
$GPGGA,223706.000,3101.4391,N,12126.2908,E,1,00,00010.828,M 
$GPGGA,223707.000,3101.4400,N,12126.2907,E,1,00,00014.876,M 
$GPGGA,223708.000,3101.4404,N,12126.2912,E,1,00,00014.027,M 
$GPGGA,223708.000,3101.4406,N,12126.2915,E,1,00,00014.027,M 
$GPGGA,223709.000,3101.4407,N,12126.2920,E,1,00,00013.680,M 
$GPGGA,223709.000,3101.4407,N,12126.2923,E,1,00,00013.680,M 
$GPGGA,223710.000,3101.4411,N,12126.2928,E,1,00,00013.894,M 
$GPGGA,223710.000,3101.4412,N,12126.2931,E,1,00,00013.894,M 
$GPGGA,223711.000,3101.4414,N,12126.2932,E,1,00,00012.828,M 
$GPGGA,223712.000,3101.4415,N,12126.2941,E,1,00,00013.032,M 
$GPGGA,223712.000,3101.4416,N,12126.2946,E,1,00,00013.032,M 
$GPGGA,223713.000,3101.4411,N,12126.2956,E,1,00,00013.373,M 
$GPGGA,223713.000,3101.4410,N,12126.2961,E,1,00,00013.373,M 
$GPGGA,223714.000,3101.4405,N,12126.2968,E,1,00,00012.035,M 
$GPGGA,223714.000,3101.4403,N,12126.2972,E,1,00,00012.035,M 
$GPGGA,223715.000,3101.4403,N,12126.2977,E,1,00,00011.784,M 
$GPGGA,223715.000,3101.4403,N,12126.2980,E,1,00,00011.784,M 
$GPGGA,223716.000,3101.4402,N,12126.2986,E,1,00,00011.197,M 
$GPGGA,223717.000,3101.4402,N,12126.2992,E,1,00,00011.106,M 
$GPGGA,223717.000,3101.4401,N,12126.2996,E,1,00,00011.106,M 
$GPGGA,223718.000,3101.4401,N,12126.3000,E,1,00,00012.158,M 
$GPGGA,223718.000,3101.4400,N,12126.3002,E,1,00,00012.158,M 
$GPGGA,223719.000,3101.4401,N,12126.3005,E,1,00,00011.653,M 
$GPGGA,223719.000,3101.4401,N,12126.3007,E,1,00,00011.653,M 
$GPGGA,223720.000,3101.4403,N,12126.3010,E,1,00,00010.988,M 
$GPGGA,223721.000,3101.4406,N,12126.3014,E,1,00,00010.262,M 
$GPGGA,223721.000,3101.4407,N,12126.3017,E,1,00,00010.262,M 
$GPGGA,223722.000,3101.4408,N,12126.3021,E,1,00,00009.606,M 
$GPGGA,223722.000,3101.4409,N,12126.3024,E,1,00,00009.606,M 
$GPGGA,223723.000,3101.4409,N,12126.3033,E,1,00,00010.242,M 
$GPGGA,223723.000,3101.4410,N,12126.3037,E,1,00,00010.242,M 
$GPGGA,223724.000,3101.4411,N,12126.3040,E,1,00,00010.716,M 
$GPGGA,223725.000,3101.4414,N,12126.3042,E,1,00,00009.924,M 
$GPGGA,223725.000,3101.4415,N,12126.3044,E,1,00,00009.924,M 
$GPGGA,223726.000,3101.4415,N,12126.3049,E,1,00,00013.037,M 
$GPGGA,223726.000,3101.4415,N,12126.3052,E,1,00,00013.037,M 
$GPGGA,223727.000,3101.4414,N,12126.3058,E,1,00,00011.167,M 
$GPGGA,223727.000,3101.4413,N,12126.3062,E,1,00,00011.167,M 
$GPGGA,223728.000,3101.4415,N,12126.3067,E,1,00,00012.615,M 
$GPGGA,223728.000,3101.4416,N,12126.3069,E,1,00,00012.615,M 
$GPGGA,223729.000,3101.4416,N,12126.3077,E,1,00,00012.061,M 
$GPGGA,223730.000,3101.4419,N,12126.3083,E,1,00,00012.714,M 
$GPGGA,223730.000,3101.4420,N,12126.3086,E,1,00,00012.714,M 
$GPGGA,223731.000,3101.4422,N,12126.3094,E,1,00,00011.858,M 
$GPGGA,223731.000,3101.4422,N,12126.3098,E,1,00,00011.858,M 
$GPGGA,223732.000,3101.4419,N,12126.3103,E,1,00,00010.877,M 
$GPGGA,223732.000,3101.4417,N,12126.3107,E,1,00,00010.877,M 
$GPGGA,223733.000,3101.4419,N,12126.3115,E,1,00,00010.119,M 
$GPGGA,223734.000,3101.4422,N,12126.3121,E,1,00,00009.251,M 
$GPGGA,223734.000,3101.4424,N,12126.3124,E,1,00,00009.251,M 
$GPGGA,223735.000,3101.4422,N,12126.3132,E,1,00,00008.963,M 
$GPGGA,223735.000,3101.4422,N,12126.3135,E,1,00,00008.963,M 
$GPGGA,223736.000,3101.4423,N,12126.3139,E,1,00,00010.163,M 
$GPGGA,223736.000,3101.4423,N,12126.3141,E,1,00,00010.163,M 
$GPGGA,223737.000,3101.4426,N,12126.3145,E,1,00,00008.776,M 
$GPGGA,223738.000,3101.4429,N,12126.3152,E,1,00,00009.200,M 
$GPGGA,223738.000,3101.4429,N,12126.3155,E,1,00,00009.200,M 
$GPGGA,223739.000,3101.4432,N,12126.3156,E,1,00,00009.007,M 
$GPGGA,223739.000,3101.4432,N,12126.3158,E,1,00,00009.007,M 
$GPGGA,223740.000,3101.4437,N,12126.3160,E,1,00,00008.504,M 
$GPGGA,223740.000,3101.4438,N,12126.3162,E,1,00,00008.504,M 
$GPGGA,223741.000,3101.4439,N,12126.3168,E,1,00,00010.072,M 
$GPGGA,223742.000,3101.4439,N,12126.3174,E,1,00,00009.954,M 
$GPGGA,223742.000,3101.4439,N,12126.3178,E,1,00,00009.954,M 
$GPGGA,223743.000,3101.4440,N,12126.3181,E,1,00,00010.258,M 
$GPGGA,223743.000,3101.4440,N,12126.3183,E,1,00,00010.258,M 
$GPGGA,223744.000,3101.4440,N,12126.3190,E,1,00,00010.261,M 
$GPGGA,223744.000,3101.4439,N,12126.3195,E,1,00,00010.261,M 
$GPGGA,223745.000,3101.4437,N,12126.3201,E,1,00,00010.452,M 
$GPGGA,223745.000,3101.4437,N,12126.3205,E,1,00,00010.452,M 
$GPGGA,223746.000,3101.4435,N,12126.3214,E,1,00,00010.028,M 
$GPGGA,223747.000,3101.4436,N,12126.3220,E,1,00,00008.800,M 
$GPGGA,223747.000,3101.4436,N,12126.3223,E,1,00,00008.800,M 
$GPGGA,223748.000,3101.4439,N,12126.3230,E,1,00,00007.136,M 
$GPGGA,223748.000,3101.4440,N,12126.3233,E,1,00,00007.136,M 
$GPGGA,223749.000,3101.4441,N,12126.3241,E,1,00,00007.361,M 
$GPGGA,223749.000,3101.4442,N,12126.3244,E,1,00,00007.361,M 
$GPGGA,223750.000,3101.4443,N,12126.3250,E,1,00,00005.850,M 
$GPGGA,223751.000,3101.4445,N,12126.3255,E,1,00,00005.485,M 
$GPGGA,223751.000,3101.4445,N,12126.3259,E,1,00,00005.485,M 
$GPGGA,223752.000,3101.4446,N,12126.3262,E,1,00,00006.022,M 
$GPGGA,223752.000,3101.4447,N,12126.3264,E,1,00,00006.022,M 
$GPGGA,223753.000,3101.4447,N,12126.3267,E,1,00,00006.041,M 
$GPGGA,223753.000,3101.4448,N,12126.3269,E,1,00,00006.041,M 
$GPGGA,223754.000,3101.4449,N,12126.3276,E,1,00,00007.023,M 
$GPGGA,223755.000,3101.4448,N,12126.3280,E,1,00,00009.193,M 
$GPGGA,223755.000,3101.4447,N,12126.3283,E,1,00,00009.193,M 
$GPGGA,223756.000,3101.4447,N,12126.3287,E,1,00,00010.002,M 
$GPGGA,223756.000,3101.4447,N,12126.3289,E,1,00,00010.002,M 
$GPGGA,223757.000,3101.4447,N,12126.3295,E,1,00,00008.214,M 
$GPGGA,223757.000,3101.4447,N,12126.3299,E,1,00,00008.214,M 
$GPGGA,223758.000,3101.4449,N,12126.3305,E,1,00,00010.471,M 
$GPGGA,223759.000,3101.4448,N,12126.3314,E,1,00,00010.296,M 
$GPGGA,223759.000,3101.4448,N,12126.3318,E,1,00,00010.296,M 
$GPGGA,223800.000,3101.4447,N,12126.3324,E,1,00,00010.058,M 
$GPGGA,223800.000,3101.4446,N,12126.3327,E,1,00,00010.058,M 
$GPGGA,223801.000,3101.4446,N,12126.3334,E,1,00,00009.669,M 
$GPGGA,223801.000,3101.4446,N,12126.3337,E,1,00,00009.670,M 
$GPGGA,223802.000,3101.4445,N,12126.3344,E,1,00,00009.754,M 
$GPGGA,223803.000,3101.4448,N,12126.3348,E,1,00,00011.073,M 
$GPGGA,223803.000,3101.4451,N,12126.3350,E,1,00,00011.073,M 
$GPGGA,223839.000,3101.4467,N,12126.3348,E,1,00,00000.488,M 
$GPGGA,223840.000,3101.4469,N,12126.3346,E,1,00,00002.753,M 
$GPGGA,223840.000,3101.4470,N,12126.3347,E,1,00,00002.753,M 
$GPGGA,223841.000,3101.4467,N,12126.3355,E,1,00,00004.717,M 
$GPGGA,223841.000,3101.4466,N,12126.3359,E,1,00,00004.717,M 
$GPGGA,223842.000,3101.4467,N,12126.3366,E,1,00,00004.495,M 
$GPGGA,223842.000,3101.4467,N,12126.3370,E,1,00,00004.495,M 
$GPGGA,223843.000,3101.4465,N,12126.3377,E,1,00,00007.131,M 
$GPGGA,223843.000,3101.4465,N,12126.3380,E,1,00,00007.131,M 
$GPGGA,223844.000,3101.4465,N,12126.3386,E,1,00,00007.853,M 
$GPGGA,223845.000,3101.4471,N,12126.3388,E,1,00,00009.185,M 
$GPGGA,223845.000,3101.4473,N,12126.3390,E,1,00,00009.185,M 
$GPGGA,223846.000,3101.4474,N,12126.3397,E,1,00,00008.934,M 
$GPGGA,223846.000,3101.4475,N,12126.3400,E,1,00,00008.934,M 
$GPGGA,223847.000,3101.4477,N,12126.3403,E,1,00,00010.174,M 
$GPGGA,223847.000,3101.4477,N,12126.3405,E,1,00,00010.174,M 
$GPGGA,223848.000,3101.4477,N,12126.3410,E,1,00,00010.921,M 
$GPGGA,223848.000,3101.4477,N,12126.3413,E,1,00,00010.921,M 
$GPGGA,223849.000,3101.4475,N,12126.3417,E,1,00,00010.887,M 
$GPGGA,223850.000,3101.4475,N,12126.3425,E,1,00,00011.232,M 
$GPGGA,223850.000,3101.4475,N,12126.3428,E,1,00,00011.232,M 
$GPGGA,223851.000,3101.4473,N,12126.3431,E,1,00,00011.264,M 
$GPGGA,223851.000,3101.4472,N,12126.3433,E,1,00,00011.264,M 
$GPGGA,223852.000,3101.4474,N,12126.3439,E,1,00,00011.085,M 
$GPGGA,223852.000,3101.4475,N,12126.3443,E,1,00,00011.085,M 
$GPGGA,223853.000,3101.4475,N,12126.3449,E,1,00,00010.792,M 
$GPGGA,223853.000,3101.4475,N,12126.3453,E,1,00,00010.792,M 
$GPGGA,223854.000,3101.4477,N,12126.3461,E,1,00,00010.600,M 
$GPGGA,223855.000,3101.4479,N,12126.3468,E,1,00,00011.251,M 
$GPGGA,223855.000,3101.4480,N,12126.3472,E,1,00,00011.251,M 
$GPGGA,223856.000,3101.4481,N,12126.3480,E,1,00,00010.418,M 
$GPGGA,223856.000,3101.4481,N,12126.3484,E,1,00,00010.418,M 
$GPGGA,223857.000,3101.4481,N,12126.3490,E,1,00,00010.677,M 
$GPGGA,223857.000,3101.4481,N,12126.3494,E,1,00,00010.677,M 
$GPGGA,223858.000,3101.4480,N,12126.3499,E,1,00,00011.321,M 
$GPGGA,223858.000,3101.4479,N,12126.3502,E,1,00,00011.321,M 
$GPGGA,223859.000,3101.4481,N,12126.3506,E,1,00,00011.968,M 
$GPGGA,223900.000,3101.4482,N,12126.3512,E,1,00,00011.718,M 
$GPGGA,223900.000,3101.4482,N,12126.3515,E,1,00,00011.718,M 
$GPGGA,223901.000,3101.4483,N,12126.3521,E,1,00,00012.403,M 
$GPGGA,223901.000,3101.4483,N,12126.3523,E,1,00,00012.403,M 
$GPGGA,223902.000,3101.4485,N,12126.3529,E,1,00,00011.414,M 
$GPGGA,223902.000,3101.4486,N,12126.3533,E,1,00,00011.414,M 
$GPGGA,223903.000,3101.4489,N,12126.3539,E,1,00,00010.459,M 
$GPGGA,223903.000,3101.4490,N,12126.3542,E,1,00,00010.459,M 
$GPGGA,223904.000,3101.4492,N,12126.3548,E,1,00,00009.263,M 
$GPGGA,223905.000,3101.4494,N,12126.3555,E,1,00,00010.592,M 
$GPGGA,223905.000,3101.4495,N,12126.3559,E,1,00,00010.592,M 
$GPGGA,223906.000,3101.4493,N,12126.3563,E,1,00,00009.693,M 
$GPGGA,223906.000,3101.4493,N,12126.3566,E,1,00,00009.693,M 
$GPGGA,223907.000,3101.4488,N,12126.3572,E,1,00,00009.079,M 
$GPGGA,223907.000,3101.4487,N,12126.3576,E,1,00,00009.079,M 
$GPGGA,223908.000,3101.4487,N,12126.3582,E,1,00,00008.846,M 
$GPGGA,223908.000,3101.4486,N,12126.3585,E,1,00,00008.846,M 
$GPGGA,223909.000,3101.4488,N,12126.3591,E,1,00,00009.327,M 
$GPGGA,223910.000,3101.4492,N,12126.3596,E,1,00,00008.707,M 
$GPGGA,223910.000,3101.4494,N,12126.3599,E,1,00,00008.707,M 
$GPGGA,223911.000,3101.4497,N,12126.3602,E,1,00,00007.953,M 
$GPGGA,223911.000,3101.4498,N,12126.3605,E,1,00,00007.954,M 
$GPGGA,223912.000,3101.4501,N,12126.3610,E,1,00,00007.850,M 
$GPGGA,223912.000,3101.4502,N,12126.3613,E,1,00,00007.850,M 
$GPGGA,223913.000,3101.4502,N,12126.3618,E,1,00,00008.571,M 
$GPGGA,223914.000,3101.4503,N,12126.3626,E,1,00,00008.898,M 
$GPGGA,223914.000,3101.4503,N,12126.3630,E,1,00,00008.898,M 
$GPGGA,223915.000,3101.4503,N,12126.3632,E,1,00,00008.996,M 
$GPGGA,223915.000,3101.4503,N,12126.3634,E,1,00,00008.996,M 
$GPGGA,223916.000,3101.4504,N,12126.3640,E,1,00,00009.610,M 
$GPGGA,223916.000,3101.4504,N,12126.3643,E,1,00,00009.610,M 
$GPGGA,223917.000,3101.4505,N,12126.3648,E,1,00,00009.045,M 
$GPGGA,223917.000,3101.4505,N,12126.3650,E,1,00,00009.045,M 
$GPGGA,223918.000,3101.4508,N,12126.3655,E,1,00,00009.257,M 
$GPGGA,223919.000,3101.4511,N,12126.3658,E,1,00,00010.328,M 
$GPGGA,223919.000,3101.4512,N,12126.3661,E,1,00,00010.328,M 
$GPGGA,223920.000,3101.4513,N,12126.3667,E,1,00,00012.150,M 
$GPGGA,223920.000,3101.4513,N,12126.3670,E,1,00,00012.150,M 
$GPGGA,223921.000,3101.4517,N,12126.3677,E,1,00,00012.670,M 
$GPGGA,223921.000,3101.4518,N,12126.3681,E,1,00,00012.670,M 
$GPGGA,223922.000,3101.4522,N,12126.3687,E,1,00,00012.480,M 
$GPGGA,223922.000,3101.4524,N,12126.3690,E,1,00,00012.480,M 
$GPGGA,223923.000,3101.4524,N,12126.3695,E,1,00,00011.264,M 
$GPGGA,223924.000,3101.4528,N,12126.3701,E,1,00,00011.763,M 
$GPGGA,223924.000,3101.4530,N,12126.3705,E,1,00,00011.763,M 
$GPGGA,223925.000,3101.4531,N,12126.3708,E,1,00,00012.135,M 
$GPGGA,223925.000,3101.4531,N,12126.3711,E,1,00,00012.135,M 
$GPGGA,223926.000,3101.4533,N,12126.3715,E,1,00,00011.980,M 
$GPGGA,223926.000,3101.4534,N,12126.3718,E,1,00,00011.980,M 
$GPGGA,223927.000,3101.4534,N,12126.3722,E,1,00,00012.195,M 
$GPGGA,223927.000,3101.4533,N,12126.3725,E,1,00,00012.195,M 
$GPGGA,223928.000,3101.4534,N,12126.3729,E,1,00,00013.469,M 
$GPGGA,223929.000,3101.4535,N,12126.3737,E,1,00,00014.164,M 
$GPGGA,223929.000,3101.4535,N,12126.3741,E,1,00,00014.164,M 
$GPGGA,223930.000,3101.4536,N,12126.3750,E,1,00,00013.560,M 
$GPGGA,223930.000,3101.4536,N,12126.3754,E,1,00,00013.560,M 
$GPGGA,223931.000,3101.4536,N,12126.3760,E,1,00,00014.164,M 
$GPGGA,223931.000,3101.4536,N,12126.3763,E,1,00,00014.164,M 
$GPGGA,223932.000,3101.4536,N,12126.3767,E,1,00,00012.110,M 
$GPGGA,223932.000,3101.4536,N,12126.3769,E,1,00,00012.110,M 
$GPGGA,223933.000,3101.4535,N,12126.3772,E,1,00,00011.842,M 
$GPGGA,223934.000,3101.4536,N,12126.3781,E,1,00,00012.364,M 
$GPGGA,223934.000,3101.4536,N,12126.3785,E,1,00,00012.364,M 
$GPGGA,223935.000,3101.4536,N,12126.3789,E,1,00,00012.402,M 
$GPGGA,223935.000,3101.4536,N,12126.3792,E,1,00,00012.402,M 
$GPGGA,223936.000,3101.4538,N,12126.3799,E,1,00,00013.147,M 
$GPGGA,223936.000,3101.4538,N,12126.3802,E,1,00,00013.147,M 
$GPGGA,223937.000,3101.4544,N,12126.3805,E,1,00,00013.474,M 
$GPGGA,223938.000,3101.4547,N,12126.3810,E,1,00,00013.590,M 
$GPGGA,223938.000,3101.4549,N,12126.3813,E,1,00,00013.590,M 
$GPGGA,223939.000,3101.4549,N,12126.3820,E,1,00,00012.977,M 
$GPGGA,223939.000,3101.4548,N,12126.3824,E,1,00,00012.977,M 
$GPGGA,223940.000,3101.4551,N,12126.3829,E,1,00,00013.036,M 
$GPGGA,223940.000,3101.4552,N,12126.3832,E,1,00,00013.036,M 
$GPGGA,223941.000,3101.4556,N,12126.3837,E,1,00,00013.135,M 
$GPGGA,223941.000,3101.4557,N,12126.3839,E,1,00,00013.135,M 
$GPGGA,223942.000,3101.4559,N,12126.3840,E,1,00,00011.719,M 
$GPGGA,223943.000,3101.4554,N,12126.3844,E,1,00,00010.695,M 
$GPGGA,223943.000,3101.4552,N,12126.3847,E,1,00,00010.695,M 
$GPGGA,223944.000,3101.4554,N,12126.3854,E,1,00,00011.026,M 
$GPGGA,223944.000,3101.4554,N,12126.3858,E,1,00,00011.026,M 
$GPGGA,223945.000,3101.4554,N,12126.3863,E,1,00,00011.272,M 
$GPGGA,223945.000,3101.4553,N,12126.3866,E,1,00,00011.272,M 
$GPGGA,223946.000,3101.4550,N,12126.3873,E,1,00,00011.531,M 
$GPGGA,223947.000,3101.4551,N,12126.3880,E,1,00,00012.023,M 
$GPGGA,223947.000,3101.4551,N,12126.3883,E,1,00,00012.023,M 
$GPGGA,223948.000,3101.4552,N,12126.3889,E,1,00,00013.123,M 
$GPGGA,223948.000,3101.4553,N,12126.3892,E,1,00,00013.123,M 
$GPGGA,223949.000,3101.4557,N,12126.3897,E,1,00,00013.658,M 
$GPGGA,223949.000,3101.4558,N,12126.3900,E,1,00,00013.658,M 
$GPGGA,223950.000,3101.4563,N,12126.3904,E,1,00,00014.435,M 
$GPGGA,223950.000,3101.4565,N,12126.3907,E,1,00,00014.435,M 
$GPGGA,223951.000,3101.4569,N,12126.3910,E,1,00,00015.126,M 
$GPGGA,223952.000,3101.4575,N,12126.3914,E,1,00,00016.807,M 
$GPGGA,223952.000,3101.4578,N,12126.3916,E,1,00,00016.807,M 
$GPGGA,223953.000,3101.4583,N,12126.3921,E,1,00,00018.352,M 
$GPGGA,223953.000,3101.4585,N,12126.3924,E,1,00,00018.352,M 
$GPGGA,223954.000,3101.4586,N,12126.3928,E,1,00,00018.149,M 
$GPGGA,223954.000,3101.4587,N,12126.3930,E,1,00,00018.149,M 
$GPGGA,223955.000,3101.4585,N,12126.3935,E,1,00,00018.006,M 
$GPGGA,223956.000,3101.4582,N,12126.3942,E,1,00,00018.721,M 
$GPGGA,223956.000,3101.4580,N,12126.3945,E,1,00,00018.721,M 
$GPGGA,223957.000,3101.4576,N,12126.3956,E,1,00,00018.611,M 
$GPGGA,223957.000,3101.4574,N,12126.3961,E,1,00,00018.611,M 
$GPGGA,223958.000,3101.4573,N,12126.3966,E,1,00,00019.260,M 
$GPGGA,223958.000,3101.4572,N,12126.3969,E,1,00,00019.260,M 
$GPGGA,223959.000,3101.4570,N,12126.3973,E,1,00,00018.092,M 
$GPGGA,224000.000,3101.4570,N,12126.3978,E,1,00,00017.047,M 
$GPGGA,224000.000,3101.4570,N,12126.3981,E,1,00,00017.047,M 
$GPGGA,224001.000,3101.4571,N,12126.3989,E,1,00,00018.151,M 
$GPGGA,224001.000,3101.4572,N,12126.3994,E,1,00,00018.151,M 
$GPGGA,224002.000,3101.4570,N,12126.3999,E,1,00,00018.985,M 
$GPGGA,224002.000,3101.4570,N,12126.4002,E,1,00,00018.985,M 
$GPGGA,224003.000,3101.4569,N,12126.4007,E,1,00,00018.989,M 
$GPGGA,224004.000,3101.4568,N,12126.4014,E,1,00,00017.161,M 
$GPGGA,224004.000,3101.4568,N,12126.4017,E,1,00,00017.161,M 
$GPGGA,224005.000,3101.4569,N,12126.4022,E,1,00,00017.438,M 
$GPGGA,224005.000,3101.4569,N,12126.4025,E,1,00,00017.438,M 
$GPGGA,224006.000,3101.4568,N,12126.4031,E,1,00,00017.222,M 
$GPGGA,224006.000,3101.4568,N,12126.4034,E,1,00,00017.222,M 
$GPGGA,224007.000,3101.4566,N,12126.4040,E,1,00,00017.331,M 
$GPGGA,224008.000,3101.4568,N,12126.4048,E,1,00,00016.130,M 
$GPGGA,224008.000,3101.4569,N,12126.4052,E,1,00,00016.130,M 
$GPGGA,224009.000,3101.4569,N,12126.4055,E,1,00,00016.370,M 
$GPGGA,224009.000,3101.4568,N,12126.4057,E,1,00,00016.370,M 
$GPGGA,224010.000,3101.4568,N,12126.4065,E,1,00,00017.172,M 
$GPGGA,224010.000,3101.4567,N,12126.4069,E,1,00,00017.172,M 
$GPGGA,224011.000,3101.4569,N,12126.4072,E,1,00,00017.491,M 
$GPGGA,224012.000,3101.4570,N,12126.4079,E,1,00,00018.404,M 
$GPGGA,224012.000,3101.4570,N,12126.4082,E,1,00,00018.404,M 
$GPGGA,224013.000,3101.4574,N,12126.4089,E,1,00,00017.584,M 
$GPGGA,224013.000,3101.4575,N,12126.4092,E,1,00,00017.584,M 
$GPGGA,224014.000,3101.4573,N,12126.4100,E,1,00,00016.241,M 
$GPGGA,224014.000,3101.4572,N,12126.4104,E,1,00,00016.241,M 
$GPGGA,224015.000,3101.4569,N,12126.4109,E,1,00,00017.061,M 
$GPGGA,224015.000,3101.4568,N,12126.4111,E,1,00,00017.061,M 
$GPGGA,224016.000,3101.4570,N,12126.4118,E,1,00,00017.935,M 
$GPGGA,224017.000,3101.4573,N,12126.4128,E,1,00,00017.824,M 
$GPGGA,224017.000,3101.4574,N,12126.4133,E,1,00,00017.825,M 
$GPGGA,224018.000,3101.4576,N,12126.4137,E,1,00,00018.801,M 
$GPGGA,224018.000,3101.4577,N,12126.4140,E,1,00,00018.801,M 
$GPGGA,224019.000,3101.4578,N,12126.4147,E,1,00,00019.378,M 
$GPGGA,224019.000,3101.4578,N,12126.4151,E,1,00,00019.378,M 
$GPGGA,224020.000,3101.4577,N,12126.4154,E,1,00,00018.807,M 
$GPGGA,224021.000,3101.4575,N,12126.4164,E,1,00,00018.909,M 
$GPGGA,224021.000,3101.4574,N,12126.4169,E,1,00,00018.909,M 
$GPGGA,224022.000,3101.4571,N,12126.4176,E,1,00,00019.525,M 
$GPGGA,224022.000,3101.4570,N,12126.4180,E,1,00,00019.525,M 
$GPGGA,224023.000,3101.4567,N,12126.4188,E,1,00,00018.105,M 
$GPGGA,224023.000,3101.4565,N,12126.4192,E,1,00,00018.105,M 
$GPGGA,224024.000,3101.4565,N,12126.4198,E,1,00,00017.344,M 
$GPGGA,224024.000,3101.4565,N,12126.4201,E,1,00,00017.344,M 
$GPGGA,224025.000,3101.4563,N,12126.4207,E,1,00,00016.969,M 
$GPGGA,224026.000,3101.4562,N,12126.4213,E,1,00,00018.543,M 
$GPGGA,224026.000,3101.4561,N,12126.4216,E,1,00,00018.543,M 
$GPGGA,224027.000,3101.4566,N,12126.4220,E,1,00,00018.238,M 
$GPGGA,224027.000,3101.4567,N,12126.4223,E,1,00,00018.238,M 
$GPGGA,224028.000,3101.4567,N,12126.4229,E,1,00,00017.371,M 
$GPGGA,224028.000,3101.4567,N,12126.4233,E,1,00,00017.371,M 
$GPGGA,224029.000,3101.4570,N,12126.4237,E,1,00,00017.546,M 
$GPGGA,224029.000,3101.4571,N,12126.4240,E,1,00,00017.546,M 
$GPGGA,224030.000,3101.4571,N,12126.4245,E,1,00,00016.935,M 
$GPGGA,224031.000,3101.4572,N,12126.4249,E,1,00,00017.037,M 
$GPGGA,224031.000,3101.4572,N,12126.4252,E,1,00,00017.037,M 
$GPGGA,224032.000,3101.4571,N,12126.4256,E,1,00,00017.574,M 
$GPGGA,224032.000,3101.4571,N,12126.4258,E,1,00,00017.574,M 
$GPGGA,224033.000,3101.4573,N,12126.4262,E,1,00,00018.904,M 
$GPGGA,224033.000,3101.4574,N,12126.4265,E,1,00,00018.904,M 
$GPGGA,224034.000,3101.4575,N,12126.4267,E,1,00,00018.161,M 
$GPGGA,224035.000,3101.4579,N,12126.4270,E,1,00,00017.017,M 
$GPGGA,224035.000,3101.4580,N,12126.4272,E,1,00,00017.017,M 
$GPGGA,224036.000,3101.4581,N,12126.4277,E,1,00,00019.260,M 
$GPGGA,224036.000,3101.4581,N,12126.4281,E,1,00,00019.260,M 
$GPGGA,224037.000,3101.4582,N,12126.4286,E,1,00,00018.635,M 
$GPGGA,224037.000,3101.4583,N,12126.4289,E,1,00,00018.635,M 
$GPGGA,224038.000,3101.4585,N,12126.4298,E,1,00,00019.146,M 
$GPGGA,224038.000,3101.4585,N,12126.4302,E,1,00,00019.146,M 
$GPGGA,224039.000,3101.4584,N,12126.4306,E,1,00,00018.472,M 
$GPGGA,224040.000,3101.4581,N,12126.4310,E,1,00,00018.345,M 
$GPGGA,224040.000,3101.4580,N,12126.4313,E,1,00,00018.345,M 
$GPGGA,224041.000,3101.4581,N,12126.4321,E,1,00,00017.168,M 
$GPGGA,224041.000,3101.4582,N,12126.4326,E,1,00,00017.168,M 
$GPGGA,224042.000,3101.4581,N,12126.4332,E,1,00,00017.880,M 
$GPGGA,224042.000,3101.4581,N,12126.4335,E,1,00,00017.880,M 
$GPGGA,224043.000,3101.4581,N,12126.4337,E,1,00,00017.670,M 
$GPGGA,224044.000,3101.4581,N,12126.4345,E,1,00,00018.962,M 
$GPGGA,224044.000,3101.4581,N,12126.4350,E,1,00,00018.962,M 
$GPGGA,224045.000,3101.4582,N,12126.4355,E,1,00,00017.015,M 
$GPGGA,224045.000,3101.4582,N,12126.4358,E,1,00,00017.015,M 
$GPGGA,224046.000,3101.4581,N,12126.4366,E,1,00,00017.253,M 
$GPGGA,224046.000,3101.4580,N,12126.4370,E,1,00,00017.253,M 
$GPGGA,224047.000,3101.4579,N,12126.4380,E,1,00,00017.927,M 
$GPGGA,224048.000,3101.4580,N,12126.4388,E,1,00,00018.259,M 
$GPGGA,224048.000,3101.4580,N,12126.4392,E,1,00,00018.259,M 
$GPGGA,224049.000,3101.4577,N,12126.4400,E,1,00,00020.006,M 
$GPGGA,224049.000,3101.4575,N,12126.4405,E,1,00,00020.006,M 
$GPGGA,224050.000,3101.4577,N,12126.4408,E,1,00,00019.189,M 
$GPGGA,224050.000,3101.4577,N,12126.4410,E,1,00,00019.189,M 
$GPGGA,224051.000,3101.4580,N,12126.4413,E,1,00,00016.634,M 
$GPGGA,224052.000,3101.4581,N,12126.4420,E,1,00,00017.695,M 
$GPGGA,224052.000,3101.4582,N,12126.4424,E,1,00,00017.695,M 
$GPGGA,224053.000,3101.4583,N,12126.4433,E,1,00,00017.193,M 
$GPGGA,224143.000,3101.4594,N,12126.4433,E,1,00,00013.050,M 
$GPGGA,224143.000,3101.4598,N,12126.4433,E,1,00,00013.050,M 
$GPGGA,224144.000,3101.4592,N,12126.4430,E,1,00,00016.130,M 
$GPGGA,224145.000,3101.4594,N,12126.4432,E,1,00,00014.836,M 
$GPGGA,224145.000,3101.4594,N,12126.4434,E,1,00,00014.836,M 
$GPGGA,224146.000,3101.4597,N,12126.4438,E,1,00,00012.606,M 
$GPGGA,224146.000,3101.4598,N,12126.4441,E,1,00,00012.606,M 
$GPGGA,224147.000,3101.4600,N,12126.4446,E,1,00,00013.094,M 
$GPGGA,224147.000,3101.4600,N,12126.4450,E,1,00,00013.094,M 
$GPGGA,224148.000,3101.4603,N,12126.4460,E,1,00,00012.077,M 
$GPGGA,224148.000,3101.4603,N,12126.4465,E,1,00,00012.077,M 
$GPGGA,224149.000,3101.4604,N,12126.4476,E,1,00,00011.722,M 
$GPGGA,224149.000,3101.4604,N,12126.4481,E,1,00,00011.722,M 
$GPGGA,224150.000,3101.4603,N,12126.4485,E,1,00,00013.618,M 
$GPGGA,224150.000,3101.4603,N,12126.4487,E,1,00,00013.618,M 
$GPGGA,224151.000,3101.4605,N,12126.4489,E,1,00,00012.596,M 
$GPGGA,224152.000,3101.4605,N,12126.4492,E,1,00,00014.471,M 
$GPGGA,224152.000,3101.4604,N,12126.4495,E,1,00,00014.471,M 
$GPGGA,224153.000,3101.4602,N,12126.4502,E,1,00,00014.514,M 
$GPGGA,224153.000,3101.4600,N,12126.4506,E,1,00,00014.514,M 
$GPGGA,224154.000,3101.4605,N,12126.4512,E,1,00,00015.777,M 
$GPGGA,224154.000,3101.4606,N,12126.4515,E,1,00,00015.777,M 
$GPGGA,224155.000,3101.4605,N,12126.4521,E,1,00,00016.380,M 
$GPGGA,224155.000,3101.4604,N,12126.4524,E,1,00,00016.380,M 
$GPGGA,224156.000,3101.4602,N,12126.4529,E,1,00,00018.483,M 
$GPGGA,224157.000,3101.4603,N,12126.4536,E,1,00,00020.131,M 
$GPGGA,224157.000,3101.4603,N,12126.4539,E,1,00,00020.131,M 
$GPGGA,224158.000,3101.4601,N,12126.4548,E,1,00,00021.085,M 
$GPGGA,224158.000,3101.4600,N,12126.4553,E,1,00,00021.085,M 
$GPGGA,224159.000,3101.4602,N,12126.4558,E,1,00,00021.062,M 
$GPGGA,224159.000,3101.4603,N,12126.4561,E,1,00,00021.062,M 
$GPGGA,224200.000,3101.4603,N,12126.4573,E,1,00,00021.518,M 
$GPGGA,224200.000,3101.4603,N,12126.4579,E,1,00,00021.518,M 
$GPGGA,224201.000,3101.4601,N,12126.4585,E,1,00,00022.520,M 
$GPGGA,224201.000,3101.4601,N,12126.4588,E,1,00,00022.520,M 
$GPGGA,224202.000,3101.4605,N,12126.4592,E,1,00,00021.589,M 
$GPGGA,224202.000,3101.4607,N,12126.4595,E,1,00,00021.589,M 
$GPGGA,224203.000,3101.4612,N,12126.4595,E,1,00,00021.897,M 
$GPGGA,224204.000,3101.4617,N,12126.4595,E,1,00,00021.074,M 
$GPGGA,224204.000,3101.4618,N,12126.4596,E,1,00,00021.074,M 
$GPGGA,224205.000,3101.4620,N,12126.4603,E,1,00,00021.104,M 
$GPGGA,224205.000,3101.4621,N,12126.4607,E,1,00,00021.104,M 
$GPGGA,224206.000,3101.4618,N,12126.4614,E,1,00,00021.426,M 
$GPGGA,224206.000,3101.4616,N,12126.4618,E,1,00,00021.426,M 
$GPGGA,224207.000,3101.4619,N,12126.4621,E,1,00,00020.312,M 
$GPGGA,224207.000,3101.4620,N,12126.4623,E,1,00,00020.312,M 
$GPGGA,224208.000,3101.4621,N,12126.4632,E,1,00,00021.613,M 
$GPGGA,224209.000,3101.4623,N,12126.4635,E,1,00,00020.656,M 
$GPGGA,224209.000,3101.4623,N,12126.4638,E,1,00,00020.656,M 
$GPGGA,224210.000,3101.4627,N,12126.4640,E,1,00,00020.513,M 
$GPGGA,224210.000,3101.4628,N,12126.4642,E,1,00,00020.513,M 
$GPGGA,224211.000,3101.4630,N,12126.4646,E,1,00,00019.848,M 
$GPGGA,224211.000,3101.4631,N,12126.4648,E,1,00,00019.848,M 
$GPGGA,224212.000,3101.4632,N,12126.4656,E,1,00,00021.651,M 
$GPGGA,224212.000,3101.4632,N,12126.4661,E,1,00,00021.651,M 
$GPGGA,224213.000,3101.4634,N,12126.4665,E,1,00,00021.820,M 
$GPGGA,224214.000,3101.4634,N,12126.4672,E,1,00,00021.655,M 
$GPGGA,224214.000,3101.4633,N,12126.4676,E,1,00,00021.655,M 
$GPGGA,224215.000,3101.4634,N,12126.4681,E,1,00,00021.056,M 
$GPGGA,224215.000,3101.4633,N,12126.4685,E,1,00,00021.056,M 
$GPGGA,224216.000,3101.4635,N,12126.4688,E,1,00,00019.413,M 
$GPGGA,224216.000,3101.4635,N,12126.4690,E,1,00,00019.413,M 
$GPGGA,224217.000,3101.4638,N,12126.4697,E,1,00,00018.399,M 
$GPGGA,224217.000,3101.4638,N,12126.4700,E,1,00,00018.399,M 
$GPGGA,224218.000,3101.4639,N,12126.4702,E,1,00,00017.385,M 
$GPGGA,224219.000,3101.4636,N,12126.4711,E,1,00,00016.318,M 
$GPGGA,224219.000,3101.4635,N,12126.4715,E,1,00,00016.318,M 
$GPGGA,224220.000,3101.4636,N,12126.4720,E,1,00,00015.448,M 
$GPGGA,224220.000,3101.4636,N,12126.4723,E,1,00,00015.448,M 
$GPGGA,224221.000,3101.4637,N,12126.4728,E,1,00,00016.121,M 
$GPGGA,224221.000,3101.4637,N,12126.4731,E,1,00,00016.121,M 
$GPGGA,224222.000,3101.4638,N,12126.4738,E,1,00,00015.735,M 
$GPGGA,224222.000,3101.4638,N,12126.4742,E,1,00,00015.735,M 
$GPGGA,224223.000,3101.4641,N,12126.4748,E,1,00,00017.365,M 
$GPGGA,224224.000,3101.4644,N,12126.4751,E,1,00,00018.099,M 
$GPGGA,224224.000,3101.4645,N,12126.4753,E,1,00,00018.099,M 
$GPGGA,224225.000,3101.4645,N,12126.4755,E,1,00,00017.662,M 
$GPGGA,224225.000,3101.4645,N,12126.4758,E,1,00,00017.662,M 
$GPGGA,224226.000,3101.4648,N,12126.4764,E,1,00,00018.086,M 
$GPGGA,224226.000,3101.4649,N,12126.4767,E,1,00,00018.086,M 
$GPGGA,224227.000,3101.4652,N,12126.4775,E,1,00,00018.664,M 
$GPGGA,224227.000,3101.4653,N,12126.4779,E,1,00,00018.664,M 
$GPGGA,224228.000,3101.4653,N,12126.4780,E,1,00,00018.817,M 
$GPGGA,224229.000,3101.4653,N,12126.4784,E,1,00,00018.589,M 
$GPGGA,224229.000,3101.4653,N,12126.4787,E,1,00,00018.589,M 
$GPGGA,224230.000,3101.4657,N,12126.4793,E,1,00,00018.944,M 
$GPGGA,224230.000,3101.4658,N,12126.4796,E,1,00,00018.944,M 
$GPGGA,224231.000,3101.4657,N,12126.4804,E,1,00,00017.171,M 
$GPGGA,224231.000,3101.4657,N,12126.4808,E,1,00,00017.172,M 
$GPGGA,224232.000,3101.4659,N,12126.4817,E,1,00,00016.070,M 
$GPGGA,224232.000,3101.4659,N,12126.4822,E,1,00,00016.070,M 
$GPGGA,224233.000,3101.4663,N,12126.4824,E,1,00,00016.287,M 
$GPGGA,224234.000,3101.4663,N,12126.4828,E,1,00,00017.622,M 
$GPGGA,224234.000,3101.4663,N,12126.4831,E,1,00,00017.622,M 
$GPGGA,224235.000,3101.4663,N,12126.4834,E,1,00,00016.599,M 
$GPGGA,224235.000,3101.4663,N,12126.4836,E,1,00,00016.599,M 
$GPGGA,224236.000,3101.4663,N,12126.4843,E,1,00,00017.027,M 
$GPGGA,224236.000,3101.4663,N,12126.4846,E,1,00,00017.028,M 
$GPGGA,224237.000,3101.4667,N,12126.4855,E,1,00,00019.139,M 
$GPGGA,224237.000,3101.4668,N,12126.4860,E,1,00,00019.139,M 
$GPGGA,224238.000,3101.4668,N,12126.4865,E,1,00,00019.848,M 
$GPGGA,224239.000,3101.4668,N,12126.4869,E,1,00,00018.334,M 
$GPGGA,224239.000,3101.4667,N,12126.4872,E,1,00,00018.334,M 
$GPGGA,224240.000,3101.4666,N,12126.4879,E,1,00,00018.569,M 
$GPGGA,224240.000,3101.4666,N,12126.4883,E,1,00,00018.569,M 
$GPGGA,224241.000,3101.4667,N,12126.4887,E,1,00,00018.707,M 
$GPGGA,224241.000,3101.4668,N,12126.4890,E,1,00,00018.707,M 
$GPGGA,224242.000,3101.4672,N,12126.4895,E,1,00,00019.765,M 
$GPGGA,224242.000,3101.4673,N,12126.4898,E,1,00,00019.765,M 
$GPGGA,224243.000,3101.4675,N,12126.4902,E,1,00,00019.631,M 
$GPGGA,224244.000,3101.4680,N,12126.4904,E,1,00,00021.465,M 
$GPGGA,224244.000,3101.4682,N,12126.4906,E,1,00,00021.465,M 
$GPGGA,224245.000,3101.4685,N,12126.4912,E,1,00,00020.770,M 
$GPGGA,224245.000,3101.4686,N,12126.4915,E,1,00,00020.770,M 
$GPGGA,224246.000,3101.4686,N,12126.4919,E,1,00,00020.965,M 
$GPGGA,224246.000,3101.4686,N,12126.4921,E,1,00,00020.965,M 
$GPGGA,224247.000,3101.4688,N,12126.4926,E,1,00,00021.151,M 
$GPGGA,224248.000,3101.4688,N,12126.4929,E,1,00,00020.362,M 
$GPGGA,224248.000,3101.4688,N,12126.4931,E,1,00,00020.362,M 
$GPGGA,224249.000,3101.4689,N,12126.4937,E,1,00,00019.498,M 
$GPGGA,224249.000,3101.4689,N,12126.4941,E,1,00,00019.498,M 
$GPGGA,224250.000,3101.4690,N,12126.4947,E,1,00,00019.861,M 
$GPGGA,224250.000,3101.4690,N,12126.4951,E,1,00,00019.861,M 
$GPGGA,224251.000,3101.4690,N,12126.4959,E,1,00,00020.543,M 
$GPGGA,224251.000,3101.4690,N,12126.4963,E,1,00,00020.543,M 
$GPGGA,224252.000,3101.4689,N,12126.4969,E,1,00,00019.910,M 
$GPGGA,224253.000,3101.4688,N,12126.4975,E,1,00,00018.941,M 
$GPGGA,224253.000,3101.4687,N,12126.4979,E,1,00,00018.941,M 
$GPGGA,224254.000,3101.4690,N,12126.4981,E,1,00,00019.272,M 
$GPGGA,224254.000,3101.4691,N,12126.4983,E,1,00,00019.272,M 
$GPGGA,224255.000,3101.4692,N,12126.4991,E,1,00,00018.778,M 
$GPGGA,224255.000,3101.4692,N,12126.4995,E,1,00,00018.778,M 
$GPGGA,224256.000,3101.4695,N,12126.4997,E,1,00,00018.214,M 
$GPGGA,224256.000,3101.4696,N,12126.4999,E,1,00,00018.214,M 
$GPGGA,224257.000,3101.4698,N,12126.5004,E,1,00,00018.129,M 
$GPGGA,224324.000,3101.4728,N,12126.4987,E,1,00,00014.373,M 
$GPGGA,224324.000,3101.4737,N,12126.4982,E,1,00,00014.373,M 
$GPGGA,224325.000,3101.4739,N,12126.4987,E,1,00,00014.662,M 
$GPGGA,224325.000,3101.4740,N,12126.4990,E,1,00,00014.662,M 
$GPGGA,224326.000,3101.4741,N,12126.4998,E,1,00,00012.669,M 
$GPGGA,224326.000,3101.4741,N,12126.5003,E,1,00,00012.669,M 
$GPGGA,224327.000,3101.4733,N,12126.5014,E,1,00,00013.765,M 
$GPGGA,224328.000,3101.4728,N,12126.5022,E,1,00,00012.589,M 
$GPGGA,224328.000,3101.4725,N,12126.5026,E,1,00,00012.589,M 
$GPGGA,224329.000,3101.4726,N,12126.5032,E,1,00,00012.132,M 
$GPGGA,224329.000,3101.4725,N,12126.5035,E,1,00,00012.132,M 
$GPGGA,224330.000,3101.4725,N,12126.5040,E,1,00,00013.262,M 
$GPGGA,224330.000,3101.4725,N,12126.5044,E,1,00,00013.262,M 
$GPGGA,224331.000,3101.4723,N,12126.5054,E,1,00,00013.527,M 
$GPGGA,224331.000,3101.4721,N,12126.5059,E,1,00,00013.527,M 
$GPGGA,224332.000,3101.4722,N,12126.5066,E,1,00,00013.542,M 
$GPGGA,224332.000,3101.4721,N,12126.5069,E,1,00,00013.543,M 
$GPGGA,224333.000,3101.4721,N,12126.5077,E,1,00,00013.986,M 
$GPGGA,224334.000,3101.4725,N,12126.5085,E,1,00,00014.368,M 
$GPGGA,224334.000,3101.4726,N,12126.5089,E,1,00,00014.368,M 
$GPGGA,224335.000,3101.4728,N,12126.5090,E,1,00,00014.648,M 
$GPGGA,224335.000,3101.4729,N,12126.5092,E,1,00,00014.648,M 
$GPGGA,224336.000,3101.4731,N,12126.5095,E,1,00,00016.495,M 
$GPGGA,224336.000,3101.4732,N,12126.5097,E,1,00,00016.495,M 
$GPGGA,224337.000,3101.4732,N,12126.5102,E,1,00,00016.604,M 
$GPGGA,224337.000,3101.4732,N,12126.5105,E,1,00,00016.604,M 
$GPGGA,224338.000,3101.4739,N,12126.5108,E,1,00,00017.220,M 
$GPGGA,224338.000,3101.4741,N,12126.5111,E,1,00,00017.220,M 
$GPGGA,224339.000,3101.4743,N,12126.5113,E,1,00,00017.847,M 
$GPGGA,224340.000,3101.4744,N,12126.5119,E,1,00,00017.916,M 
$GPGGA,224340.000,3101.4745,N,12126.5122,E,1,00,00017.916,M 
$GPGGA,224341.000,3101.4743,N,12126.5129,E,1,00,00018.673,M 
$GPGGA,224341.000,3101.4742,N,12126.5133,E,1,00,00018.673,M 
$GPGGA,224342.000,3101.4743,N,12126.5136,E,1,00,00018.805,M 
$GPGGA,224342.000,3101.4743,N,12126.5138,E,1,00,00018.805,M 
$GPGGA,224343.000,3101.4745,N,12126.5143,E,1,00,00016.376,M 
$GPGGA,224343.000,3101.4745,N,12126.5146,E,1,00,00016.376,M 
$GPGGA,224344.000,3101.4747,N,12126.5149,E,1,00,00017.180,M 
$GPGGA,224345.000,3101.4752,N,12126.5154,E,1,00,00018.552,M 
$GPGGA,224345.000,3101.4753,N,12126.5157,E,1,00,00018.553,M 
$GPGGA,224346.000,3101.4752,N,12126.5164,E,1,00,00018.264,M 
$GPGGA,224346.000,3101.4751,N,12126.5168,E,1,00,00018.264,M 
$GPGGA,224347.000,3101.4749,N,12126.5175,E,1,00,00017.001,M 
$GPGGA,224347.000,3101.4748,N,12126.5179,E,1,00,00017.001,M 
$GPGGA,224348.000,3101.4749,N,12126.5185,E,1,00,00016.622,M 
$GPGGA,224348.000,3101.4749,N,12126.5187,E,1,00,00016.622,M 
$GPGGA,224349.000,3101.4751,N,12126.5193,E,1,00,00015.787,M 
$GPGGA,224349.000,3101.4752,N,12126.5196,E,1,00,00015.787,M 
$GPGGA,224350.000,3101.4751,N,12126.5203,E,1,00,00015.549,M 
$GPGGA,224351.000,3101.4748,N,12126.5208,E,1,00,00014.801,M 
$GPGGA,224351.000,3101.4747,N,12126.5211,E,1,00,00014.801,M 
$GPGGA,224352.000,3101.4751,N,12126.5218,E,1,00,00014.743,M 
$GPGGA,224352.000,3101.4752,N,12126.5222,E,1,00,00014.743,M 
$GPGGA,224353.000,3101.4750,N,12126.5228,E,1,00,00015.625,M 
$GPGGA,224353.000,3101.4749,N,12126.5231,E,1,00,00015.625,M 
$GPGGA,224354.000,3101.4753,N,12126.5236,E,1,00,00016.462,M 
$GPGGA,224354.000,3101.4755,N,12126.5239,E,1,00,00016.462,M 
$GPGGA,224355.000,3101.4754,N,12126.5247,E,1,00,00017.466,M 
$GPGGA,224356.000,3101.4754,N,12126.5251,E,1,00,00017.066,M 
$GPGGA,224356.000,3101.4754,N,12126.5253,E,1,00,00017.066,M 
$GPGGA,224357.000,3101.4756,N,12126.5261,E,1,00,00017.986,M 
$GPGGA,224357.000,3101.4756,N,12126.5265,E,1,00,00017.986,M 
$GPGGA,224358.000,3101.4754,N,12126.5273,E,1,00,00017.790,M 
$GPGGA,224358.000,3101.4754,N,12126.5277,E,1,00,00017.790,M 
$GPGGA,224359.000,3101.4753,N,12126.5282,E,1,00,00019.298,M 
$GPGGA,224359.000,3101.4753,N,12126.5284,E,1,00,00019.298,M 
$GPGGA,224400.000,3101.4753,N,12126.5290,E,1,00,00019.088,M 
$GPGGA,224401.000,3101.4754,N,12126.5296,E,1,00,00018.579,M 
$GPGGA,224401.000,3101.4754,N,12126.5299,E,1,00,00018.579,M 
$GPGGA,224402.000,3101.4753,N,12126.5304,E,1,00,00018.104,M 
$GPGGA,224402.000,3101.4753,N,12126.5308,E,1,00,00018.105,M 
$GPGGA,224403.000,3101.4752,N,12126.5316,E,1,00,00017.517,M 
$GPGGA,224403.000,3101.4752,N,12126.5320,E,1,00,00017.517,M 
$GPGGA,224404.000,3101.4752,N,12126.5327,E,1,00,00019.241,M 
$GPGGA,224404.000,3101.4752,N,12126.5330,E,1,00,00019.241,M 
$GPGGA,224405.000,3101.4752,N,12126.5335,E,1,00,00020.943,M 
$GPGGA,224406.000,3101.4750,N,12126.5342,E,1,00,00020.270,M 
$GPGGA,224406.000,3101.4749,N,12126.5346,E,1,00,00020.270,M 
$GPGGA,224407.000,3101.4748,N,12126.5351,E,1,00,00020.019,M 
$GPGGA,224407.000,3101.4748,N,12126.5354,E,1,00,00020.019,M 
$GPGGA,224408.000,3101.4748,N,12126.5363,E,1,00,00020.177,M 
$GPGGA,224408.000,3101.4748,N,12126.5367,E,1,00,00020.177,M 
$GPGGA,224409.000,3101.4748,N,12126.5371,E,1,00,00021.765,M 
$GPGGA,224410.000,3101.4748,N,12126.5375,E,1,00,00019.006,M 
$GPGGA,224410.000,3101.4748,N,12126.5378,E,1,00,00019.006,M 
$GPGGA,224411.000,3101.4748,N,12126.5383,E,1,00,00017.582,M 
$GPGGA,224411.000,3101.4747,N,12126.5387,E,1,00,00017.582,M 
$GPGGA,224412.000,3101.4746,N,12126.5392,E,1,00,00017.041,M 
$GPGGA,224412.000,3101.4745,N,12126.5396,E,1,00,00017.041,M 
$GPGGA,224413.000,3101.4745,N,12126.5402,E,1,00,00016.364,M 
$GPGGA,224413.000,3101.4744,N,12126.5406,E,1,00,00016.364,M 
$GPGGA,224414.000,3101.4747,N,12126.5413,E,1,00,00016.195,M 
$GPGGA,224415.000,3101.4745,N,12126.5418,E,1,00,00015.331,M 
$GPGGA,224415.000,3101.4744,N,12126.5421,E,1,00,00015.331,M 
$GPGGA,224416.000,3101.4744,N,12126.5425,E,1,00,00015.097,M 
$GPGGA,224416.000,3101.4744,N,12126.5428,E,1,00,00015.097,M 
$GPGGA,224417.000,3101.4744,N,12126.5435,E,1,00,00014.825,M 
$GPGGA,224417.000,3101.4744,N,12126.5439,E,1,00,00014.825,M 
$GPGGA,224418.000,3101.4745,N,12126.5445,E,1,00,00017.132,M 
$GPGGA,224418.000,3101.4746,N,12126.5448,E,1,00,00017.132,M 
$GPGGA,224419.000,3101.4746,N,12126.5455,E,1,00,00014.709,M 
$GPGGA,224420.000,3101.4749,N,12126.5462,E,1,00,00015.232,M 
$GPGGA,224420.000,3101.4750,N,12126.5465,E,1,00,00015.232,M 
$GPGGA,224421.000,3101.4750,N,12126.5471,E,1,00,00015.153,M 
$GPGGA,224421.000,3101.4750,N,12126.5475,E,1,00,00015.154,M 
$GPGGA,224422.000,3101.4751,N,12126.5481,E,1,00,00013.260,M 
$GPGGA,224422.000,3101.4751,N,12126.5485,E,1,00,00013.260,M 
$GPGGA,224423.000,3101.4752,N,12126.5485,E,1,00,00014.357,M 
$GPGGA,224424.000,3101.4754,N,12126.5489,E,1,00,00013.694,M 
$GPGGA,224424.000,3101.4755,N,12126.5491,E,1,00,00013.694,M 
$GPGGA,224425.000,3101.4755,N,12126.5497,E,1,00,00015.553,M 
$GPGGA,224425.000,3101.4755,N,12126.5501,E,1,00,00015.553,M 
$GPGGA,224426.000,3101.4755,N,12126.5507,E,1,00,00015.707,M 
$GPGGA,224426.000,3101.4755,N,12126.5511,E,1,00,00015.707,M 
$GPGGA,224427.000,3101.4759,N,12126.5511,E,1,00,00015.790,M 
$GPGGA,224427.000,3101.4760,N,12126.5512,E,1,00,00015.790,M 
$GPGGA,224428.000,3101.4760,N,12126.5515,E,1,00,00015.720,M 
$GPGGA,224428.000,3101.4760,N,12126.5517,E,1,00,00015.720,M 
$GPGGA,224429.000,3101.4764,N,12126.5523,E,1,00,00016.020,M 
$GPGGA,224430.000,3101.4767,N,12126.5526,E,1,00,00014.293,M 
$GPGGA,224430.000,3101.4767,N,12126.5529,E,1,00,00014.293,M 
$GPGGA,224431.000,3101.4770,N,12126.5537,E,1,00,00015.985,M 
$GPGGA,224431.000,3101.4771,N,12126.5542,E,1,00,00015.986,M 
$GPGGA,224432.000,3101.4775,N,12126.5542,E,1,00,00015.551,M 
$GPGGA,224432.000,3101.4776,N,12126.5543,E,1,00,00015.551,M 
$GPGGA,224433.000,3101.4778,N,12126.5547,E,1,00,00016.570,M 
$GPGGA,224433.000,3101.4778,N,12126.5550,E,1,00,00016.570,M 
$GPGGA,224434.000,3101.4778,N,12126.5556,E,1,00,00016.776,M 
$GPGGA,224435.000,3101.4775,N,12126.5563,E,1,00,00015.601,M 
$GPGGA,224435.000,3101.4774,N,12126.5567,E,1,00,00015.601,M 
$GPGGA,224436.000,3101.4776,N,12126.5570,E,1,00,00014.617,M 
$GPGGA,224436.000,3101.4777,N,12126.5572,E,1,00,00014.617,M 
$GPGGA,224437.000,3101.4779,N,12126.5578,E,1,00,00013.029,M 
$GPGGA,224437.000,3101.4779,N,12126.5581,E,1,00,00013.029,M 
$GPGGA,224438.000,3101.4780,N,12126.5586,E,1,00,00013.797,M 
$GPGGA,224438.000,3101.4779,N,12126.5588,E,1,00,00013.797,M 
$GPGGA,224439.000,3101.4777,N,12126.5597,E,1,00,00014.494,M 
$GPGGA,224440.000,3101.4776,N,12126.5606,E,1,00,00015.489,M 
$GPGGA,224440.000,3101.4776,N,12126.5611,E,1,00,00015.489,M 
$GPGGA,224441.000,3101.4779,N,12126.5611,E,1,00,00015.910,M 
$GPGGA,224441.000,3101.4780,N,12126.5612,E,1,00,00015.910,M 
$GPGGA,224442.000,3101.4784,N,12126.5613,E,1,00,00015.418,M 
$GPGGA,224442.000,3101.4786,N,12126.5615,E,1,00,00015.418,M 
$GPGGA,224443.000,3101.4790,N,12126.5618,E,1,00,00014.781,M 
$GPGGA,224443.000,3101.4791,N,12126.5620,E,1,00,00014.781,M 
$GPGGA,224444.000,3101.4790,N,12126.5622,E,1,00,00015.196,M 
$GPGGA,224445.000,3101.4793,N,12126.5629,E,1,00,00015.479,M 
$GPGGA,224445.000,3101.4794,N,12126.5632,E,1,00,00015.479,M 
$GPGGA,224446.000,3101.4793,N,12126.5639,E,1,00,00014.838,M 
$GPGGA,224446.000,3101.4793,N,12126.5643,E,1,00,00014.838,M 
$GPGGA,224447.000,3101.4792,N,12126.5649,E,1,00,00015.947,M 
$GPGGA,224447.000,3101.4791,N,12126.5653,E,1,00,00015.947,M 
$GPGGA,224448.000,3101.4790,N,12126.5658,E,1,00,00014.613,M 
$GPGGA,224448.000,3101.4790,N,12126.5660,E,1,00,00014.613,M 
$GPGGA,224449.000,3101.4791,N,12126.5666,E,1,00,00013.387,M 
$GPGGA,224450.000,3101.4788,N,12126.5670,E,1,00,00013.030,M 
$GPGGA,224450.000,3101.4787,N,12126.5673,E,1,00,00013.031,M 
$GPGGA,224451.000,3101.4785,N,12126.5684,E,1,00,00012.929,M 
$GPGGA,224451.000,3101.4784,N,12126.5689,E,1,00,00012.929,M 
$GPGGA,224452.000,3101.4786,N,12126.5699,E,1,00,00013.227,M 
$GPGGA,224452.000,3101.4786,N,12126.5704,E,1,00,00013.227,M 
$GPGGA,224453.000,3101.4789,N,12126.5709,E,1,00,00014.567,M 
$GPGGA,224454.000,3101.4792,N,12126.5714,E,1,00,00014.717,M 
$GPGGA,224454.000,3101.4793,N,12126.5717,E,1,00,00014.717,M 
