$GPGGA,191632.000,3101.6806,N,12126.3737,E,1,00,00019.581,M 
$GPGGA,191632.000,3101.6810,N,12126.3738,E,1,00,00019.581,M 
$GPGGA,191632.000,3101.6813,N,12126.3737,E,1,00,00019.581,M 
$GPGGA,191633.000,3101.6813,N,12126.3737,E,1,00,00019.581,M 
$GPGGA,191633.000,3101.6814,N,12126.3737,E,1,00,00019.581,M 
$GPGGA,191634.000,3101.6808,N,12126.3728,E,1,00,00014.261,M 
$GPGGA,191634.000,3101.6806,N,12126.3725,E,1,00,00014.261,M 
$GPGGA,191635.000,3101.6809,N,12126.3719,E,1,00,00014.246,M 
$GPGGA,191636.000,3101.6814,N,12126.3716,E,1,00,00011.349,M 
$GPGGA,191636.000,3101.6816,N,12126.3715,E,1,00,00011.349,M 
$GPGGA,191637.000,3101.6821,N,12126.3718,E,1,00,00010.016,M 
$GPGGA,191637.000,3101.6823,N,12126.3719,E,1,00,00010.016,M 
$GPGGA,191638.000,3101.6827,N,12126.3718,E,1,00,00008.047,M 
$GPGGA,191638.000,3101.6830,N,12126.3717,E,1,00,00008.047,M 
$GPGGA,191639.000,3101.6832,N,12126.3716,E,1,00,00008.163,M 
$GPGGA,191640.000,3101.6837,N,12126.3713,E,1,00,00009.461,M 
$GPGGA,191640.000,3101.6839,N,12126.3711,E,1,00,00009.461,M 
$GPGGA,191641.000,3101.6843,N,12126.3712,E,1,00,00007.221,M 
$GPGGA,191641.000,3101.6845,N,12126.3713,E,1,00,00007.221,M 
$GPGGA,191642.000,3101.6848,N,12126.3712,E,1,00,00007.110,M 
$GPGGA,191643.000,3101.6851,N,12126.3710,E,1,00,00005.584,M 
$GPGGA,191643.000,3101.6853,N,12126.3709,E,1,00,00005.584,M 
$GPGGA,191644.000,3101.6856,N,12126.3708,E,1,00,00004.147,M 
$GPGGA,191644.000,3101.6859,N,12126.3707,E,1,00,00004.147,M 
$GPGGA,191645.000,3101.6861,N,12126.3706,E,1,00,00005.543,M 
$GPGGA,191646.000,3101.6868,N,12126.3706,E,1,00,00006.520,M 
$GPGGA,191646.000,3101.6871,N,12126.3706,E,1,00,00006.520,M 
$GPGGA,191647.000,3101.6876,N,12126.3703,E,1,00,00009.143,M 
$GPGGA,191647.000,3101.6879,N,12126.3702,E,1,00,00009.143,M 
$GPGGA,191648.000,3101.6885,N,12126.3701,E,1,00,00008.288,M 
$GPGGA,191648.000,3101.6888,N,12126.3701,E,1,00,00008.288,M 
$GPGGA,191649.000,3101.6889,N,12126.3701,E,1,00,00008.551,M 
$GPGGA,191650.000,3101.6895,N,12126.3703,E,1,00,00010.631,M 
$GPGGA,191650.000,3101.6899,N,12126.3704,E,1,00,00010.631,M 
$GPGGA,191651.000,3101.6903,N,12126.3703,E,1,00,00012.184,M 
$GPGGA,191651.000,3101.6906,N,12126.3703,E,1,00,00012.184,M 
$GPGGA,191652.000,3101.6913,N,12126.3698,E,1,00,00012.901,M 
$GPGGA,191653.000,3101.6917,N,12126.3693,E,1,00,00012.965,M 
$GPGGA,191653.000,3101.6920,N,12126.3691,E,1,00,00012.965,M 
$GPGGA,191654.000,3101.6925,N,12126.3691,E,1,00,00013.065,M 
$GPGGA,191654.000,3101.6928,N,12126.3691,E,1,00,00013.065,M 
$GPGGA,191655.000,3101.6932,N,12126.3690,E,1,00,00014.830,M 
$GPGGA,191655.000,3101.6934,N,12126.3689,E,1,00,00014.830,M 
$GPGGA,191656.000,3101.6940,N,12126.3689,E,1,00,00015.071,M 
$GPGGA,191657.000,3101.6943,N,12126.3689,E,1,00,00014.549,M 
$GPGGA,191657.000,3101.6945,N,12126.3689,E,1,00,00014.549,M 
$GPGGA,191658.000,3101.6949,N,12126.3689,E,1,00,00015.224,M 
$GPGGA,191658.000,3101.6952,N,12126.3689,E,1,00,00015.224,M 
$GPGGA,191659.000,3101.6957,N,12126.3687,E,1,00,00016.574,M 
$GPGGA,191700.000,3101.6963,N,12126.3685,E,1,00,00015.922,M 
$GPGGA,191700.000,3101.6966,N,12126.3685,E,1,00,00015.922,M 
$GPGGA,191701.000,3101.6967,N,12126.3681,E,1,00,00018.135,M 
$GPGGA,191701.000,3101.6969,N,12126.3680,E,1,00,00018.135,M 
$GPGGA,191702.000,3101.6975,N,12126.3679,E,1,00,00017.439,M 
$GPGGA,191702.000,3101.6978,N,12126.3679,E,1,00,00017.439,M 
$GPGGA,191703.000,3101.6981,N,12126.3678,E,1,00,00018.076,M 
$GPGGA,191704.000,3101.6987,N,12126.3677,E,1,00,00019.614,M 
$GPGGA,191704.000,3101.6990,N,12126.3676,E,1,00,00019.614,M 
$GPGGA,191705.000,3101.6995,N,12126.3677,E,1,00,00019.038,M 
$GPGGA,191706.000,3101.7001,N,12126.3672,E,1,00,00020.118,M 
$GPGGA,191706.000,3101.7004,N,12126.3671,E,1,00,00020.118,M 
$GPGGA,191707.000,3101.7010,N,12126.3671,E,1,00,00019.133,M 
$GPGGA,191707.000,3101.7013,N,12126.3672,E,1,00,00019.133,M 
$GPGGA,191708.000,3101.7016,N,12126.3672,E,1,00,00018.609,M 
$GPGGA,191708.000,3101.7018,N,12126.3672,E,1,00,00018.609,M 
$GPGGA,191709.000,3101.7020,N,12126.3671,E,1,00,00019.205,M 
$GPGGA,191710.000,3101.7026,N,12126.3669,E,1,00,00018.494,M 
$GPGGA,191710.000,3101.7029,N,12126.3668,E,1,00,00018.494,M 
$GPGGA,191711.000,3101.7032,N,12126.3666,E,1,00,00019.503,M 
$GPGGA,191711.000,3101.7035,N,12126.3665,E,1,00,00019.503,M 
$GPGGA,191712.000,3101.7038,N,12126.3664,E,1,00,00016.807,M 
$GPGGA,191712.000,3101.7040,N,12126.3664,E,1,00,00016.807,M 
$GPGGA,191713.000,3101.7046,N,12126.3660,E,1,00,00016.145,M 
$GPGGA,191714.000,3101.7053,N,12126.3659,E,1,00,00015.409,M 
$GPGGA,191714.000,3101.7056,N,12126.3659,E,1,00,00015.409,M 
$GPGGA,191715.000,3101.7059,N,12126.3657,E,1,00,00015.480,M 
$GPGGA,191715.000,3101.7061,N,12126.3656,E,1,00,00015.480,M 
$GPGGA,191716.000,3101.7067,N,12126.3653,E,1,00,00015.865,M 
$GPGGA,191717.000,3101.7073,N,12126.3648,E,1,00,00015.107,M 
$GPGGA,191717.000,3101.7077,N,12126.3647,E,1,00,00015.107,M 
$GPGGA,191718.000,3101.7082,N,12126.3648,E,1,00,00016.079,M 
$GPGGA,191718.000,3101.7086,N,12126.3649,E,1,00,00016.080,M 
$GPGGA,191719.000,3101.7090,N,12126.3646,E,1,00,00018.709,M 
$GPGGA,191719.000,3101.7092,N,12126.3645,E,1,00,00018.709,M 
$GPGGA,191720.000,3101.7097,N,12126.3644,E,1,00,00018.804,M 
$GPGGA,191721.000,3101.7100,N,12126.3639,E,1,00,00016.673,M 
$GPGGA,191721.000,3101.7102,N,12126.3637,E,1,00,00016.673,M 
$GPGGA,191722.000,3101.7106,N,12126.3638,E,1,00,00016.486,M 
$GPGGA,191722.000,3101.7109,N,12126.3639,E,1,00,00016.486,M 
$GPGGA,191723.000,3101.7111,N,12126.3639,E,1,00,00015.841,M 
$GPGGA,191723.000,3101.7113,N,12126.3639,E,1,00,00015.841,M 
$GPGGA,191724.000,3101.7117,N,12126.3635,E,1,00,00016.214,M 
$GPGGA,191724.000,3101.7120,N,12126.3634,E,1,00,00016.214,M 
$GPGGA,191725.000,3101.7126,N,12126.3632,E,1,00,00018.115,M 
$GPGGA,191726.000,3101.7134,N,12126.3630,E,1,00,00018.785,M 
$GPGGA,191726.000,3101.7138,N,12126.3629,E,1,00,00018.785,M 
$GPGGA,191727.000,3101.7140,N,12126.3626,E,1,00,00018.598,M 
$GPGGA,191727.000,3101.7142,N,12126.3625,E,1,00,00018.598,M 
$GPGGA,191728.000,3101.7145,N,12126.3624,E,1,00,00017.203,M 
$GPGGA,191728.000,3101.7148,N,12126.3624,E,1,00,00017.203,M 
$GPGGA,191729.000,3101.7151,N,12126.3624,E,1,00,00018.775,M 
$GPGGA,191730.000,3101.7158,N,12126.3624,E,1,00,00017.392,M 
$GPGGA,191730.000,3101.7161,N,12126.3624,E,1,00,00017.392,M 
$GPGGA,191731.000,3101.7165,N,12126.3625,E,1,00,00017.008,M 
$GPGGA,191731.000,3101.7168,N,12126.3625,E,1,00,00017.008,M 
$GPGGA,191732.000,3101.7171,N,12126.3624,E,1,00,00017.028,M 
$GPGGA,191732.000,3101.7173,N,12126.3623,E,1,00,00017.028,M 
$GPGGA,191733.000,3101.7177,N,12126.3623,E,1,00,00016.284,M 
$GPGGA,191734.000,3101.7180,N,12126.3622,E,1,00,00016.811,M 
$GPGGA,191734.000,3101.7183,N,12126.3621,E,1,00,00016.811,M 
$GPGGA,191735.000,3101.7190,N,12126.3615,E,1,00,00016.266,M 
$GPGGA,191735.000,3101.7193,N,12126.3612,E,1,00,00016.266,M 
$GPGGA,191736.000,3101.7198,N,12126.3612,E,1,00,00016.734,M 
$GPGGA,191736.000,3101.7201,N,12126.3611,E,1,00,00016.734,M 
$GPGGA,191737.000,3101.7207,N,12126.3609,E,1,00,00016.502,M 
$GPGGA,191738.000,3101.7211,N,12126.3602,E,1,00,00015.039,M 
$GPGGA,191738.000,3101.7213,N,12126.3600,E,1,00,00015.039,M 
$GPGGA,191739.000,3101.7218,N,12126.3596,E,1,00,00014.839,M 
$GPGGA,191739.000,3101.7221,N,12126.3594,E,1,00,00014.839,M 
$GPGGA,191740.000,3101.7227,N,12126.3596,E,1,00,00015.176,M 
$GPGGA,191740.000,3101.7230,N,12126.3596,E,1,00,00015.176,M 
$GPGGA,191741.000,3101.7235,N,12126.3597,E,1,00,00015.761,M 
$GPGGA,191742.000,3101.7239,N,12126.3599,E,1,00,00016.090,M 
$GPGGA,191743.000,3101.7245,N,12126.3597,E,1,00,00015.600,M 
$GPGGA,191745.000,3101.7243,N,12126.3594,E,1,00,00015.578,M 
$GPGGA,191745.000,3101.7242,N,12126.3592,E,1,00,00015.578,M 
$GPGGA,191746.000,3101.7240,N,12126.3586,E,1,00,00017.708,M 
$GPGGA,191746.000,3101.7240,N,12126.3582,E,1,00,00017.708,M 
$GPGGA,191747.000,3101.7235,N,12126.3576,E,1,00,00017.443,M 
$GPGGA,191748.000,3101.7234,N,12126.3571,E,1,00,00018.199,M 
$GPGGA,191748.000,3101.7234,N,12126.3568,E,1,00,00018.199,M 
$GPGGA,191749.000,3101.7234,N,12126.3563,E,1,00,00017.870,M 
$GPGGA,191749.000,3101.7234,N,12126.3560,E,1,00,00017.870,M 
$GPGGA,191750.000,3101.7236,N,12126.3554,E,1,00,00017.773,M 
$GPGGA,191750.000,3101.7236,N,12126.3550,E,1,00,00017.773,M 
$GPGGA,191751.000,3101.7237,N,12126.3546,E,1,00,00017.290,M 
$GPGGA,191752.000,3101.7235,N,12126.3543,E,1,00,00017.525,M 
$GPGGA,191752.000,3101.7234,N,12126.3541,E,1,00,00017.525,M 
$GPGGA,191753.000,3101.7235,N,12126.3537,E,1,00,00017.868,M 
$GPGGA,191753.000,3101.7235,N,12126.3534,E,1,00,00017.868,M 
$GPGGA,191754.000,3101.7234,N,12126.3530,E,1,00,00017.876,M 
$GPGGA,191755.000,3101.7233,N,12126.3522,E,1,00,00018.710,M 
$GPGGA,191755.000,3101.7232,N,12126.3518,E,1,00,00018.710,M 
$GPGGA,191756.000,3101.7232,N,12126.3514,E,1,00,00018.131,M 
$GPGGA,191756.000,3101.7232,N,12126.3511,E,1,00,00018.131,M 
$GPGGA,191757.000,3101.7228,N,12126.3503,E,1,00,00018.114,M 
$GPGGA,191757.000,3101.7227,N,12126.3499,E,1,00,00018.114,M 
$GPGGA,191758.000,3101.7225,N,12126.3491,E,1,00,00016.582,M 
$GPGGA,191759.000,3101.7226,N,12126.3485,E,1,00,00015.609,M 
$GPGGA,191759.000,3101.7227,N,12126.3482,E,1,00,00015.609,M 
$GPGGA,191800.000,3101.7227,N,12126.3478,E,1,00,00015.742,M 
$GPGGA,191800.000,3101.7227,N,12126.3476,E,1,00,00015.742,M 
$GPGGA,191801.000,3101.7226,N,12126.3474,E,1,00,00015.088,M 
$GPGGA,191801.000,3101.7224,N,12126.3474,E,1,00,00015.088,M 
$GPGGA,191804.000,3101.7218,N,12126.3469,E,1,00,00013.525,M 
$GPGGA,191805.000,3101.7219,N,12126.3466,E,1,00,00014.771,M 
$GPGGA,191805.000,3101.7218,N,12126.3465,E,1,00,00014.771,M 
$GPGGA,191806.000,3101.7213,N,12126.3465,E,1,00,00014.194,M 
$GPGGA,191806.000,3101.7210,N,12126.3466,E,1,00,00014.194,M 
$GPGGA,191807.000,3101.7206,N,12126.3468,E,1,00,00014.109,M 
$GPGGA,191808.000,3101.7200,N,12126.3467,E,1,00,00014.356,M 
$GPGGA,191808.000,3101.7197,N,12126.3467,E,1,00,00014.356,M 
$GPGGA,191809.000,3101.7190,N,12126.3468,E,1,00,00013.659,M 
$GPGGA,191809.000,3101.7187,N,12126.3469,E,1,00,00013.659,M 
$GPGGA,191810.000,3101.7179,N,12126.3471,E,1,00,00013.979,M 
$GPGGA,191811.000,3101.7173,N,12126.3471,E,1,00,00014.279,M 
$GPGGA,191811.000,3101.7169,N,12126.3471,E,1,00,00014.279,M 
$GPGGA,191812.000,3101.7168,N,12126.3471,E,1,00,00014.660,M 
$GPGGA,191812.000,3101.7167,N,12126.3471,E,1,00,00014.660,M 
$GPGGA,191813.000,3101.7164,N,12126.3475,E,1,00,00017.028,M 
$GPGGA,191814.000,3101.7159,N,12126.3478,E,1,00,00015.878,M 
$GPGGA,191814.000,3101.7157,N,12126.3480,E,1,00,00015.878,M 
$GPGGA,191815.000,3101.7153,N,12126.3477,E,1,00,00018.531,M 
$GPGGA,191815.000,3101.7151,N,12126.3477,E,1,00,00018.531,M 
$GPGGA,191816.000,3101.7147,N,12126.3478,E,1,00,00018.626,M 
$GPGGA,191817.000,3101.7141,N,12126.3479,E,1,00,00018.230,M 
$GPGGA,191817.000,3101.7138,N,12126.3480,E,1,00,00018.230,M 
$GPGGA,191818.000,3101.7135,N,12126.3482,E,1,00,00018.232,M 
$GPGGA,191818.000,3101.7133,N,12126.3483,E,1,00,00018.232,M 
$GPGGA,191819.000,3101.7127,N,12126.3483,E,1,00,00019.466,M 
$GPGGA,191819.000,3101.7124,N,12126.3484,E,1,00,00019.466,M 
$GPGGA,191820.000,3101.7122,N,12126.3485,E,1,00,00018.403,M 
$GPGGA,191821.000,3101.7118,N,12126.3488,E,1,00,00017.641,M 
$GPGGA,191821.000,3101.7116,N,12126.3489,E,1,00,00017.641,M 
$GPGGA,191822.000,3101.7110,N,12126.3489,E,1,00,00018.250,M 
$GPGGA,191822.000,3101.7106,N,12126.3490,E,1,00,00018.250,M 
$GPGGA,191823.000,3101.7102,N,12126.3492,E,1,00,00019.001,M 
$GPGGA,191824.000,3101.7096,N,12126.3495,E,1,00,00018.935,M 
$GPGGA,191824.000,3101.7094,N,12126.3496,E,1,00,00018.935,M 
$GPGGA,191825.000,3101.7089,N,12126.3497,E,1,00,00019.442,M 
$GPGGA,191825.000,3101.7086,N,12126.3497,E,1,00,00019.442,M 
$GPGGA,191826.000,3101.7082,N,12126.3500,E,1,00,00018.209,M 
$GPGGA,191827.000,3101.7077,N,12126.3501,E,1,00,00017.795,M 
$GPGGA,191827.000,3101.7075,N,12126.3502,E,1,00,00017.795,M 
$GPGGA,191828.000,3101.7072,N,12126.3506,E,1,00,00017.525,M 
$GPGGA,191828.000,3101.7071,N,12126.3508,E,1,00,00017.525,M 
$GPGGA,191829.000,3101.7068,N,12126.3507,E,1,00,00017.097,M 
$GPGGA,191829.000,3101.7066,N,12126.3507,E,1,00,00017.097,M 
$GPGGA,191830.000,3101.7063,N,12126.3511,E,1,00,00017.615,M 
$GPGGA,191831.000,3101.7058,N,12126.3511,E,1,00,00018.372,M 
$GPGGA,191831.000,3101.7055,N,12126.3511,E,1,00,00018.372,M 
$GPGGA,191832.000,3101.7047,N,12126.3514,E,1,00,00017.467,M 
$GPGGA,191832.000,3101.7043,N,12126.3515,E,1,00,00017.467,M 
$GPGGA,191833.000,3101.7040,N,12126.3516,E,1,00,00016.423,M 
$GPGGA,191834.000,3101.7037,N,12126.3519,E,1,00,00016.704,M 
$GPGGA,191834.000,3101.7035,N,12126.3520,E,1,00,00016.703,M 
$GPGGA,191835.000,3101.7030,N,12126.3520,E,1,00,00017.309,M 
$GPGGA,191835.000,3101.7027,N,12126.3519,E,1,00,00017.308,M 
$GPGGA,191836.000,3101.7022,N,12126.3524,E,1,00,00017.460,M 
$GPGGA,191837.000,3101.7021,N,12126.3525,E,1,00,00017.239,M 
$GPGGA,191837.000,3101.7019,N,12126.3525,E,1,00,00017.239,M 
$GPGGA,191838.000,3101.7015,N,12126.3526,E,1,00,00017.696,M 
$GPGGA,191838.000,3101.7013,N,12126.3526,E,1,00,00017.696,M 
$GPGGA,191839.000,3101.7007,N,12126.3529,E,1,00,00017.085,M 
$GPGGA,191840.000,3101.6999,N,12126.3531,E,1,00,00016.507,M 
$GPGGA,191840.000,3101.6995,N,12126.3532,E,1,00,00016.507,M 
$GPGGA,191841.000,3101.6993,N,12126.3532,E,1,00,00015.206,M 
$GPGGA,191841.000,3101.6991,N,12126.3532,E,1,00,00015.206,M 
$GPGGA,191842.000,3101.6990,N,12126.3533,E,1,00,00016.801,M 
$GPGGA,191842.000,3101.6989,N,12126.3533,E,1,00,00016.801,M 
$GPGGA,191843.000,3101.6983,N,12126.3532,E,1,00,00017.966,M 
$GPGGA,191844.000,3101.6977,N,12126.3537,E,1,00,00017.313,M 
$GPGGA,191844.000,3101.6974,N,12126.3539,E,1,00,00017.313,M 
$GPGGA,191845.000,3101.6968,N,12126.3539,E,1,00,00017.448,M 
$GPGGA,191845.000,3101.6965,N,12126.3539,E,1,00,00017.448,M 
$GPGGA,191846.000,3101.6960,N,12126.3540,E,1,00,00017.340,M 
$GPGGA,191847.000,3101.6957,N,12126.3539,E,1,00,00017.674,M 
$GPGGA,191847.000,3101.6955,N,12126.3539,E,1,00,00017.674,M 
$GPGGA,191848.000,3101.6949,N,12126.3540,E,1,00,00017.820,M 
$GPGGA,191848.000,3101.6945,N,12126.3541,E,1,00,00017.820,M 
$GPGGA,191849.000,3101.6940,N,12126.3542,E,1,00,00017.367,M 
$GPGGA,191849.000,3101.6937,N,12126.3543,E,1,00,00017.367,M 
$GPGGA,191850.000,3101.6934,N,12126.3547,E,1,00,00017.640,M 
$GPGGA,191851.000,3101.6929,N,12126.3547,E,1,00,00017.267,M 
$GPGGA,191851.000,3101.6926,N,12126.3547,E,1,00,00017.267,M 
$GPGGA,191852.000,3101.6918,N,12126.3551,E,1,00,00017.086,M 
$GPGGA,191852.000,3101.6914,N,12126.3552,E,1,00,00017.086,M 
$GPGGA,191853.000,3101.6914,N,12126.3553,E,1,00,00016.194,M 
$GPGGA,191853.000,3101.6913,N,12126.3554,E,1,00,00016.194,M 
$GPGGA,191854.000,3101.6908,N,12126.3557,E,1,00,00016.695,M 
$GPGGA,191855.000,3101.6905,N,12126.3557,E,1,00,00018.281,M 
$GPGGA,191855.000,3101.6904,N,12126.3558,E,1,00,00018.281,M 
$GPGGA,191856.000,3101.6899,N,12126.3561,E,1,00,00018.389,M 
$GPGGA,191856.000,3101.6897,N,12126.3562,E,1,00,00018.389,M 
$GPGGA,191857.000,3101.6892,N,12126.3564,E,1,00,00018.678,M 
$GPGGA,191857.000,3101.6889,N,12126.3565,E,1,00,00018.678,M 
$GPGGA,191858.000,3101.6884,N,12126.3565,E,1,00,00017.904,M 
$GPGGA,191859.000,3101.6880,N,12126.3564,E,1,00,00018.572,M 
$GPGGA,191859.000,3101.6878,N,12126.3564,E,1,00,00018.572,M 
$GPGGA,191900.000,3101.6869,N,12126.3565,E,1,00,00018.849,M 
$GPGGA,191900.000,3101.6865,N,12126.3565,E,1,00,00018.849,M 
$GPGGA,191901.000,3101.6859,N,12126.3565,E,1,00,00019.548,M 
$GPGGA,191902.000,3101.6854,N,12126.3569,E,1,00,00019.210,M 
$GPGGA,191902.000,3101.6851,N,12126.3571,E,1,00,00019.210,M 
$GPGGA,191903.000,3101.6849,N,12126.3572,E,1,00,00018.364,M 
$GPGGA,191903.000,3101.6847,N,12126.3573,E,1,00,00018.364,M 
$GPGGA,191904.000,3101.6841,N,12126.3573,E,1,00,00018.819,M 
$GPGGA,191904.000,3101.6839,N,12126.3574,E,1,00,00018.819,M 
$GPGGA,191905.000,3101.6835,N,12126.3576,E,1,00,00017.946,M 
$GPGGA,191906.000,3101.6833,N,12126.3579,E,1,00,00017.814,M 
$GPGGA,191906.000,3101.6831,N,12126.3580,E,1,00,00017.814,M 
$GPGGA,191907.000,3101.6827,N,12126.3577,E,1,00,00016.399,M 
$GPGGA,191907.000,3101.6824,N,12126.3576,E,1,00,00016.399,M 
$GPGGA,191908.000,3101.6821,N,12126.3578,E,1,00,00016.792,M 
$GPGGA,191908.000,3101.6819,N,12126.3578,E,1,00,00016.792,M 
$GPGGA,191909.000,3101.6814,N,12126.3579,E,1,00,00017.056,M 
$GPGGA,191910.000,3101.6808,N,12126.3581,E,1,00,00016.555,M 
$GPGGA,191910.000,3101.6805,N,12126.3582,E,1,00,00016.555,M 
$GPGGA,191911.000,3101.6800,N,12126.3582,E,1,00,00016.412,M 
$GPGGA,191911.000,3101.6797,N,12126.3582,E,1,00,00016.412,M 
$GPGGA,191912.000,3101.6793,N,12126.3585,E,1,00,00018.312,M 
$GPGGA,191912.000,3101.6791,N,12126.3586,E,1,00,00018.312,M 
$GPGGA,191913.000,3101.6787,N,12126.3587,E,1,00,00017.132,M 
$GPGGA,191913.000,3101.6784,N,12126.3587,E,1,00,00017.132,M 
$GPGGA,191914.000,3101.6780,N,12126.3591,E,1,00,00018.908,M 
$GPGGA,191915.000,3101.6772,N,12126.3594,E,1,00,00017.091,M 
$GPGGA,191915.000,3101.6769,N,12126.3595,E,1,00,00017.091,M 
$GPGGA,191916.000,3101.6766,N,12126.3593,E,1,00,00016.565,M 
$GPGGA,191916.000,3101.6763,N,12126.3592,E,1,00,00016.565,M 
$GPGGA,191917.000,3101.6760,N,12126.3594,E,1,00,00017.670,M 
$GPGGA,191917.000,3101.6758,N,12126.3595,E,1,00,00017.670,M 
$GPGGA,191918.000,3101.6752,N,12126.3595,E,1,00,00017.167,M 
$GPGGA,191919.000,3101.6745,N,12126.3597,E,1,00,00018.239,M 
$GPGGA,191919.000,3101.6742,N,12126.3598,E,1,00,00018.239,M 
$GPGGA,191920.000,3101.6737,N,12126.3598,E,1,00,00019.254,M 
$GPGGA,191920.000,3101.6735,N,12126.3599,E,1,00,00019.254,M 
$GPGGA,191921.000,3101.6731,N,12126.3598,E,1,00,00019.390,M 
$GPGGA,191921.000,3101.6729,N,12126.3598,E,1,00,00019.390,M 
$GPGGA,191922.000,3101.6724,N,12126.3599,E,1,00,00018.041,M 
$GPGGA,191922.000,3101.6721,N,12126.3599,E,1,00,00018.041,M 
$GPGGA,191923.000,3101.6715,N,12126.3604,E,1,00,00017.122,M 
$GPGGA,191924.000,3101.6712,N,12126.3605,E,1,00,00017.775,M 
$GPGGA,191924.000,3101.6710,N,12126.3605,E,1,00,00017.775,M 
$GPGGA,191925.000,3101.6707,N,12126.3607,E,1,00,00017.998,M 
$GPGGA,191925.000,3101.6705,N,12126.3608,E,1,00,00017.998,M 
$GPGGA,191926.000,3101.6702,N,12126.3613,E,1,00,00017.899,M 
$GPGGA,191927.000,3101.6699,N,12126.3614,E,1,00,00017.572,M 
$GPGGA,191927.000,3101.6698,N,12126.3615,E,1,00,00017.572,M 
$GPGGA,191929.000,3101.6696,N,12126.3617,E,1,00,00017.550,M 
$GPGGA,191930.000,3101.6693,N,12126.3623,E,1,00,00015.818,M 
$GPGGA,191931.000,3101.6689,N,12126.3629,E,1,00,00016.256,M 
$GPGGA,191931.000,3101.6688,N,12126.3632,E,1,00,00016.256,M 
$GPGGA,191932.000,3101.6689,N,12126.3639,E,1,00,00015.533,M 
$GPGGA,191932.000,3101.6690,N,12126.3642,E,1,00,00015.533,M 
$GPGGA,191933.000,3101.6689,N,12126.3645,E,1,00,00015.832,M 
$GPGGA,191934.000,3101.6689,N,12126.3651,E,1,00,00017.156,M 
$GPGGA,191934.000,3101.6689,N,12126.3654,E,1,00,00017.156,M 
$GPGGA,191935.000,3101.6691,N,12126.3662,E,1,00,00015.925,M 
$GPGGA,191935.000,3101.6692,N,12126.3666,E,1,00,00015.925,M 
$GPGGA,191936.000,3101.6692,N,12126.3670,E,1,00,00015.030,M 
$GPGGA,191936.000,3101.6692,N,12126.3673,E,1,00,00015.030,M 
$GPGGA,191937.000,3101.6693,N,12126.3678,E,1,00,00014.509,M 
$GPGGA,191937.000,3101.6694,N,12126.3681,E,1,00,00014.509,M 
$GPGGA,191938.000,3101.6696,N,12126.3686,E,1,00,00014.044,M 
$GPGGA,191939.000,3101.6697,N,12126.3691,E,1,00,00014.227,M 
$GPGGA,191939.000,3101.6697,N,12126.3693,E,1,00,00014.228,M 
$GPGGA,191940.000,3101.6699,N,12126.3697,E,1,00,00013.982,M 
$GPGGA,191940.000,3101.6700,N,12126.3700,E,1,00,00013.982,M 
$GPGGA,191941.000,3101.6702,N,12126.3706,E,1,00,00012.977,M 
$GPGGA,191941.000,3101.6703,N,12126.3709,E,1,00,00012.977,M 
$GPGGA,191942.000,3101.6706,N,12126.3716,E,1,00,00014.762,M 
$GPGGA,191942.000,3101.6707,N,12126.3719,E,1,00,00014.762,M 
$GPGGA,191943.000,3101.6706,N,12126.3724,E,1,00,00013.286,M 
$GPGGA,191944.000,3101.6705,N,12126.3729,E,1,00,00012.468,M 
$GPGGA,191944.000,3101.6706,N,12126.3732,E,1,00,00012.468,M 
$GPGGA,191945.000,3101.6708,N,12126.3735,E,1,00,00013.303,M 
$GPGGA,191947.000,3101.6709,N,12126.3742,E,1,00,00008.629,M 
$GPGGA,191948.000,3101.6711,N,12126.3739,E,1,00,00011.881,M 
$GPGGA,191948.000,3101.6713,N,12126.3738,E,1,00,00011.881,M 
$GPGGA,191949.000,3101.6715,N,12126.3742,E,1,00,00012.370,M 
$GPGGA,191950.000,3101.6721,N,12126.3739,E,1,00,00011.406,M 
$GPGGA,191950.000,3101.6724,N,12126.3738,E,1,00,00011.406,M 
$GPGGA,191951.000,3101.6731,N,12126.3736,E,1,00,00013.721,M 
$GPGGA,191951.000,3101.6735,N,12126.3735,E,1,00,00013.721,M 
$GPGGA,191952.000,3101.6742,N,12126.3734,E,1,00,00015.296,M 
$GPGGA,191953.000,3101.6750,N,12126.3735,E,1,00,00015.680,M 
$GPGGA,191953.000,3101.6754,N,12126.3735,E,1,00,00015.680,M 
$GPGGA,191954.000,3101.6758,N,12126.3731,E,1,00,00014.841,M 
$GPGGA,191954.000,3101.6761,N,12126.3730,E,1,00,00014.841,M 
$GPGGA,191955.000,3101.6763,N,12126.3730,E,1,00,00014.362,M 
$GPGGA,191955.000,3101.6765,N,12126.3730,E,1,00,00014.362,M 
$GPGGA,191956.000,3101.6772,N,12126.3729,E,1,00,00014.593,M 
$GPGGA,191957.000,3101.6778,N,12126.3728,E,1,00,00013.675,M 
$GPGGA,191957.000,3101.6780,N,12126.3727,E,1,00,00013.675,M 
$GPGGA,191958.000,3101.6782,N,12126.3724,E,1,00,00014.212,M 
$GPGGA,191958.000,3101.6784,N,12126.3723,E,1,00,00014.212,M 
$GPGGA,191959.000,3101.6788,N,12126.3722,E,1,00,00014.122,M 
$GPGGA,191959.000,3101.6790,N,12126.3721,E,1,00,00014.122,M 
$GPGGA,192000.000,3101.6793,N,12126.3721,E,1,00,00015.267,M 
$GPGGA,192001.000,3101.6798,N,12126.3720,E,1,00,00014.606,M 
$GPGGA,192001.000,3101.6800,N,12126.3719,E,1,00,00014.606,M 
$GPGGA,192002.000,3101.6806,N,12126.3718,E,1,00,00014.813,M 
$GPGGA,192002.000,3101.6809,N,12126.3718,E,1,00,00014.813,M 
$GPGGA,192003.000,3101.6814,N,12126.3719,E,1,00,00014.599,M 
$GPGGA,192004.000,3101.6820,N,12126.3718,E,1,00,00014.659,M 
$GPGGA,192004.000,3101.6823,N,12126.3718,E,1,00,00014.659,M 
$GPGGA,192005.000,3101.6827,N,12126.3718,E,1,00,00015.082,M 
$GPGGA,192005.000,3101.6829,N,12126.3718,E,1,00,00015.082,M 
$GPGGA,192006.000,3101.6832,N,12126.3715,E,1,00,00014.987,M 
$GPGGA,192006.000,3101.6834,N,12126.3714,E,1,00,00014.987,M 
$GPGGA,192007.000,3101.6838,N,12126.3712,E,1,00,00013.834,M 
$GPGGA,192008.000,3101.6842,N,12126.3712,E,1,00,00014.117,M 
$GPGGA,192008.000,3101.6845,N,12126.3712,E,1,00,00014.117,M 
$GPGGA,192009.000,3101.6851,N,12126.3710,E,1,00,00013.697,M 
$GPGGA,192009.000,3101.6855,N,12126.3709,E,1,00,00013.697,M 
$GPGGA,192010.000,3101.6860,N,12126.3708,E,1,00,00012.535,M 
$GPGGA,192011.000,3101.6867,N,12126.3706,E,1,00,00011.994,M 
$GPGGA,192011.000,3101.6870,N,12126.3705,E,1,00,00011.994,M 
$GPGGA,192012.000,3101.6873,N,12126.3704,E,1,00,00012.051,M 
$GPGGA,192012.000,3101.6875,N,12126.3704,E,1,00,00012.051,M 
$GPGGA,192013.000,3101.6879,N,12126.3701,E,1,00,00012.990,M 
$GPGGA,192013.000,3101.6881,N,12126.3700,E,1,00,00012.990,M 
$GPGGA,192014.000,3101.6884,N,12126.3698,E,1,00,00012.633,M 
$GPGGA,192015.000,3101.6887,N,12126.3695,E,1,00,00014.237,M 
$GPGGA,192015.000,3101.6889,N,12126.3694,E,1,00,00014.237,M 
$GPGGA,192016.000,3101.6893,N,12126.3692,E,1,00,00015.302,M 
$GPGGA,192016.000,3101.6895,N,12126.3691,E,1,00,00015.302,M 
$GPGGA,192017.000,3101.6898,N,12126.3690,E,1,00,00016.284,M 
$GPGGA,192018.000,3101.6905,N,12126.3692,E,1,00,00016.302,M 
$GPGGA,192018.000,3101.6909,N,12126.3692,E,1,00,00016.302,M 
$GPGGA,192019.000,3101.6913,N,12126.3689,E,1,00,00015.586,M 
$GPGGA,192019.000,3101.6915,N,12126.3688,E,1,00,00015.586,M 
$GPGGA,192020.000,3101.6921,N,12126.3686,E,1,00,00016.710,M 
$GPGGA,192020.000,3101.6924,N,12126.3685,E,1,00,00016.710,M 
$GPGGA,192021.000,3101.6930,N,12126.3684,E,1,00,00016.789,M 
$GPGGA,192022.000,3101.6936,N,12126.3683,E,1,00,00016.175,M 
$GPGGA,192022.000,3101.6939,N,12126.3683,E,1,00,00016.175,M 
$GPGGA,192023.000,3101.6942,N,12126.3680,E,1,00,00015.947,M 
$GPGGA,192023.000,3101.6944,N,12126.3678,E,1,00,00015.947,M 
$GPGGA,192024.000,3101.6948,N,12126.3676,E,1,00,00017.043,M 
$GPGGA,192024.000,3101.6950,N,12126.3675,E,1,00,00017.043,M 
$GPGGA,192025.000,3101.6953,N,12126.3676,E,1,00,00016.224,M 
$GPGGA,192026.000,3101.6957,N,12126.3676,E,1,00,00016.274,M 
$GPGGA,192026.000,3101.6960,N,12126.3677,E,1,00,00016.274,M 
$GPGGA,192027.000,3101.6965,N,12126.3675,E,1,00,00015.646,M 
$GPGGA,192027.000,3101.6968,N,12126.3674,E,1,00,00015.646,M 
$GPGGA,192028.000,3101.6972,N,12126.3674,E,1,00,00017.093,M 
$GPGGA,192028.000,3101.6975,N,12126.3674,E,1,00,00017.093,M 
$GPGGA,192029.000,3101.6978,N,12126.3674,E,1,00,00018.233,M 
$GPGGA,192030.000,3101.6982,N,12126.3673,E,1,00,00017.798,M 
$GPGGA,192030.000,3101.6985,N,12126.3673,E,1,00,00017.798,M 
$GPGGA,192031.000,3101.6992,N,12126.3672,E,1,00,00018.445,M 
$GPGGA,192031.000,3101.6996,N,12126.3672,E,1,00,00018.445,M 
$GPGGA,192032.000,3101.7001,N,12126.3672,E,1,00,00017.225,M 
$GPGGA,192032.000,3101.7004,N,12126.3672,E,1,00,00017.225,M 
$GPGGA,192033.000,3101.7008,N,12126.3669,E,1,00,00016.649,M 
$GPGGA,192034.000,3101.7014,N,12126.3671,E,1,00,00017.553,M 
$GPGGA,192034.000,3101.7017,N,12126.3671,E,1,00,00017.553,M 
$GPGGA,192035.000,3101.7021,N,12126.3669,E,1,00,00016.314,M 
$GPGGA,192035.000,3101.7023,N,12126.3668,E,1,00,00016.314,M 
$GPGGA,192036.000,3101.7028,N,12126.3667,E,1,00,00016.332,M 
$GPGGA,192036.000,3101.7032,N,12126.3666,E,1,00,00016.332,M 
$GPGGA,192037.000,3101.7036,N,12126.3665,E,1,00,00017.574,M 
$GPGGA,192038.000,3101.7040,N,12126.3660,E,1,00,00016.400,M 
$GPGGA,192038.000,3101.7043,N,12126.3658,E,1,00,00016.400,M 
$GPGGA,192039.000,3101.7047,N,12126.3657,E,1,00,00017.624,M 
$GPGGA,192039.000,3101.7050,N,12126.3656,E,1,00,00017.624,M 
$GPGGA,192040.000,3101.7054,N,12126.3653,E,1,00,00016.053,M 
$GPGGA,192040.000,3101.7057,N,12126.3652,E,1,00,00016.053,M 
$GPGGA,192041.000,3101.7059,N,12126.3650,E,1,00,00015.079,M 
$GPGGA,192041.000,3101.7061,N,12126.3650,E,1,00,00015.079,M 
$GPGGA,192042.000,3101.7067,N,12126.3646,E,1,00,00015.226,M 
$GPGGA,192043.000,3101.7073,N,12126.3643,E,1,00,00016.055,M 
$GPGGA,192043.000,3101.7076,N,12126.3642,E,1,00,00016.055,M 
$GPGGA,192044.000,3101.7080,N,12126.3643,E,1,00,00016.395,M 
$GPGGA,192044.000,3101.7083,N,12126.3643,E,1,00,00016.395,M 
$GPGGA,192045.000,3101.7091,N,12126.3642,E,1,00,00017.853,M 
$GPGGA,192045.000,3101.7095,N,12126.3642,E,1,00,00017.854,M 
$GPGGA,192046.000,3101.7101,N,12126.3641,E,1,00,00016.851,M 
$GPGGA,192047.000,3101.7104,N,12126.3640,E,1,00,00016.783,M 
$GPGGA,192047.000,3101.7107,N,12126.3640,E,1,00,00016.783,M 
$GPGGA,192048.000,3101.7112,N,12126.3638,E,1,00,00017.299,M 
$GPGGA,192048.000,3101.7115,N,12126.3637,E,1,00,00017.299,M 
$GPGGA,192049.000,3101.7118,N,12126.3636,E,1,00,00017.343,M 
$GPGGA,192049.000,3101.7121,N,12126.3635,E,1,00,00017.343,M 
$GPGGA,192050.000,3101.7124,N,12126.3635,E,1,00,00016.744,M 
$GPGGA,192050.000,3101.7127,N,12126.3635,E,1,00,00016.744,M 
$GPGGA,192051.000,3101.7132,N,12126.3634,E,1,00,00016.123,M 
$GPGGA,192052.000,3101.7137,N,12126.3631,E,1,00,00016.328,M 
$GPGGA,192052.000,3101.7140,N,12126.3630,E,1,00,00016.328,M 
$GPGGA,192053.000,3101.7143,N,12126.3630,E,1,00,00016.504,M 
$GPGGA,192053.000,3101.7145,N,12126.3630,E,1,00,00016.504,M 
$GPGGA,192054.000,3101.7151,N,12126.3628,E,1,00,00016.357,M 
$GPGGA,192054.000,3101.7154,N,12126.3627,E,1,00,00016.357,M 
$GPGGA,192055.000,3101.7160,N,12126.3627,E,1,00,00015.002,M 
$GPGGA,192055.000,3101.7164,N,12126.3626,E,1,00,00015.002,M 
$GPGGA,192056.000,3101.7169,N,12126.3625,E,1,00,00016.430,M 
$GPGGA,192057.000,3101.7171,N,12126.3624,E,1,00,00015.222,M 
$GPGGA,192057.000,3101.7173,N,12126.3624,E,1,00,00015.222,M 
$GPGGA,192058.000,3101.7178,N,12126.3621,E,1,00,00014.604,M 
$GPGGA,192058.000,3101.7181,N,12126.3620,E,1,00,00014.604,M 
$GPGGA,192059.000,3101.7187,N,12126.3620,E,1,00,00014.417,M 
$GPGGA,192059.000,3101.7190,N,12126.3619,E,1,00,00014.417,M 
$GPGGA,192100.000,3101.7193,N,12126.3617,E,1,00,00014.810,M 
$GPGGA,192100.000,3101.7195,N,12126.3616,E,1,00,00014.810,M 
$GPGGA,192101.000,3101.7201,N,12126.3615,E,1,00,00014.612,M 
$GPGGA,192102.000,3101.7203,N,12126.3613,E,1,00,00015.213,M 
$GPGGA,192102.000,3101.7205,N,12126.3612,E,1,00,00015.213,M 
$GPGGA,192103.000,3101.7209,N,12126.3610,E,1,00,00016.392,M 
$GPGGA,192103.000,3101.7212,N,12126.3609,E,1,00,00016.392,M 
$GPGGA,192104.000,3101.7217,N,12126.3608,E,1,00,00015.293,M 
$GPGGA,192104.000,3101.7220,N,12126.3607,E,1,00,00015.293,M 
$GPGGA,192105.000,3101.7226,N,12126.3604,E,1,00,00015.952,M 
$GPGGA,192106.000,3101.7230,N,12126.3605,E,1,00,00016.406,M 
$GPGGA,192106.000,3101.7232,N,12126.3606,E,1,00,00016.406,M 
$GPGGA,192107.000,3101.7238,N,12126.3604,E,1,00,00017.097,M 
$GPGGA,192107.000,3101.7239,N,12126.3602,E,1,00,00017.097,M 
$GPGGA,192109.000,3101.7238,N,12126.3602,E,1,00,00015.613,M 
$GPGGA,192110.000,3101.7237,N,12126.3598,E,1,00,00016.536,M 
$GPGGA,192111.000,3101.7240,N,12126.3598,E,1,00,00018.065,M 
$GPGGA,192112.000,3101.7240,N,12126.3597,E,1,00,00018.992,M 
$GPGGA,192112.000,3101.7239,N,12126.3596,E,1,00,00018.992,M 
$GPGGA,192113.000,3101.7240,N,12126.3591,E,1,00,00020.027,M 
$GPGGA,192113.000,3101.7241,N,12126.3587,E,1,00,00020.027,M 
$GPGGA,192114.000,3101.7241,N,12126.3580,E,1,00,00017.934,M 
$GPGGA,192115.000,3101.7239,N,12126.3572,E,1,00,00018.308,M 
$GPGGA,192115.000,3101.7239,N,12126.3568,E,1,00,00018.308,M 
$GPGGA,192116.000,3101.7237,N,12126.3559,E,1,00,00017.223,M 
$GPGGA,192116.000,3101.7236,N,12126.3555,E,1,00,00017.223,M 
$GPGGA,192117.000,3101.7233,N,12126.3552,E,1,00,00016.535,M 
$GPGGA,192117.000,3101.7231,N,12126.3550,E,1,00,00016.535,M 
$GPGGA,192118.000,3101.7231,N,12126.3548,E,1,00,00016.372,M 
$GPGGA,192118.000,3101.7231,N,12126.3546,E,1,00,00016.372,M 
$GPGGA,192119.000,3101.7229,N,12126.3539,E,1,00,00017.319,M 
$GPGGA,192120.000,3101.7230,N,12126.3533,E,1,00,00016.776,M 
$GPGGA,192120.000,3101.7231,N,12126.3530,E,1,00,00016.776,M 
$GPGGA,192121.000,3101.7229,N,12126.3527,E,1,00,00016.983,M 
$GPGGA,192121.000,3101.7228,N,12126.3525,E,1,00,00016.983,M 
$GPGGA,192122.000,3101.7229,N,12126.3521,E,1,00,00016.842,M 
$GPGGA,192122.000,3101.7230,N,12126.3518,E,1,00,00016.842,M 
$GPGGA,192123.000,3101.7229,N,12126.3511,E,1,00,00016.189,M 
$GPGGA,192124.000,3101.7228,N,12126.3503,E,1,00,00015.043,M 
$GPGGA,192124.000,3101.7227,N,12126.3499,E,1,00,00015.043,M 
$GPGGA,192125.000,3101.7227,N,12126.3494,E,1,00,00014.824,M 
$GPGGA,192125.000,3101.7228,N,12126.3491,E,1,00,00014.824,M 
$GPGGA,192126.000,3101.7225,N,12126.3485,E,1,00,00014.846,M 
$GPGGA,192127.000,3101.7222,N,12126.3479,E,1,00,00015.294,M 
$GPGGA,192127.000,3101.7221,N,12126.3475,E,1,00,00015.294,M 
$GPGGA,192128.000,3101.7222,N,12126.3473,E,1,00,00014.677,M 
$GPGGA,192128.000,3101.7222,N,12126.3472,E,1,00,00014.677,M 
$GPGGA,192137.000,3101.7219,N,12126.3468,E,1,00,00019.325,M 
$GPGGA,192138.000,3101.7214,N,12126.3464,E,1,00,00017.497,M 
$GPGGA,192138.000,3101.7211,N,12126.3463,E,1,00,00017.497,M 
$GPGGA,192139.000,3101.7209,N,12126.3463,E,1,00,00017.915,M 
$GPGGA,192139.000,3101.7208,N,12126.3463,E,1,00,00017.915,M 
$GPGGA,192140.000,3101.7204,N,12126.3463,E,1,00,00017.161,M 
$GPGGA,192141.000,3101.7198,N,12126.3461,E,1,00,00015.944,M 
$GPGGA,192141.000,3101.7195,N,12126.3461,E,1,00,00015.944,M 
$GPGGA,192142.000,3101.7192,N,12126.3465,E,1,00,00016.174,M 
$GPGGA,192142.000,3101.7190,N,12126.3467,E,1,00,00016.174,M 
$GPGGA,192143.000,3101.7185,N,12126.3466,E,1,00,00016.754,M 
$GPGGA,192143.000,3101.7182,N,12126.3466,E,1,00,00016.754,M 
$GPGGA,192144.000,3101.7177,N,12126.3470,E,1,00,00016.043,M 
$GPGGA,192145.000,3101.7171,N,12126.3475,E,1,00,00016.386,M 
$GPGGA,192145.000,3101.7168,N,12126.3477,E,1,00,00016.386,M 
$GPGGA,192146.000,3101.7162,N,12126.3479,E,1,00,00016.542,M 
$GPGGA,192146.000,3101.7159,N,12126.3480,E,1,00,00016.542,M 
$GPGGA,192147.000,3101.7155,N,12126.3480,E,1,00,00015.761,M 
$GPGGA,192147.000,3101.7153,N,12126.3479,E,1,00,00015.761,M 
$GPGGA,192148.000,3101.7148,N,12126.3484,E,1,00,00015.897,M 
$GPGGA,192148.000,3101.7145,N,12126.3486,E,1,00,00015.897,M 
$GPGGA,192149.000,3101.7141,N,12126.3487,E,1,00,00015.557,M 
$GPGGA,192149.000,3101.7139,N,12126.3487,E,1,00,00015.557,M 
$GPGGA,192150.000,3101.7136,N,12126.3488,E,1,00,00017.368,M 
$GPGGA,192151.000,3101.7132,N,12126.3492,E,1,00,00017.221,M 
$GPGGA,192151.000,3101.7130,N,12126.3493,E,1,00,00017.220,M 
$GPGGA,192152.000,3101.7124,N,12126.3494,E,1,00,00016.872,M 
$GPGGA,192152.000,3101.7121,N,12126.3494,E,1,00,00016.872,M 
$GPGGA,192153.000,3101.7118,N,12126.3496,E,1,00,00017.047,M 
$GPGGA,192153.000,3101.7115,N,12126.3497,E,1,00,00017.047,M 
$GPGGA,192154.000,3101.7107,N,12126.3498,E,1,00,00017.499,M 
$GPGGA,192154.000,3101.7104,N,12126.3498,E,1,00,00017.499,M 
$GPGGA,192155.000,3101.7100,N,12126.3500,E,1,00,00016.872,M 
$GPGGA,192155.000,3101.7098,N,12126.3501,E,1,00,00016.872,M 
$GPGGA,192156.000,3101.7094,N,12126.3501,E,1,00,00017.095,M 
$GPGGA,192157.000,3101.7089,N,12126.3500,E,1,00,00016.169,M 
$GPGGA,192157.000,3101.7086,N,12126.3499,E,1,00,00016.169,M 
$GPGGA,192158.000,3101.7080,N,12126.3500,E,1,00,00015.343,M 
$GPGGA,192158.000,3101.7077,N,12126.3500,E,1,00,00015.343,M 
$GPGGA,192159.000,3101.7074,N,12126.3504,E,1,00,00016.443,M 
$GPGGA,192159.000,3101.7072,N,12126.3505,E,1,00,00016.443,M 
$GPGGA,192200.000,3101.7068,N,12126.3506,E,1,00,00016.652,M 
$GPGGA,192200.000,3101.7065,N,12126.3507,E,1,00,00016.652,M 
$GPGGA,192201.000,3101.7061,N,12126.3505,E,1,00,00016.402,M 
$GPGGA,192202.000,3101.7056,N,12126.3505,E,1,00,00016.897,M 
$GPGGA,192202.000,3101.7054,N,12126.3506,E,1,00,00016.897,M 
$GPGGA,192203.000,3101.7048,N,12126.3508,E,1,00,00016.085,M 
$GPGGA,192203.000,3101.7045,N,12126.3509,E,1,00,00016.085,M 
$GPGGA,192204.000,3101.7038,N,12126.3511,E,1,00,00015.007,M 
$GPGGA,192204.000,3101.7035,N,12126.3512,E,1,00,00015.007,M 
$GPGGA,192205.000,3101.7030,N,12126.3516,E,1,00,00015.745,M 
$GPGGA,192205.000,3101.7028,N,12126.3518,E,1,00,00015.745,M 
$GPGGA,192206.000,3101.7025,N,12126.3520,E,1,00,00015.432,M 
$GPGGA,192207.000,3101.7019,N,12126.3520,E,1,00,00016.560,M 
$GPGGA,192207.000,3101.7016,N,12126.3520,E,1,00,00016.560,M 
$GPGGA,192208.000,3101.7012,N,12126.3522,E,1,00,00018.040,M 
$GPGGA,192208.000,3101.7009,N,12126.3522,E,1,00,00018.040,M 
$GPGGA,192209.000,3101.7004,N,12126.3525,E,1,00,00016.633,M 
$GPGGA,192209.000,3101.7001,N,12126.3526,E,1,00,00016.633,M 
$GPGGA,192210.000,3101.6995,N,12126.3529,E,1,00,00017.283,M 
$GPGGA,192210.000,3101.6992,N,12126.3529,E,1,00,00017.283,M 
$GPGGA,192211.000,3101.6987,N,12126.3529,E,1,00,00018.169,M 
$GPGGA,192212.000,3101.6985,N,12126.3532,E,1,00,00017.592,M 
$GPGGA,192212.000,3101.6983,N,12126.3533,E,1,00,00017.592,M 
$GPGGA,192213.000,3101.6975,N,12126.3533,E,1,00,00017.310,M 
$GPGGA,192213.000,3101.6971,N,12126.3533,E,1,00,00017.310,M 
$GPGGA,192214.000,3101.6964,N,12126.3532,E,1,00,00017.545,M 
$GPGGA,192214.000,3101.6960,N,12126.3531,E,1,00,00017.545,M 
$GPGGA,192215.000,3101.6958,N,12126.3533,E,1,00,00015.748,M 
$GPGGA,192215.000,3101.6957,N,12126.3534,E,1,00,00015.748,M 
$GPGGA,192216.000,3101.6952,N,12126.3534,E,1,00,00016.510,M 
$GPGGA,192217.000,3101.6945,N,12126.3536,E,1,00,00016.625,M 
$GPGGA,192217.000,3101.6941,N,12126.3537,E,1,00,00016.625,M 
$GPGGA,192218.000,3101.6936,N,12126.3539,E,1,00,00018.278,M 
$GPGGA,192218.000,3101.6933,N,12126.3539,E,1,00,00018.278,M 
$GPGGA,192219.000,3101.6933,N,12126.3542,E,1,00,00018.436,M 
$GPGGA,192219.000,3101.6931,N,12126.3543,E,1,00,00018.436,M 
$GPGGA,192220.000,3101.6926,N,12126.3541,E,1,00,00018.356,M 
$GPGGA,192220.000,3101.6923,N,12126.3541,E,1,00,00018.356,M 
$GPGGA,192221.000,3101.6917,N,12126.3542,E,1,00,00017.978,M 
$GPGGA,192222.000,3101.6912,N,12126.3543,E,1,00,00016.820,M 
$GPGGA,192222.000,3101.6909,N,12126.3543,E,1,00,00016.820,M 
$GPGGA,192223.000,3101.6902,N,12126.3544,E,1,00,00017.776,M 
$GPGGA,192223.000,3101.6899,N,12126.3545,E,1,00,00017.776,M 
$GPGGA,192224.000,3101.6894,N,12126.3547,E,1,00,00017.896,M 
$GPGGA,192224.000,3101.6891,N,12126.3548,E,1,00,00017.896,M 
$GPGGA,192225.000,3101.6888,N,12126.3551,E,1,00,00018.186,M 
$GPGGA,192225.000,3101.6886,N,12126.3552,E,1,00,00018.186,M 
$GPGGA,192226.000,3101.6880,N,12126.3552,E,1,00,00019.389,M 
$GPGGA,192227.000,3101.6877,N,12126.3554,E,1,00,00017.702,M 
$GPGGA,192227.000,3101.6874,N,12126.3555,E,1,00,00017.702,M 
$GPGGA,192228.000,3101.6871,N,12126.3557,E,1,00,00018.227,M 
$GPGGA,192228.000,3101.6869,N,12126.3558,E,1,00,00018.227,M 
$GPGGA,192229.000,3101.6867,N,12126.3560,E,1,00,00018.969,M 
$GPGGA,192229.000,3101.6865,N,12126.3561,E,1,00,00018.969,M 
$GPGGA,192230.000,3101.6860,N,12126.3563,E,1,00,00018.663,M 
$GPGGA,192230.000,3101.6857,N,12126.3564,E,1,00,00018.663,M 
$GPGGA,192231.000,3101.6850,N,12126.3566,E,1,00,00018.910,M 
$GPGGA,192232.000,3101.6848,N,12126.3568,E,1,00,00017.875,M 
$GPGGA,192232.000,3101.6846,N,12126.3569,E,1,00,00017.875,M 
$GPGGA,192233.000,3101.6839,N,12126.3571,E,1,00,00017.402,M 
$GPGGA,192233.000,3101.6836,N,12126.3573,E,1,00,00017.402,M 
$GPGGA,192234.000,3101.6830,N,12126.3571,E,1,00,00018.299,M 
$GPGGA,192234.000,3101.6827,N,12126.3570,E,1,00,00018.299,M 
$GPGGA,192235.000,3101.6822,N,12126.3571,E,1,00,00017.944,M 
$GPGGA,192235.000,3101.6819,N,12126.3571,E,1,00,00017.944,M 
$GPGGA,192236.000,3101.6812,N,12126.3573,E,1,00,00018.788,M 
$GPGGA,192236.000,3101.6809,N,12126.3574,E,1,00,00018.787,M 
$GPGGA,192237.000,3101.6805,N,12126.3577,E,1,00,00017.490,M 
$GPGGA,192238.000,3101.6802,N,12126.3580,E,1,00,00016.186,M 
$GPGGA,192238.000,3101.6800,N,12126.3581,E,1,00,00016.186,M 
$GPGGA,192239.000,3101.6795,N,12126.3583,E,1,00,00016.449,M 
$GPGGA,192239.000,3101.6792,N,12126.3584,E,1,00,00016.448,M 
$GPGGA,192240.000,3101.6786,N,12126.3587,E,1,00,00017.081,M 
$GPGGA,192240.000,3101.6783,N,12126.3587,E,1,00,00017.081,M 
$GPGGA,192241.000,3101.6781,N,12126.3587,E,1,00,00017.186,M 
$GPGGA,192241.000,3101.6779,N,12126.3587,E,1,00,00017.186,M 
$GPGGA,192242.000,3101.6773,N,12126.3588,E,1,00,00016.627,M 
$GPGGA,192242.000,3101.6769,N,12126.3588,E,1,00,00016.627,M 
$GPGGA,192243.000,3101.6765,N,12126.3590,E,1,00,00015.947,M 
$GPGGA,192244.000,3101.6758,N,12126.3593,E,1,00,00015.393,M 
$GPGGA,192244.000,3101.6754,N,12126.3594,E,1,00,00015.393,M 
$GPGGA,192245.000,3101.6750,N,12126.3595,E,1,00,00016.682,M 
$GPGGA,192245.000,3101.6747,N,12126.3595,E,1,00,00016.682,M 
$GPGGA,192246.000,3101.6743,N,12126.3596,E,1,00,00017.587,M 
$GPGGA,192246.000,3101.6740,N,12126.3597,E,1,00,00017.587,M 
$GPGGA,192247.000,3101.6738,N,12126.3598,E,1,00,00017.839,M 
$GPGGA,192247.000,3101.6736,N,12126.3599,E,1,00,00017.839,M 
$GPGGA,192248.000,3101.6729,N,12126.3598,E,1,00,00017.060,M 
$GPGGA,192248.000,3101.6726,N,12126.3598,E,1,00,00017.060,M 
$GPGGA,192249.000,3101.6721,N,12126.3599,E,1,00,00015.612,M 
$GPGGA,192249.000,3101.6717,N,12126.3600,E,1,00,00015.612,M 
$GPGGA,192250.000,3101.6714,N,12126.3602,E,1,00,00014.889,M 
$GPGGA,192251.000,3101.6706,N,12126.3605,E,1,00,00014.020,M 
$GPGGA,192251.000,3101.6702,N,12126.3606,E,1,00,00014.020,M 
$GPGGA,192252.000,3101.6697,N,12126.3605,E,1,00,00014.674,M 
$GPGGA,192252.000,3101.6695,N,12126.3605,E,1,00,00014.674,M 
$GPGGA,192253.000,3101.6691,N,12126.3605,E,1,00,00014.166,M 
$GPGGA,192253.000,3101.6689,N,12126.3606,E,1,00,00014.166,M 
$GPGGA,192257.000,3101.6685,N,12126.3611,E,1,00,00016.502,M 
$GPGGA,192258.000,3101.6685,N,12126.3617,E,1,00,00015.967,M 
$GPGGA,192259.000,3101.6686,N,12126.3623,E,1,00,00016.273,M 
$GPGGA,192259.000,3101.6687,N,12126.3627,E,1,00,00016.273,M 
$GPGGA,192300.000,3101.6688,N,12126.3632,E,1,00,00015.651,M 
$GPGGA,192300.000,3101.6689,N,12126.3636,E,1,00,00015.651,M 
$GPGGA,192301.000,3101.6690,N,12126.3638,E,1,00,00016.421,M 
$GPGGA,192301.000,3101.6691,N,12126.3640,E,1,00,00016.421,M 
$GPGGA,192302.000,3101.6691,N,12126.3646,E,1,00,00017.243,M 
$GPGGA,192302.000,3101.6692,N,12126.3650,E,1,00,00017.243,M 
$GPGGA,192303.000,3101.6691,N,12126.3654,E,1,00,00017.413,M 
$GPGGA,192303.000,3101.6691,N,12126.3657,E,1,00,00017.413,M 
$GPGGA,192304.000,3101.6693,N,12126.3661,E,1,00,00016.982,M 
$GPGGA,192304.000,3101.6693,N,12126.3663,E,1,00,00016.982,M 
$GPGGA,192305.000,3101.6693,N,12126.3668,E,1,00,00016.569,M 
$GPGGA,192306.000,3101.6696,N,12126.3671,E,1,00,00016.799,M 
$GPGGA,192306.000,3101.6696,N,12126.3673,E,1,00,00016.799,M 
$GPGGA,192307.000,3101.6700,N,12126.3681,E,1,00,00015.847,M 
$GPGGA,192307.000,3101.6701,N,12126.3686,E,1,00,00015.847,M 
$GPGGA,192308.000,3101.6701,N,12126.3692,E,1,00,00016.926,M 
$GPGGA,192308.000,3101.6701,N,12126.3695,E,1,00,00016.926,M 
$GPGGA,192309.000,3101.6702,N,12126.3701,E,1,00,00018.273,M 
$GPGGA,192309.000,3101.6703,N,12126.3704,E,1,00,00018.273,M 
$GPGGA,192310.000,3101.6705,N,12126.3710,E,1,00,00017.603,M 
$GPGGA,192310.000,3101.6706,N,12126.3714,E,1,00,00017.603,M 
$GPGGA,192311.000,3101.6707,N,12126.3719,E,1,00,00018.677,M 
$GPGGA,192311.000,3101.6708,N,12126.3722,E,1,00,00018.677,M 
$GPGGA,192312.000,3101.6708,N,12126.3726,E,1,00,00018.341,M 
$GPGGA,192313.000,3101.6709,N,12126.3733,E,1,00,00017.913,M 
$GPGGA,192314.000,3101.6713,N,12126.3740,E,1,00,00019.039,M 
$GPGGA,192315.000,3101.6716,N,12126.3743,E,1,00,00017.266,M 
$GPGGA,192316.000,3101.6718,N,12126.3743,E,1,00,00017.647,M 
$GPGGA,192316.000,3101.6720,N,12126.3743,E,1,00,00017.647,M 
$GPGGA,192317.000,3101.6720,N,12126.3743,E,1,00,00017.324,M 
$GPGGA,192317.000,3101.6722,N,12126.3743,E,1,00,00017.324,M 
$GPGGA,192318.000,3101.6731,N,12126.3740,E,1,00,00017.432,M 
$GPGGA,192318.000,3101.6736,N,12126.3739,E,1,00,00017.432,M 
$GPGGA,192319.000,3101.6742,N,12126.3739,E,1,00,00017.371,M 
$GPGGA,192320.000,3101.6750,N,12126.3736,E,1,00,00016.419,M 
$GPGGA,192320.000,3101.6755,N,12126.3735,E,1,00,00016.419,M 
$GPGGA,192321.000,3101.6756,N,12126.3733,E,1,00,00015.904,M 
$GPGGA,192321.000,3101.6758,N,12126.3732,E,1,00,00015.904,M 
$GPGGA,192322.000,3101.6764,N,12126.3731,E,1,00,00016.057,M 
$GPGGA,192322.000,3101.6767,N,12126.3730,E,1,00,00016.057,M 
$GPGGA,192323.000,3101.6770,N,12126.3729,E,1,00,00016.148,M 
$GPGGA,192323.000,3101.6772,N,12126.3728,E,1,00,00016.148,M 
$GPGGA,192324.000,3101.6778,N,12126.3728,E,1,00,00015.166,M 
$GPGGA,192324.000,3101.6782,N,12126.3727,E,1,00,00015.166,M 
$GPGGA,192325.000,3101.6787,N,12126.3726,E,1,00,00015.351,M 
$GPGGA,192325.000,3101.6790,N,12126.3725,E,1,00,00015.351,M 
$GPGGA,192326.000,3101.6791,N,12126.3724,E,1,00,00016.896,M 
$GPGGA,192327.000,3101.6796,N,12126.3725,E,1,00,00015.526,M 
$GPGGA,192327.000,3101.6798,N,12126.3725,E,1,00,00015.526,M 
$GPGGA,192328.000,3101.6801,N,12126.3725,E,1,00,00016.318,M 
$GPGGA,192328.000,3101.6802,N,12126.3724,E,1,00,00016.318,M 
$GPGGA,192329.000,3101.6807,N,12126.3721,E,1,00,00016.958,M 
$GPGGA,192329.000,3101.6810,N,12126.3720,E,1,00,00016.958,M 
$GPGGA,192330.000,3101.6815,N,12126.3718,E,1,00,00016.450,M 
$GPGGA,192330.000,3101.6818,N,12126.3717,E,1,00,00016.450,M 
$GPGGA,192331.000,3101.6822,N,12126.3716,E,1,00,00015.193,M 
$GPGGA,192332.000,3101.6829,N,12126.3713,E,1,00,00015.913,M 
$GPGGA,192332.000,3101.6832,N,12126.3712,E,1,00,00015.913,M 
$GPGGA,192333.000,3101.6837,N,12126.3709,E,1,00,00014.446,M 
$GPGGA,192333.000,3101.6840,N,12126.3708,E,1,00,00014.446,M 
$GPGGA,192334.000,3101.6844,N,12126.3709,E,1,00,00013.731,M 
$GPGGA,192334.000,3101.6846,N,12126.3709,E,1,00,00013.731,M 
$GPGGA,192335.000,3101.6851,N,12126.3706,E,1,00,00015.547,M 
$GPGGA,192335.000,3101.6853,N,12126.3705,E,1,00,00015.547,M 
$GPGGA,192336.000,3101.6857,N,12126.3703,E,1,00,00015.505,M 
$GPGGA,192336.000,3101.6859,N,12126.3703,E,1,00,00015.505,M 
$GPGGA,192337.000,3101.6861,N,12126.3704,E,1,00,00014.593,M 
$GPGGA,192338.000,3101.6867,N,12126.3704,E,1,00,00015.223,M 
$GPGGA,192338.000,3101.6870,N,12126.3704,E,1,00,00015.223,M 
$GPGGA,192339.000,3101.6875,N,12126.3703,E,1,00,00014.449,M 
$GPGGA,192339.000,3101.6878,N,12126.3703,E,1,00,00014.449,M 
$GPGGA,192340.000,3101.6883,N,12126.3702,E,1,00,00015.106,M 
$GPGGA,192340.000,3101.6886,N,12126.3702,E,1,00,00015.106,M 
$GPGGA,192341.000,3101.6892,N,12126.3700,E,1,00,00014.762,M 
$GPGGA,192341.000,3101.6895,N,12126.3699,E,1,00,00014.762,M 
$GPGGA,192342.000,3101.6899,N,12126.3697,E,1,00,00013.712,M 
$GPGGA,192342.000,3101.6902,N,12126.3696,E,1,00,00013.712,M 
$GPGGA,192343.000,3101.6907,N,12126.3696,E,1,00,00014.932,M 
$GPGGA,192343.000,3101.6910,N,12126.3696,E,1,00,00014.932,M 
$GPGGA,192344.000,3101.6914,N,12126.3696,E,1,00,00014.489,M 
$GPGGA,192345.000,3101.6922,N,12126.3697,E,1,00,00015.138,M 
$GPGGA,192345.000,3101.6926,N,12126.3697,E,1,00,00015.138,M 
$GPGGA,192346.000,3101.6930,N,12126.3693,E,1,00,00014.379,M 
$GPGGA,192346.000,3101.6933,N,12126.3691,E,1,00,00014.379,M 
$GPGGA,192347.000,3101.6935,N,12126.3693,E,1,00,00015.798,M 
$GPGGA,192347.000,3101.6937,N,12126.3693,E,1,00,00015.798,M 
$GPGGA,192348.000,3101.6943,N,12126.3693,E,1,00,00014.703,M 
$GPGGA,192348.000,3101.6946,N,12126.3693,E,1,00,00014.703,M 
$GPGGA,192349.000,3101.6949,N,12126.3691,E,1,00,00015.438,M 
$GPGGA,192349.000,3101.6952,N,12126.3691,E,1,00,00015.438,M 
$GPGGA,192350.000,3101.6958,N,12126.3689,E,1,00,00015.605,M 
$GPGGA,192351.000,3101.6961,N,12126.3687,E,1,00,00017.346,M 
$GPGGA,192351.000,3101.6964,N,12126.3687,E,1,00,00017.346,M 
$GPGGA,192352.000,3101.6968,N,12126.3686,E,1,00,00017.375,M 
$GPGGA,192352.000,3101.6970,N,12126.3685,E,1,00,00017.375,M 
$GPGGA,192353.000,3101.6975,N,12126.3683,E,1,00,00017.700,M 
$GPGGA,192353.000,3101.6977,N,12126.3682,E,1,00,00017.700,M 
$GPGGA,192354.000,3101.6984,N,12126.3682,E,1,00,00018.635,M 
$GPGGA,192354.000,3101.6987,N,12126.3682,E,1,00,00018.635,M 
$GPGGA,192355.000,3101.6990,N,12126.3678,E,1,00,00018.064,M 
$GPGGA,192356.000,3101.6997,N,12126.3674,E,1,00,00018.016,M 
$GPGGA,192356.000,3101.7000,N,12126.3673,E,1,00,00018.016,M 
$GPGGA,192357.000,3101.7006,N,12126.3671,E,1,00,00018.504,M 
$GPGGA,192357.000,3101.7009,N,12126.3670,E,1,00,00018.504,M 
$GPGGA,192358.000,3101.7012,N,12126.3669,E,1,00,00018.058,M 
$GPGGA,192358.000,3101.7013,N,12126.3669,E,1,00,00018.058,M 
$GPGGA,192359.000,3101.7018,N,12126.3667,E,1,00,00017.354,M 
$GPGGA,192359.000,3101.7020,N,12126.3666,E,1,00,00017.354,M 
$GPGGA,192400.000,3101.7027,N,12126.3664,E,1,00,00017.209,M 
$GPGGA,192401.000,3101.7031,N,12126.3664,E,1,00,00017.162,M 
$GPGGA,192401.000,3101.7034,N,12126.3664,E,1,00,00017.162,M 
$GPGGA,192402.000,3101.7038,N,12126.3662,E,1,00,00016.952,M 
$GPGGA,192402.000,3101.7040,N,12126.3661,E,1,00,00016.952,M 
$GPGGA,192403.000,3101.7045,N,12126.3660,E,1,00,00014.839,M 
$GPGGA,192403.000,3101.7048,N,12126.3659,E,1,00,00014.839,M 
$GPGGA,192404.000,3101.7053,N,12126.3657,E,1,00,00014.820,M 
$GPGGA,192404.000,3101.7056,N,12126.3657,E,1,00,00014.820,M 
$GPGGA,192405.000,3101.7063,N,12126.3655,E,1,00,00014.976,M 
$GPGGA,192406.000,3101.7069,N,12126.3654,E,1,00,00013.633,M 
$GPGGA,192406.000,3101.7072,N,12126.3653,E,1,00,00013.633,M 
$GPGGA,192407.000,3101.7077,N,12126.3653,E,1,00,00014.614,M 
$GPGGA,192407.000,3101.7080,N,12126.3653,E,1,00,00014.614,M 
$GPGGA,192408.000,3101.7084,N,12126.3652,E,1,00,00014.680,M 
$GPGGA,192408.000,3101.7087,N,12126.3652,E,1,00,00014.680,M 
$GPGGA,192409.000,3101.7091,N,12126.3652,E,1,00,00015.388,M 
$GPGGA,192409.000,3101.7093,N,12126.3652,E,1,00,00015.388,M 
$GPGGA,192410.000,3101.7098,N,12126.3650,E,1,00,00016.410,M 
$GPGGA,192410.000,3101.7100,N,12126.3650,E,1,00,00016.410,M 
$GPGGA,192411.000,3101.7105,N,12126.3652,E,1,00,00017.179,M 
$GPGGA,192412.000,3101.7112,N,12126.3650,E,1,00,00016.386,M 
$GPGGA,192412.000,3101.7116,N,12126.3649,E,1,00,00016.386,M 
$GPGGA,192413.000,3101.7121,N,12126.3646,E,1,00,00015.825,M 
$GPGGA,192413.000,3101.7124,N,12126.3645,E,1,00,00015.825,M 
$GPGGA,192414.000,3101.7127,N,12126.3642,E,1,00,00017.471,M 
$GPGGA,192414.000,3101.7129,N,12126.3641,E,1,00,00017.471,M 
$GPGGA,192415.000,3101.7134,N,12126.3641,E,1,00,00016.060,M 
$GPGGA,192415.000,3101.7137,N,12126.3641,E,1,00,00016.060,M 
$GPGGA,192416.000,3101.7142,N,12126.3637,E,1,00,00016.401,M 
$GPGGA,192417.000,3101.7148,N,12126.3635,E,1,00,00014.666,M 
$GPGGA,192417.000,3101.7151,N,12126.3635,E,1,00,00014.666,M 
$GPGGA,192418.000,3101.7154,N,12126.3637,E,1,00,00014.757,M 
$GPGGA,192418.000,3101.7156,N,12126.3637,E,1,00,00014.757,M 
$GPGGA,192419.000,3101.7159,N,12126.3638,E,1,00,00015.350,M 
$GPGGA,192419.000,3101.7162,N,12126.3639,E,1,00,00015.350,M 
$GPGGA,192420.000,3101.7165,N,12126.3636,E,1,00,00015.833,M 
$GPGGA,192420.000,3101.7167,N,12126.3635,E,1,00,00015.833,M 
$GPGGA,192421.000,3101.7173,N,12126.3634,E,1,00,00014.374,M 
$GPGGA,192421.000,3101.7177,N,12126.3634,E,1,00,00014.375,M 
$GPGGA,192422.000,3101.7184,N,12126.3634,E,1,00,00013.983,M 
$GPGGA,192423.000,3101.7189,N,12126.3631,E,1,00,00013.992,M 
$GPGGA,192423.000,3101.7192,N,12126.3630,E,1,00,00013.992,M 
$GPGGA,192424.000,3101.7195,N,12126.3629,E,1,00,00013.203,M 
$GPGGA,192424.000,3101.7197,N,12126.3629,E,1,00,00013.203,M 
$GPGGA,192425.000,3101.7200,N,12126.3629,E,1,00,00013.409,M 
$GPGGA,192425.000,3101.7203,N,12126.3629,E,1,00,00013.409,M 
$GPGGA,192426.000,3101.7208,N,12126.3627,E,1,00,00013.823,M 
$GPGGA,192426.000,3101.7211,N,12126.3627,E,1,00,00013.823,M 
$GPGGA,192427.000,3101.7216,N,12126.3624,E,1,00,00013.642,M 
$GPGGA,192427.000,3101.7220,N,12126.3623,E,1,00,00013.642,M 
$GPGGA,192428.000,3101.7225,N,12126.3620,E,1,00,00013.231,M 
$GPGGA,192429.000,3101.7232,N,12126.3621,E,1,00,00014.284,M 
$GPGGA,192429.000,3101.7236,N,12126.3622,E,1,00,00014.284,M 
$GPGGA,192430.000,3101.7237,N,12126.3619,E,1,00,00014.371,M 
$GPGGA,192431.000,3101.7240,N,12126.3615,E,1,00,00014.675,M 
$GPGGA,192432.000,3101.7244,N,12126.3611,E,1,00,00017.568,M 
$GPGGA,192433.000,3101.7245,N,12126.3603,E,1,00,00015.903,M 
$GPGGA,192433.000,3101.7246,N,12126.3598,E,1,00,00015.903,M 
$GPGGA,192434.000,3101.7244,N,12126.3596,E,1,00,00016.284,M 
$GPGGA,192435.000,3101.7243,N,12126.3592,E,1,00,00017.106,M 
$GPGGA,192435.000,3101.7243,N,12126.3590,E,1,00,00017.106,M 
$GPGGA,192436.000,3101.7242,N,12126.3583,E,1,00,00017.218,M 
$GPGGA,192436.000,3101.7241,N,12126.3579,E,1,00,00017.218,M 
$GPGGA,192437.000,3101.7242,N,12126.3571,E,1,00,00016.749,M 
$GPGGA,192437.000,3101.7242,N,12126.3567,E,1,00,00016.749,M 
$GPGGA,192438.000,3101.7242,N,12126.3567,E,1,00,00017.333,M 
$GPGGA,192438.000,3101.7241,N,12126.3567,E,1,00,00017.333,M 
$GPGGA,192439.000,3101.7241,N,12126.3563,E,1,00,00016.719,M 
$GPGGA,192439.000,3101.7240,N,12126.3561,E,1,00,00016.719,M 
$GPGGA,192440.000,3101.7240,N,12126.3557,E,1,00,00016.032,M 
$GPGGA,192441.000,3101.7240,N,12126.3549,E,1,00,00016.073,M 
$GPGGA,192441.000,3101.7240,N,12126.3545,E,1,00,00016.073,M 
$GPGGA,192442.000,3101.7237,N,12126.3543,E,1,00,00015.200,M 
$GPGGA,192442.000,3101.7237,N,12126.3540,E,1,00,00015.200,M 
$GPGGA,192443.000,3101.7236,N,12126.3532,E,1,00,00015.348,M 
$GPGGA,192443.000,3101.7235,N,12126.3527,E,1,00,00015.348,M 
$GPGGA,192444.000,3101.7234,N,12126.3521,E,1,00,00014.592,M 
$GPGGA,192444.000,3101.7234,N,12126.3518,E,1,00,00014.592,M 
$GPGGA,192445.000,3101.7235,N,12126.3512,E,1,00,00014.699,M 
$GPGGA,192445.000,3101.7236,N,12126.3508,E,1,00,00014.699,M 
$GPGGA,192446.000,3101.7235,N,12126.3506,E,1,00,00014.636,M 
$GPGGA,192447.000,3101.7232,N,12126.3499,E,1,00,00014.315,M 
$GPGGA,192447.000,3101.7231,N,12126.3496,E,1,00,00014.315,M 
$GPGGA,192448.000,3101.7230,N,12126.3493,E,1,00,00014.347,M 
$GPGGA,192449.000,3101.7228,N,12126.3490,E,1,00,00014.059,M 
$GPGGA,192450.000,3101.7225,N,12126.3489,E,1,00,00012.561,M 
$GPGGA,192451.000,3101.7221,N,12126.3485,E,1,00,00012.190,M 
$GPGGA,192451.000,3101.7218,N,12126.3484,E,1,00,00012.190,M 
$GPGGA,192452.000,3101.7215,N,12126.3485,E,1,00,00012.847,M 
$GPGGA,192452.000,3101.7213,N,12126.3486,E,1,00,00012.847,M 
$GPGGA,192453.000,3101.7205,N,12126.3485,E,1,00,00011.753,M 
$GPGGA,192453.000,3101.7201,N,12126.3484,E,1,00,00011.753,M 
$GPGGA,192454.000,3101.7197,N,12126.3484,E,1,00,00013.100,M 
$GPGGA,192455.000,3101.7193,N,12126.3487,E,1,00,00013.255,M 
$GPGGA,192455.000,3101.7191,N,12126.3488,E,1,00,00013.255,M 
$GPGGA,192456.000,3101.7188,N,12126.3492,E,1,00,00014.423,M 
$GPGGA,192456.000,3101.7186,N,12126.3494,E,1,00,00014.423,M 
$GPGGA,192457.000,3101.7181,N,12126.3495,E,1,00,00015.099,M 
$GPGGA,192457.000,3101.7178,N,12126.3496,E,1,00,00015.099,M 
$GPGGA,192458.000,3101.7171,N,12126.3496,E,1,00,00016.023,M 
$GPGGA,192458.000,3101.7167,N,12126.3496,E,1,00,00016.023,M 
$GPGGA,192459.000,3101.7162,N,12126.3494,E,1,00,00016.433,M 
$GPGGA,192459.000,3101.7159,N,12126.3493,E,1,00,00016.433,M 
$GPGGA,192500.000,3101.7154,N,12126.3494,E,1,00,00017.595,M 
$GPGGA,192501.000,3101.7148,N,12126.3496,E,1,00,00019.479,M 
$GPGGA,192501.000,3101.7144,N,12126.3497,E,1,00,00019.479,M 
$GPGGA,192502.000,3101.7141,N,12126.3495,E,1,00,00019.076,M 
$GPGGA,192502.000,3101.7139,N,12126.3495,E,1,00,00019.076,M 
$GPGGA,192503.000,3101.7135,N,12126.3497,E,1,00,00018.893,M 
$GPGGA,192503.000,3101.7133,N,12126.3498,E,1,00,00018.893,M 
$GPGGA,192504.000,3101.7129,N,12126.3503,E,1,00,00018.100,M 
$GPGGA,192504.000,3101.7126,N,12126.3504,E,1,00,00018.100,M 
$GPGGA,192505.000,3101.7120,N,12126.3506,E,1,00,00018.473,M 
$GPGGA,192505.000,3101.7116,N,12126.3506,E,1,00,00018.473,M 
$GPGGA,192506.000,3101.7113,N,12126.3506,E,1,00,00018.002,M 
$GPGGA,192507.000,3101.7108,N,12126.3507,E,1,00,00017.304,M 
$GPGGA,192507.000,3101.7105,N,12126.3507,E,1,00,00017.304,M 
$GPGGA,192508.000,3101.7101,N,12126.3507,E,1,00,00017.297,M 
$GPGGA,192508.000,3101.7099,N,12126.3506,E,1,00,00017.297,M 
$GPGGA,192509.000,3101.7095,N,12126.3505,E,1,00,00016.903,M 
$GPGGA,192509.000,3101.7093,N,12126.3505,E,1,00,00016.903,M 
$GPGGA,192510.000,3101.7088,N,12126.3508,E,1,00,00017.184,M 
$GPGGA,192510.000,3101.7085,N,12126.3510,E,1,00,00017.184,M 
$GPGGA,192511.000,3101.7079,N,12126.3515,E,1,00,00017.287,M 
$GPGGA,192511.000,3101.7076,N,12126.3517,E,1,00,00017.287,M 
$GPGGA,192512.000,3101.7070,N,12126.3518,E,1,00,00017.216,M 
$GPGGA,192513.000,3101.7066,N,12126.3520,E,1,00,00016.326,M 
$GPGGA,192513.000,3101.7064,N,12126.3521,E,1,00,00016.326,M 
$GPGGA,192514.000,3101.7059,N,12126.3520,E,1,00,00016.812,M 
$GPGGA,192514.000,3101.7056,N,12126.3520,E,1,00,00016.812,M 
$GPGGA,192515.000,3101.7051,N,12126.3522,E,1,00,00017.171,M 
$GPGGA,192515.000,3101.7048,N,12126.3523,E,1,00,00017.171,M 
$GPGGA,192516.000,3101.7044,N,12126.3524,E,1,00,00017.805,M 
$GPGGA,192516.000,3101.7041,N,12126.3524,E,1,00,00017.805,M 
$GPGGA,192517.000,3101.7036,N,12126.3524,E,1,00,00018.058,M 
$GPGGA,192517.000,3101.7033,N,12126.3524,E,1,00,00018.058,M 
$GPGGA,192518.000,3101.7030,N,12126.3524,E,1,00,00017.655,M 
$GPGGA,192519.000,3101.7026,N,12126.3531,E,1,00,00017.108,M 
$GPGGA,192519.000,3101.7024,N,12126.3534,E,1,00,00017.108,M 
$GPGGA,192520.000,3101.7020,N,12126.3535,E,1,00,00016.876,M 
$GPGGA,192520.000,3101.7017,N,12126.3535,E,1,00,00016.876,M 
$GPGGA,192521.000,3101.7012,N,12126.3534,E,1,00,00017.591,M 
$GPGGA,192521.000,3101.7010,N,12126.3533,E,1,00,00017.591,M 
$GPGGA,192522.000,3101.7005,N,12126.3535,E,1,00,00017.037,M 
$GPGGA,192522.000,3101.7003,N,12126.3535,E,1,00,00017.037,M 
$GPGGA,192523.000,3101.6997,N,12126.3535,E,1,00,00017.946,M 
$GPGGA,192523.000,3101.6994,N,12126.3536,E,1,00,00017.946,M 
$GPGGA,192524.000,3101.6989,N,12126.3533,E,1,00,00018.600,M 
$GPGGA,192525.000,3101.6984,N,12126.3532,E,1,00,00019.327,M 
$GPGGA,192525.000,3101.6981,N,12126.3532,E,1,00,00019.327,M 
$GPGGA,192526.000,3101.6979,N,12126.3537,E,1,00,00019.050,M 
$GPGGA,192526.000,3101.6976,N,12126.3539,E,1,00,00019.050,M 
$GPGGA,192527.000,3101.6969,N,12126.3540,E,1,00,00019.063,M 
$GPGGA,192527.000,3101.6965,N,12126.3540,E,1,00,00019.063,M 
$GPGGA,192527.000,3101.6962,N,12126.3541,E,1,00,00019.063,M 
$GPGGA,192527.000,3101.6961,N,12126.3540,E,1,00,00019.063,M 
$GPGGA,192528.000,3101.6955,N,12126.3543,E,1,00,00019.772,M 
$GPGGA,192528.000,3101.6951,N,12126.3544,E,1,00,00019.772,M 
$GPGGA,192529.000,3101.6945,N,12126.3545,E,1,00,00018.560,M 
$GPGGA,192530.000,3101.6941,N,12126.3549,E,1,00,00017.097,M 
$GPGGA,192530.000,3101.6938,N,12126.3551,E,1,00,00017.097,M 
$GPGGA,192531.000,3101.6934,N,12126.3553,E,1,00,00018.594,M 
$GPGGA,192531.000,3101.6932,N,12126.3554,E,1,00,00018.594,M 
$GPGGA,192532.000,3101.6927,N,12126.3553,E,1,00,00018.191,M 
$GPGGA,192532.000,3101.6924,N,12126.3553,E,1,00,00018.191,M 
$GPGGA,192533.000,3101.6919,N,12126.3552,E,1,00,00018.476,M 
$GPGGA,192533.000,3101.6916,N,12126.3552,E,1,00,00018.476,M 
$GPGGA,192534.000,3101.6911,N,12126.3550,E,1,00,00018.946,M 
$GPGGA,192534.000,3101.6908,N,12126.3549,E,1,00,00018.946,M 
$GPGGA,192535.000,3101.6903,N,12126.3550,E,1,00,00017.399,M 
$GPGGA,192535.000,3101.6900,N,12126.3550,E,1,00,00017.399,M 
$GPGGA,192536.000,3101.6894,N,12126.3553,E,1,00,00016.802,M 
$GPGGA,192537.000,3101.6890,N,12126.3554,E,1,00,00015.406,M 
$GPGGA,192537.000,3101.6888,N,12126.3554,E,1,00,00015.406,M 
$GPGGA,192538.000,3101.6882,N,12126.3556,E,1,00,00017.734,M 
$GPGGA,192538.000,3101.6879,N,12126.3556,E,1,00,00017.734,M 
$GPGGA,192539.000,3101.6875,N,12126.3557,E,1,00,00017.900,M 
$GPGGA,192539.000,3101.6872,N,12126.3558,E,1,00,00017.900,M 
$GPGGA,192540.000,3101.6870,N,12126.3559,E,1,00,00017.331,M 
$GPGGA,192540.000,3101.6869,N,12126.3560,E,1,00,00017.331,M 
$GPGGA,192541.000,3101.6865,N,12126.3562,E,1,00,00017.477,M 
$GPGGA,192541.000,3101.6862,N,12126.3563,E,1,00,00017.477,M 
$GPGGA,192542.000,3101.6857,N,12126.3565,E,1,00,00017.971,M 
$GPGGA,192543.000,3101.6851,N,12126.3568,E,1,00,00017.936,M 
$GPGGA,192543.000,3101.6848,N,12126.3569,E,1,00,00017.936,M 
$GPGGA,192544.000,3101.6843,N,12126.3569,E,1,00,00018.104,M 
$GPGGA,192544.000,3101.6841,N,12126.3569,E,1,00,00018.104,M 
$GPGGA,192545.000,3101.6835,N,12126.3569,E,1,00,00017.684,M 
$GPGGA,192545.000,3101.6833,N,12126.3569,E,1,00,00017.683,M 
$GPGGA,192546.000,3101.6826,N,12126.3569,E,1,00,00016.474,M 
$GPGGA,192546.000,3101.6823,N,12126.3568,E,1,00,00016.474,M 
$GPGGA,192547.000,3101.6818,N,12126.3569,E,1,00,00016.877,M 
$GPGGA,192547.000,3101.6816,N,12126.3569,E,1,00,00016.877,M 
$GPGGA,192548.000,3101.6808,N,12126.3571,E,1,00,00016.665,M 
$GPGGA,192548.000,3101.6805,N,12126.3572,E,1,00,00016.665,M 
$GPGGA,192549.000,3101.6801,N,12126.3572,E,1,00,00015.984,M 
$GPGGA,192550.000,3101.6794,N,12126.3572,E,1,00,00015.948,M 
$GPGGA,192550.000,3101.6790,N,12126.3572,E,1,00,00015.948,M 
$GPGGA,192551.000,3101.6786,N,12126.3571,E,1,00,00016.263,M 
$GPGGA,192551.000,3101.6783,N,12126.3571,E,1,00,00016.263,M 
$GPGGA,192552.000,3101.6779,N,12126.3574,E,1,00,00017.214,M 
$GPGGA,192552.000,3101.6777,N,12126.3575,E,1,00,00017.214,M 
$GPGGA,192553.000,3101.6773,N,12126.3579,E,1,00,00016.189,M 
$GPGGA,192553.000,3101.6771,N,12126.3580,E,1,00,00016.189,M 
$GPGGA,192554.000,3101.6768,N,12126.3578,E,1,00,00016.253,M 
$GPGGA,192554.000,3101.6766,N,12126.3577,E,1,00,00016.253,M 
$GPGGA,192555.000,3101.6761,N,12126.3579,E,1,00,00015.601,M 
$GPGGA,192555.000,3101.6757,N,12126.3579,E,1,00,00015.601,M 
$GPGGA,192556.000,3101.6749,N,12126.3582,E,1,00,00015.270,M 
$GPGGA,192556.000,3101.6744,N,12126.3582,E,1,00,00015.270,M 
$GPGGA,192557.000,3101.6739,N,12126.3586,E,1,00,00016.135,M 
$GPGGA,192558.000,3101.6734,N,12126.3584,E,1,00,00016.182,M 
$GPGGA,192558.000,3101.6731,N,12126.3583,E,1,00,00016.182,M 
$GPGGA,192559.000,3101.6727,N,12126.3584,E,1,00,00016.537,M 
$GPGGA,192559.000,3101.6724,N,12126.3585,E,1,00,00016.537,M 
