$GPGGA,225635.000,3101.6781,N,12125.7522,E,1,00,00028.744,M 
$GPGGA,225636.000,3101.6780,N,12125.7520,E,1,00,00028.744,M 
$GPGGA,225636.000,3101.6780,N,12125.7518,E,1,00,00028.744,M 
$GPGGA,225638.000,3101.6763,N,12125.7524,E,1,00,00012.720,M 
$GPGGA,225638.000,3101.6757,N,12125.7525,E,1,00,00012.720,M 
$GPGGA,225639.000,3101.6750,N,12125.7520,E,1,00,00008.942,M 
$GPGGA,225639.000,3101.6747,N,12125.7517,E,1,00,00008.942,M 
$GPGGA,225640.000,3101.6748,N,12125.7510,E,1,00,00006.072,M 
$GPGGA,225640.000,3101.6748,N,12125.7506,E,1,00,00006.072,M 
$GPGGA,225640.000,3101.6748,N,12125.7504,E,1,00,00006.072,M 
$GPGGA,225642.000,3101.6743,N,12125.7502,E,1,00,-0000.519,M 
$GPGGA,225642.000,3101.6741,N,12125.7500,E,1,00,-0000.519,M 
$GPGGA,225643.000,3101.6740,N,12125.7496,E,1,00,00002.167,M 
$GPGGA,225643.000,3101.6739,N,12125.7493,E,1,00,00002.167,M 
$GPGGA,225644.000,3101.6740,N,12125.7488,E,1,00,00003.391,M 
$GPGGA,225644.000,3101.6739,N,12125.7485,E,1,00,00003.391,M 
$GPGGA,225645.000,3101.6740,N,12125.7479,E,1,00,00005.551,M 
$GPGGA,225645.000,3101.6740,N,12125.7475,E,1,00,00005.551,M 
$GPGGA,225646.000,3101.6736,N,12125.7472,E,1,00,00005.575,M 
$GPGGA,225647.000,3101.6732,N,12125.7463,E,1,00,00006.496,M 
$GPGGA,225647.000,3101.6730,N,12125.7459,E,1,00,00006.496,M 
$GPGGA,225648.000,3101.6726,N,12125.7453,E,1,00,00006.288,M 
$GPGGA,225648.000,3101.6724,N,12125.7450,E,1,00,00006.288,M 
$GPGGA,225648.000,3101.6724,N,12125.7448,E,1,00,00006.288,M 
$GPGGA,225648.000,3101.6723,N,12125.7446,E,1,00,00006.288,M 
$GPGGA,225649.000,3101.6721,N,12125.7442,E,1,00,00007.361,M 
$GPGGA,225649.000,3101.6720,N,12125.7440,E,1,00,00007.361,M 
$GPGGA,225651.000,3101.6723,N,12125.7430,E,1,00,00008.847,M 
$GPGGA,225651.000,3101.6723,N,12125.7425,E,1,00,00008.847,M 
$GPGGA,225651.000,3101.6723,N,12125.7422,E,1,00,00008.847,M 
$GPGGA,225653.000,3101.6718,N,12125.7413,E,1,00,00008.081,M 
$GPGGA,225653.000,3101.6716,N,12125.7408,E,1,00,00008.081,M 
$GPGGA,225654.000,3101.6716,N,12125.7399,E,1,00,00009.274,M 
$GPGGA,225654.000,3101.6715,N,12125.7395,E,1,00,00009.275,M 
$GPGGA,225654.000,3101.6715,N,12125.7392,E,1,00,00009.275,M 
$GPGGA,225654.000,3101.6715,N,12125.7390,E,1,00,00009.275,M 
$GPGGA,225656.000,3101.6713,N,12125.7385,E,1,00,00008.864,M 
$GPGGA,225657.000,3101.6714,N,12125.7381,E,1,00,00008.729,M 
$GPGGA,225657.000,3101.6713,N,12125.7379,E,1,00,00008.729,M 
$GPGGA,225658.000,3101.6711,N,12125.7370,E,1,00,00009.496,M 
$GPGGA,225658.000,3101.6709,N,12125.7366,E,1,00,00009.496,M 
$GPGGA,225659.000,3101.6707,N,12125.7361,E,1,00,00009.363,M 
$GPGGA,225659.000,3101.6705,N,12125.7358,E,1,00,00009.363,M 
$GPGGA,225700.000,3101.6704,N,12125.7352,E,1,00,00008.713,M 
$GPGGA,225701.000,3101.6701,N,12125.7346,E,1,00,00010.833,M 
$GPGGA,225701.000,3101.6700,N,12125.7343,E,1,00,00010.833,M 
$GPGGA,225702.000,3101.6700,N,12125.7341,E,1,00,00011.329,M 
$GPGGA,225702.000,3101.6700,N,12125.7340,E,1,00,00011.329,M 
$GPGGA,225703.000,3101.6698,N,12125.7334,E,1,00,00010.004,M 
$GPGGA,225703.000,3101.6697,N,12125.7331,E,1,00,00010.004,M 
$GPGGA,225704.000,3101.6693,N,12125.7324,E,1,00,00008.478,M 
$GPGGA,225704.000,3101.6691,N,12125.7321,E,1,00,00008.478,M 
$GPGGA,225705.000,3101.6688,N,12125.7318,E,1,00,00008.610,M 
$GPGGA,225706.000,3101.6685,N,12125.7315,E,1,00,00009.792,M 
$GPGGA,225706.000,3101.6683,N,12125.7313,E,1,00,00009.792,M 
$GPGGA,225707.000,3101.6685,N,12125.7307,E,1,00,00008.664,M 
$GPGGA,225707.000,3101.6686,N,12125.7303,E,1,00,00008.664,M 
$GPGGA,225708.000,3101.6684,N,12125.7298,E,1,00,00007.898,M 
$GPGGA,225708.000,3101.6684,N,12125.7295,E,1,00,00007.898,M 
$GPGGA,225709.000,3101.6681,N,12125.7292,E,1,00,00007.605,M 
$GPGGA,225710.000,3101.6680,N,12125.7283,E,1,00,00006.987,M 
$GPGGA,225710.000,3101.6679,N,12125.7278,E,1,00,00006.987,M 
$GPGGA,225711.000,3101.6676,N,12125.7273,E,1,00,00007.534,M 
$GPGGA,225711.000,3101.6674,N,12125.7269,E,1,00,00007.534,M 
$GPGGA,225712.000,3101.6674,N,12125.7263,E,1,00,00007.650,M 
$GPGGA,225712.000,3101.6674,N,12125.7259,E,1,00,00007.650,M 
$GPGGA,225713.000,3101.6672,N,12125.7257,E,1,00,00007.908,M 
$GPGGA,225713.000,3101.6671,N,12125.7255,E,1,00,00007.908,M 
$GPGGA,225714.000,3101.6670,N,12125.7247,E,1,00,00007.434,M 
$GPGGA,225715.000,3101.6668,N,12125.7242,E,1,00,00008.899,M 
$GPGGA,225715.000,3101.6667,N,12125.7238,E,1,00,00008.899,M 
$GPGGA,225716.000,3101.6665,N,12125.7230,E,1,00,00009.600,M 
$GPGGA,225716.000,3101.6664,N,12125.7226,E,1,00,00009.600,M 
$GPGGA,225717.000,3101.6661,N,12125.7218,E,1,00,00008.777,M 
$GPGGA,225717.000,3101.6659,N,12125.7213,E,1,00,00008.777,M 
$GPGGA,225718.000,3101.6659,N,12125.7207,E,1,00,00008.474,M 
$GPGGA,225718.000,3101.6659,N,12125.7204,E,1,00,00008.474,M 
$GPGGA,225719.000,3101.6658,N,12125.7197,E,1,00,00008.370,M 
$GPGGA,225719.000,3101.6658,N,12125.7193,E,1,00,00008.370,M 
$GPGGA,225720.000,3101.6655,N,12125.7192,E,1,00,00007.604,M 
$GPGGA,225721.000,3101.6655,N,12125.7188,E,1,00,00007.384,M 
$GPGGA,225721.000,3101.6654,N,12125.7185,E,1,00,00007.384,M 
$GPGGA,225722.000,3101.6652,N,12125.7180,E,1,00,00007.063,M 
$GPGGA,225722.000,3101.6651,N,12125.7176,E,1,00,00007.064,M 
$GPGGA,225723.000,3101.6648,N,12125.7171,E,1,00,00006.667,M 
$GPGGA,225723.000,3101.6646,N,12125.7167,E,1,00,00006.667,M 
$GPGGA,225724.000,3101.6643,N,12125.7163,E,1,00,00007.849,M 
$GPGGA,225724.000,3101.6642,N,12125.7160,E,1,00,00007.849,M 
$GPGGA,225725.000,3101.6641,N,12125.7157,E,1,00,00009.552,M 
$GPGGA,225726.000,3101.6638,N,12125.7151,E,1,00,00009.261,M 
$GPGGA,225726.000,3101.6636,N,12125.7148,E,1,00,00009.261,M 
$GPGGA,225727.000,3101.6636,N,12125.7143,E,1,00,00009.073,M 
$GPGGA,225727.000,3101.6635,N,12125.7140,E,1,00,00009.073,M 
$GPGGA,225728.000,3101.6633,N,12125.7137,E,1,00,00008.961,M 
$GPGGA,225728.000,3101.6632,N,12125.7135,E,1,00,00008.961,M 
$GPGGA,225729.000,3101.6633,N,12125.7128,E,1,00,00008.079,M 
$GPGGA,225729.000,3101.6633,N,12125.7124,E,1,00,00008.079,M 
$GPGGA,225730.000,3101.6634,N,12125.7120,E,1,00,00008.362,M 
$GPGGA,225731.000,3101.6632,N,12125.7113,E,1,00,00008.597,M 
$GPGGA,225731.000,3101.6631,N,12125.7109,E,1,00,00008.597,M 
$GPGGA,225732.000,3101.6630,N,12125.7106,E,1,00,00008.348,M 
$GPGGA,225732.000,3101.6630,N,12125.7104,E,1,00,00008.348,M 
$GPGGA,225733.000,3101.6629,N,12125.7100,E,1,00,00006.959,M 
$GPGGA,225733.000,3101.6628,N,12125.7097,E,1,00,00006.959,M 
$GPGGA,225734.000,3101.6626,N,12125.7090,E,1,00,00007.816,M 
$GPGGA,225734.000,3101.6625,N,12125.7086,E,1,00,00007.816,M 
$GPGGA,225735.000,3101.6623,N,12125.7080,E,1,00,00007.426,M 
$GPGGA,225736.000,3101.6622,N,12125.7073,E,1,00,00008.619,M 
$GPGGA,225736.000,3101.6621,N,12125.7069,E,1,00,00008.619,M 
$GPGGA,225737.000,3101.6620,N,12125.7064,E,1,00,00009.233,M 
$GPGGA,225737.000,3101.6620,N,12125.7062,E,1,00,00009.233,M 
$GPGGA,225738.000,3101.6616,N,12125.7057,E,1,00,00008.859,M 
$GPGGA,225738.000,3101.6615,N,12125.7055,E,1,00,00008.859,M 
$GPGGA,225739.000,3101.6612,N,12125.7049,E,1,00,00008.075,M 
$GPGGA,225739.000,3101.6610,N,12125.7046,E,1,00,00008.075,M 
$GPGGA,225740.000,3101.6611,N,12125.7041,E,1,00,00008.910,M 
$GPGGA,225740.000,3101.6611,N,12125.7038,E,1,00,00008.910,M 
$GPGGA,225741.000,3101.6609,N,12125.7033,E,1,00,00007.726,M 
$GPGGA,225742.000,3101.6606,N,12125.7027,E,1,00,00007.953,M 
$GPGGA,225742.000,3101.6605,N,12125.7023,E,1,00,00007.953,M 
$GPGGA,225743.000,3101.6605,N,12125.7015,E,1,00,00007.591,M 
$GPGGA,225743.000,3101.6604,N,12125.7011,E,1,00,00007.591,M 
$GPGGA,225744.000,3101.6606,N,12125.7004,E,1,00,00008.221,M 
$GPGGA,225744.000,3101.6607,N,12125.7000,E,1,00,00008.221,M 
$GPGGA,225745.000,3101.6602,N,12125.6994,E,1,00,00007.537,M 
$GPGGA,225745.000,3101.6599,N,12125.6991,E,1,00,00007.537,M 
$GPGGA,225746.000,3101.6597,N,12125.6985,E,1,00,00009.580,M 
$GPGGA,225746.000,3101.6595,N,12125.6981,E,1,00,00009.581,M 
$GPGGA,225747.000,3101.6592,N,12125.6976,E,1,00,00008.433,M 
$GPGGA,225748.000,3101.6591,N,12125.6969,E,1,00,00008.495,M 
$GPGGA,225748.000,3101.6590,N,12125.6965,E,1,00,00008.495,M 
$GPGGA,225749.000,3101.6587,N,12125.6963,E,1,00,00006.982,M 
$GPGGA,225749.000,3101.6585,N,12125.6961,E,1,00,00006.982,M 
$GPGGA,225750.000,3101.6582,N,12125.6957,E,1,00,00007.753,M 
$GPGGA,225750.000,3101.6580,N,12125.6955,E,1,00,00007.753,M 
$GPGGA,225751.000,3101.6578,N,12125.6951,E,1,00,00007.762,M 
$GPGGA,225751.000,3101.6577,N,12125.6949,E,1,00,00007.762,M 
$GPGGA,225752.000,3101.6578,N,12125.6946,E,1,00,00007.434,M 
$GPGGA,225752.000,3101.6578,N,12125.6944,E,1,00,00007.434,M 
$GPGGA,225753.000,3101.6577,N,12125.6936,E,1,00,00007.563,M 
$GPGGA,225754.000,3101.6576,N,12125.6927,E,1,00,00007.242,M 
$GPGGA,225754.000,3101.6575,N,12125.6922,E,1,00,00007.242,M 
$GPGGA,225755.000,3101.6574,N,12125.6915,E,1,00,00007.818,M 
$GPGGA,225755.000,3101.6573,N,12125.6911,E,1,00,00007.818,M 
$GPGGA,225756.000,3101.6571,N,12125.6908,E,1,00,00007.131,M 
$GPGGA,225756.000,3101.6570,N,12125.6905,E,1,00,00007.131,M 
$GPGGA,225757.000,3101.6568,N,12125.6900,E,1,00,00007.372,M 
$GPGGA,225757.000,3101.6566,N,12125.6897,E,1,00,00007.372,M 
$GPGGA,225758.000,3101.6564,N,12125.6894,E,1,00,00007.224,M 
$GPGGA,225758.000,3101.6563,N,12125.6892,E,1,00,00007.224,M 
$GPGGA,225759.000,3101.6561,N,12125.6886,E,1,00,00008.235,M 
$GPGGA,225800.000,3101.6558,N,12125.6881,E,1,00,00007.948,M 
$GPGGA,225800.000,3101.6557,N,12125.6878,E,1,00,00007.948,M 
$GPGGA,225801.000,3101.6553,N,12125.6872,E,1,00,00007.457,M 
$GPGGA,225801.000,3101.6552,N,12125.6869,E,1,00,00007.457,M 
$GPGGA,225802.000,3101.6549,N,12125.6866,E,1,00,00007.587,M 
$GPGGA,225802.000,3101.6547,N,12125.6863,E,1,00,00007.587,M 
$GPGGA,225803.000,3101.6547,N,12125.6861,E,1,00,00007.635,M 
$GPGGA,225803.000,3101.6547,N,12125.6860,E,1,00,00007.635,M 
$GPGGA,225804.000,3101.6546,N,12125.6851,E,1,00,00007.455,M 
$GPGGA,225805.000,3101.6548,N,12125.6842,E,1,00,00007.549,M 
$GPGGA,225805.000,3101.6548,N,12125.6838,E,1,00,00007.549,M 
$GPGGA,225806.000,3101.6548,N,12125.6829,E,1,00,00006.813,M 
$GPGGA,225806.000,3101.6547,N,12125.6824,E,1,00,00006.813,M 
$GPGGA,225807.000,3101.6547,N,12125.6824,E,1,00,00006.305,M 
$GPGGA,225807.000,3101.6546,N,12125.6823,E,1,00,00006.305,M 
$GPGGA,225808.000,3101.6544,N,12125.6819,E,1,00,00007.514,M 
$GPGGA,225809.000,3101.6540,N,12125.6813,E,1,00,00007.275,M 
$GPGGA,225809.000,3101.6539,N,12125.6810,E,1,00,00007.275,M 
$GPGGA,225810.000,3101.6535,N,12125.6804,E,1,00,00008.191,M 
$GPGGA,225810.000,3101.6533,N,12125.6801,E,1,00,00008.191,M 
$GPGGA,225811.000,3101.6532,N,12125.6798,E,1,00,00008.574,M 
$GPGGA,225811.000,3101.6531,N,12125.6795,E,1,00,00008.574,M 
$GPGGA,225812.000,3101.6528,N,12125.6791,E,1,00,00008.734,M 
$GPGGA,225812.000,3101.6527,N,12125.6789,E,1,00,00008.734,M 
$GPGGA,225813.000,3101.6525,N,12125.6787,E,1,00,00008.684,M 
$GPGGA,225814.000,3101.6518,N,12125.6786,E,1,00,00008.041,M 
$GPGGA,225821.000,3101.6514,N,12125.6771,E,1,00,00006.299,M 
$GPGGA,225822.000,3101.6512,N,12125.6763,E,1,00,00006.056,M 
$GPGGA,225822.000,3101.6511,N,12125.6758,E,1,00,00006.056,M 
$GPGGA,225823.000,3101.6510,N,12125.6754,E,1,00,00006.565,M 
$GPGGA,225823.000,3101.6509,N,12125.6752,E,1,00,00006.565,M 
$GPGGA,225824.000,3101.6504,N,12125.6749,E,1,00,00007.950,M 
$GPGGA,225824.000,3101.6502,N,12125.6747,E,1,00,00007.950,M 
$GPGGA,225825.000,3101.6503,N,12125.6738,E,1,00,00006.785,M 
$GPGGA,225826.000,3101.6501,N,12125.6734,E,1,00,00008.352,M 
$GPGGA,225826.000,3101.6500,N,12125.6731,E,1,00,00008.352,M 
$GPGGA,225827.000,3101.6499,N,12125.6725,E,1,00,00006.721,M 
$GPGGA,225827.000,3101.6499,N,12125.6722,E,1,00,00006.721,M 
$GPGGA,225828.000,3101.6501,N,12125.6716,E,1,00,00004.492,M 
$GPGGA,225828.000,3101.6501,N,12125.6714,E,1,00,00004.492,M 
$GPGGA,225829.000,3101.6500,N,12125.6710,E,1,00,00006.602,M 
$GPGGA,225829.000,3101.6500,N,12125.6707,E,1,00,00006.602,M 
$GPGGA,225830.000,3101.6502,N,12125.6704,E,1,00,00008.353,M 
$GPGGA,225830.000,3101.6503,N,12125.6701,E,1,00,00008.353,M 
$GPGGA,225831.000,3101.6498,N,12125.6701,E,1,00,00010.386,M 
$GPGGA,225832.000,3101.6495,N,12125.6699,E,1,00,00012.249,M 
$GPGGA,225832.000,3101.6493,N,12125.6697,E,1,00,00012.249,M 
$GPGGA,225833.000,3101.6491,N,12125.6691,E,1,00,00014.774,M 
$GPGGA,225833.000,3101.6490,N,12125.6688,E,1,00,00014.774,M 
$GPGGA,225834.000,3101.6488,N,12125.6683,E,1,00,00016.268,M 
$GPGGA,225834.000,3101.6487,N,12125.6680,E,1,00,00016.268,M 
$GPGGA,225835.000,3101.6487,N,12125.6680,E,1,00,00015.377,M 
$GPGGA,225835.000,3101.6487,N,12125.6679,E,1,00,00015.377,M 
$GPGGA,225836.000,3101.6486,N,12125.6678,E,1,00,00015.973,M 
$GPGGA,225836.000,3101.6485,N,12125.6677,E,1,00,00015.973,M 
$GPGGA,225837.000,3101.6484,N,12125.6677,E,1,00,00014.718,M 
$GPGGA,225838.000,3101.6484,N,12125.6675,E,1,00,00014.913,M 
$GPGGA,225838.000,3101.6483,N,12125.6673,E,1,00,00014.913,M 
$GPGGA,225839.000,3101.6483,N,12125.6672,E,1,00,00015.641,M 
$GPGGA,225839.000,3101.6483,N,12125.6670,E,1,00,00015.641,M 
$GPGGA,225840.000,3101.6483,N,12125.6668,E,1,00,00016.572,M 
$GPGGA,225840.000,3101.6482,N,12125.6666,E,1,00,00016.572,M 
$GPGGA,225841.000,3101.6482,N,12125.6664,E,1,00,00017.564,M 
$GPGGA,225841.000,3101.6482,N,12125.6662,E,1,00,00017.564,M 
$GPGGA,225842.000,3101.6482,N,12125.6657,E,1,00,00018.501,M 
$GPGGA,225842.000,3101.6481,N,12125.6654,E,1,00,00018.501,M 
$GPGGA,225843.000,3101.6481,N,12125.6650,E,1,00,00019.596,M 
$GPGGA,225844.000,3101.6481,N,12125.6646,E,1,00,00020.741,M 
$GPGGA,225844.000,3101.6481,N,12125.6643,E,1,00,00020.741,M 
$GPGGA,225845.000,3101.6482,N,12125.6638,E,1,00,00021.935,M 
$GPGGA,225845.000,3101.6482,N,12125.6636,E,1,00,00021.935,M 
$GPGGA,225846.000,3101.6482,N,12125.6631,E,1,00,00023.179,M 
$GPGGA,225846.000,3101.6482,N,12125.6628,E,1,00,00023.179,M 
$GPGGA,225847.000,3101.6483,N,12125.6624,E,1,00,00024.473,M 
$GPGGA,225847.000,3101.6483,N,12125.6621,E,1,00,00024.473,M 
$GPGGA,225848.000,3101.6483,N,12125.6616,E,1,00,00025.816,M 
$GPGGA,225848.000,3101.6483,N,12125.6613,E,1,00,00025.816,M 
$GPGGA,225849.000,3101.6476,N,12125.6595,E,1,00,00026.974,M 
$GPGGA,225849.000,3101.6472,N,12125.6587,E,1,00,00026.974,M 
$GPGGA,225850.000,3101.6471,N,12125.6581,E,1,00,00027.972,M 
$GPGGA,225851.000,3101.6470,N,12125.6566,E,1,00,00029.089,M 
$GPGGA,225853.000,3101.6460,N,12125.6552,E,1,00,00017.843,M 
$GPGGA,225854.000,3101.6462,N,12125.6534,E,1,00,00012.228,M 
$GPGGA,225854.000,3101.6463,N,12125.6526,E,1,00,00012.228,M 
$GPGGA,225855.000,3101.6459,N,12125.6515,E,1,00,00008.763,M 
$GPGGA,225855.000,3101.6457,N,12125.6510,E,1,00,00008.763,M 
$GPGGA,225856.000,3101.6454,N,12125.6504,E,1,00,00007.887,M 
$GPGGA,225856.000,3101.6453,N,12125.6501,E,1,00,00007.887,M 
$GPGGA,225857.000,3101.6456,N,12125.6494,E,1,00,00006.717,M 
$GPGGA,225857.000,3101.6458,N,12125.6489,E,1,00,00006.717,M 
$GPGGA,225858.000,3101.6461,N,12125.6479,E,1,00,00013.265,M 
$GPGGA,225858.000,3101.6462,N,12125.6474,E,1,00,00013.265,M 
$GPGGA,225859.000,3101.6458,N,12125.6467,E,1,00,00012.022,M 
$GPGGA,225859.000,3101.6457,N,12125.6463,E,1,00,00012.022,M 
$GPGGA,225900.000,3101.6449,N,12125.6462,E,1,00,00010.362,M 
$GPGGA,225900.000,3101.6446,N,12125.6460,E,1,00,00010.362,M 
$GPGGA,225901.000,3101.6444,N,12125.6453,E,1,00,00010.524,M 
$GPGGA,225902.000,3101.6438,N,12125.6448,E,1,00,00009.023,M 
$GPGGA,225902.000,3101.6436,N,12125.6445,E,1,00,00009.023,M 
$GPGGA,225903.000,3101.6433,N,12125.6440,E,1,00,00008.916,M 
$GPGGA,225903.000,3101.6431,N,12125.6436,E,1,00,00008.916,M 
$GPGGA,225904.000,3101.6432,N,12125.6427,E,1,00,00007.915,M 
$GPGGA,225904.000,3101.6433,N,12125.6422,E,1,00,00007.915,M 
$GPGGA,225905.000,3101.6432,N,12125.6416,E,1,00,00009.519,M 
$GPGGA,225905.000,3101.6431,N,12125.6413,E,1,00,00009.519,M 
$GPGGA,225906.000,3101.6429,N,12125.6406,E,1,00,00010.149,M 
$GPGGA,225906.000,3101.6428,N,12125.6403,E,1,00,00010.149,M 
$GPGGA,225907.000,3101.6427,N,12125.6396,E,1,00,00010.351,M 
$GPGGA,225908.000,3101.6424,N,12125.6392,E,1,00,00009.364,M 
$GPGGA,225908.000,3101.6422,N,12125.6389,E,1,00,00009.364,M 
$GPGGA,225909.000,3101.6420,N,12125.6381,E,1,00,00010.454,M 
$GPGGA,225909.000,3101.6419,N,12125.6377,E,1,00,00010.454,M 
$GPGGA,225910.000,3101.6416,N,12125.6372,E,1,00,00010.401,M 
$GPGGA,225910.000,3101.6415,N,12125.6369,E,1,00,00010.401,M 
$GPGGA,225911.000,3101.6407,N,12125.6368,E,1,00,00009.755,M 
$GPGGA,225911.000,3101.6403,N,12125.6366,E,1,00,00009.755,M 
$GPGGA,225912.000,3101.6404,N,12125.6360,E,1,00,00009.764,M 
$GPGGA,225912.000,3101.6404,N,12125.6356,E,1,00,00009.764,M 
$GPGGA,225913.000,3101.6402,N,12125.6352,E,1,00,00008.625,M 
$GPGGA,225914.000,3101.6398,N,12125.6347,E,1,00,00009.411,M 
$GPGGA,225914.000,3101.6396,N,12125.6344,E,1,00,00009.411,M 
$GPGGA,225915.000,3101.6393,N,12125.6340,E,1,00,00008.660,M 
$GPGGA,225915.000,3101.6392,N,12125.6337,E,1,00,00008.660,M 
$GPGGA,225916.000,3101.6388,N,12125.6332,E,1,00,00009.219,M 
$GPGGA,225916.000,3101.6387,N,12125.6330,E,1,00,00009.219,M 
$GPGGA,225917.000,3101.6386,N,12125.6323,E,1,00,00008.856,M 
$GPGGA,225917.000,3101.6385,N,12125.6320,E,1,00,00008.856,M 
$GPGGA,225918.000,3101.6382,N,12125.6314,E,1,00,00008.178,M 
$GPGGA,225919.000,3101.6380,N,12125.6305,E,1,00,00009.276,M 
$GPGGA,225919.000,3101.6379,N,12125.6300,E,1,00,00009.276,M 
$GPGGA,225920.000,3101.6381,N,12125.6295,E,1,00,00009.728,M 
$GPGGA,225920.000,3101.6382,N,12125.6291,E,1,00,00009.728,M 
$GPGGA,225921.000,3101.6381,N,12125.6283,E,1,00,00008.231,M 
$GPGGA,225921.000,3101.6381,N,12125.6279,E,1,00,00008.231,M 
$GPGGA,225922.000,3101.6380,N,12125.6278,E,1,00,00008.691,M 
$GPGGA,225922.000,3101.6380,N,12125.6276,E,1,00,00008.691,M 
$GPGGA,225923.000,3101.6380,N,12125.6271,E,1,00,00008.403,M 
$GPGGA,225924.000,3101.6372,N,12125.6268,E,1,00,00008.261,M 
$GPGGA,225924.000,3101.6369,N,12125.6266,E,1,00,00008.261,M 
$GPGGA,225925.000,3101.6368,N,12125.6262,E,1,00,00007.354,M 
$GPGGA,225925.000,3101.6367,N,12125.6259,E,1,00,00007.354,M 
$GPGGA,225926.000,3101.6366,N,12125.6254,E,1,00,00007.121,M 
$GPGGA,225926.000,3101.6366,N,12125.6251,E,1,00,00007.121,M 
$GPGGA,225927.000,3101.6363,N,12125.6245,E,1,00,00006.509,M 
$GPGGA,225927.000,3101.6362,N,12125.6242,E,1,00,00006.509,M 
$GPGGA,225928.000,3101.6360,N,12125.6235,E,1,00,00007.439,M 
$GPGGA,225928.000,3101.6359,N,12125.6232,E,1,00,00007.439,M 
$GPGGA,225929.000,3101.6358,N,12125.6226,E,1,00,00007.385,M 
$GPGGA,225930.000,3101.6356,N,12125.6221,E,1,00,00006.282,M 
$GPGGA,225930.000,3101.6356,N,12125.6218,E,1,00,00006.282,M 
$GPGGA,225931.000,3101.6355,N,12125.6211,E,1,00,00006.388,M 
$GPGGA,225931.000,3101.6355,N,12125.6208,E,1,00,00006.388,M 
$GPGGA,225932.000,3101.6352,N,12125.6202,E,1,00,00006.326,M 
$GPGGA,225932.000,3101.6351,N,12125.6199,E,1,00,00006.326,M 
$GPGGA,225933.000,3101.6349,N,12125.6194,E,1,00,00005.942,M 
$GPGGA,225934.000,3101.6348,N,12125.6188,E,1,00,00007.134,M 
$GPGGA,225934.000,3101.6348,N,12125.6185,E,1,00,00007.134,M 
$GPGGA,225935.000,3101.6346,N,12125.6179,E,1,00,00006.491,M 
$GPGGA,225935.000,3101.6345,N,12125.6175,E,1,00,00006.492,M 
$GPGGA,225936.000,3101.6345,N,12125.6170,E,1,00,00006.426,M 
$GPGGA,225936.000,3101.6345,N,12125.6167,E,1,00,00006.426,M 
$GPGGA,225937.000,3101.6345,N,12125.6160,E,1,00,00008.219,M 
$GPGGA,225937.000,3101.6345,N,12125.6157,E,1,00,00008.219,M 
$GPGGA,225938.000,3101.6345,N,12125.6150,E,1,00,00007.494,M 
$GPGGA,225939.000,3101.6345,N,12125.6144,E,1,00,00009.207,M 
$GPGGA,225939.000,3101.6345,N,12125.6140,E,1,00,00009.207,M 
$GPGGA,225940.000,3101.6345,N,12125.6136,E,1,00,00008.481,M 
$GPGGA,225940.000,3101.6345,N,12125.6133,E,1,00,00008.481,M 
$GPGGA,225941.000,3101.6342,N,12125.6127,E,1,00,00008.764,M 
$GPGGA,225941.000,3101.6341,N,12125.6124,E,1,00,00008.764,M 
$GPGGA,225942.000,3101.6337,N,12125.6120,E,1,00,00007.671,M 
$GPGGA,225942.000,3101.6336,N,12125.6118,E,1,00,00007.671,M 
$GPGGA,225943.000,3101.6334,N,12125.6111,E,1,00,00009.742,M 
$GPGGA,225943.000,3101.6333,N,12125.6107,E,1,00,00009.742,M 
$GPGGA,225944.000,3101.6333,N,12125.6102,E,1,00,00010.153,M 
$GPGGA,225945.000,3101.6331,N,12125.6095,E,1,00,00008.817,M 
$GPGGA,225945.000,3101.6331,N,12125.6091,E,1,00,00008.818,M 
$GPGGA,225946.000,3101.6329,N,12125.6085,E,1,00,00009.250,M 
$GPGGA,225946.000,3101.6329,N,12125.6082,E,1,00,00009.250,M 
$GPGGA,225947.000,3101.6328,N,12125.6075,E,1,00,00008.340,M 
$GPGGA,225947.000,3101.6327,N,12125.6072,E,1,00,00008.340,M 
$GPGGA,225948.000,3101.6324,N,12125.6064,E,1,00,00009.420,M 
$GPGGA,225948.000,3101.6323,N,12125.6060,E,1,00,00009.420,M 
$GPGGA,225949.000,3101.6322,N,12125.6056,E,1,00,00009.223,M 
$GPGGA,225950.000,3101.6321,N,12125.6049,E,1,00,00008.445,M 
$GPGGA,225950.000,3101.6320,N,12125.6046,E,1,00,00008.445,M 
$GPGGA,225951.000,3101.6318,N,12125.6041,E,1,00,00009.284,M 
$GPGGA,225951.000,3101.6317,N,12125.6038,E,1,00,00009.284,M 
$GPGGA,225952.000,3101.6316,N,12125.6033,E,1,00,00009.587,M 
$GPGGA,225952.000,3101.6316,N,12125.6030,E,1,00,00009.587,M 
$GPGGA,225953.000,3101.6312,N,12125.6027,E,1,00,00010.948,M 
$GPGGA,225954.000,3101.6312,N,12125.6020,E,1,00,00010.308,M 
$GPGGA,225954.000,3101.6312,N,12125.6017,E,1,00,00010.308,M 
$GPGGA,225958.000,3101.6319,N,12125.6009,E,1,00,00012.341,M 
$GPGGA,225959.000,3101.6322,N,12125.6002,E,1,00,00012.576,M 
$GPGGA,230004.000,3101.6320,N,12125.6013,E,1,00,00012.461,M 
$GPGGA,230004.000,3101.6320,N,12125.6017,E,1,00,00012.460,M 
$GPGGA,230005.000,3101.6319,N,12125.6021,E,1,00,00014.390,M 
$GPGGA,230005.000,3101.6320,N,12125.6022,E,1,00,00014.390,M 
$GPGGA,230006.000,3101.6321,N,12125.6022,E,1,00,00014.694,M 
$GPGGA,230007.000,3101.6322,N,12125.6021,E,1,00,00015.809,M 
$GPGGA,230007.000,3101.6324,N,12125.6020,E,1,00,00015.809,M 
$GPGGA,230008.000,3101.6328,N,12125.6015,E,1,00,00015.622,M 
$GPGGA,230008.000,3101.6331,N,12125.6013,E,1,00,00015.622,M 
$GPGGA,230009.000,3101.6338,N,12125.6011,E,1,00,00016.637,M 
$GPGGA,230009.000,3101.6341,N,12125.6010,E,1,00,00016.637,M 
$GPGGA,230010.000,3101.6349,N,12125.6009,E,1,00,00017.379,M 
$GPGGA,230010.000,3101.6353,N,12125.6009,E,1,00,00017.379,M 
$GPGGA,230011.000,3101.6356,N,12125.6011,E,1,00,00016.873,M 
$GPGGA,230011.000,3101.6358,N,12125.6012,E,1,00,00016.873,M 
$GPGGA,230012.000,3101.6362,N,12125.6009,E,1,00,00018.459,M 
$GPGGA,230012.000,3101.6365,N,12125.6008,E,1,00,00018.459,M 
$GPGGA,230013.000,3101.6372,N,12125.6003,E,1,00,00016.298,M 
$GPGGA,230014.000,3101.6382,N,12125.5998,E,1,00,00015.802,M 
$GPGGA,230014.000,3101.6387,N,12125.5997,E,1,00,00015.803,M 
$GPGGA,230015.000,3101.6394,N,12125.5990,E,1,00,00014.409,M 
$GPGGA,230015.000,3101.6398,N,12125.5988,E,1,00,00014.409,M 
$GPGGA,230016.000,3101.6401,N,12125.5985,E,1,00,00014.349,M 
$GPGGA,230016.000,3101.6403,N,12125.5984,E,1,00,00014.349,M 
$GPGGA,230017.000,3101.6411,N,12125.5979,E,1,00,00013.164,M 
$GPGGA,230017.000,3101.6414,N,12125.5978,E,1,00,00013.164,M 
$GPGGA,230018.000,3101.6423,N,12125.5976,E,1,00,00014.456,M 
$GPGGA,230018.000,3101.6427,N,12125.5975,E,1,00,00014.456,M 
$GPGGA,230019.000,3101.6433,N,12125.5971,E,1,00,00014.832,M 
$GPGGA,230020.000,3101.6442,N,12125.5965,E,1,00,00012.644,M 
$GPGGA,230020.000,3101.6446,N,12125.5963,E,1,00,00012.644,M 
$GPGGA,230021.000,3101.6450,N,12125.5965,E,1,00,00010.835,M 
$GPGGA,230021.000,3101.6453,N,12125.5966,E,1,00,00010.835,M 
$GPGGA,230022.000,3101.6456,N,12125.5962,E,1,00,00009.850,M 
$GPGGA,230022.000,3101.6458,N,12125.5960,E,1,00,00009.850,M 
$GPGGA,230023.000,3101.6462,N,12125.5961,E,1,00,00010.517,M 
$GPGGA,230023.000,3101.6465,N,12125.5961,E,1,00,00010.517,M 
$GPGGA,230024.000,3101.6468,N,12125.5960,E,1,00,00008.602,M 
$GPGGA,230024.000,3101.6471,N,12125.5960,E,1,00,00008.602,M 
$GPGGA,230025.000,3101.6472,N,12125.5960,E,1,00,00009.282,M 
$GPGGA,230026.000,3101.6477,N,12125.5961,E,1,00,00009.039,M 
$GPGGA,230026.000,3101.6480,N,12125.5962,E,1,00,00009.039,M 
$GPGGA,230027.000,3101.6487,N,12125.5963,E,1,00,00011.226,M 
$GPGGA,230027.000,3101.6490,N,12125.5963,E,1,00,00011.226,M 
$GPGGA,230028.000,3101.6493,N,12125.5964,E,1,00,00011.727,M 
$GPGGA,230028.000,3101.6495,N,12125.5964,E,1,00,00011.727,M 
$GPGGA,230029.000,3101.6498,N,12125.5962,E,1,00,00012.871,M 
$GPGGA,230029.000,3101.6500,N,12125.5961,E,1,00,00012.871,M 
$GPGGA,230030.000,3101.6506,N,12125.5959,E,1,00,00011.084,M 
$GPGGA,230030.000,3101.6509,N,12125.5957,E,1,00,00011.084,M 
$GPGGA,230031.000,3101.6513,N,12125.5953,E,1,00,00010.466,M 
$GPGGA,230031.000,3101.6516,N,12125.5951,E,1,00,00010.466,M 
$GPGGA,230032.000,3101.6518,N,12125.5949,E,1,00,00009.502,M 
$GPGGA,230033.000,3101.6521,N,12125.5948,E,1,00,00009.038,M 
$GPGGA,230033.000,3101.6523,N,12125.5948,E,1,00,00009.039,M 
$GPGGA,230034.000,3101.6529,N,12125.5943,E,1,00,00010.037,M 
$GPGGA,230034.000,3101.6532,N,12125.5941,E,1,00,00010.038,M 
$GPGGA,230035.000,3101.6536,N,12125.5940,E,1,00,00010.089,M 
$GPGGA,230035.000,3101.6538,N,12125.5939,E,1,00,00010.089,M 
$GPGGA,230036.000,3101.6541,N,12125.5934,E,1,00,00010.550,M 
$GPGGA,230036.000,3101.6544,N,12125.5932,E,1,00,00010.550,M 
$GPGGA,230037.000,3101.6550,N,12125.5930,E,1,00,00009.654,M 
$GPGGA,230037.000,3101.6553,N,12125.5929,E,1,00,00009.654,M 
$GPGGA,230038.000,3101.6559,N,12125.5926,E,1,00,00009.893,M 
$GPGGA,230038.000,3101.6563,N,12125.5925,E,1,00,00009.893,M 
$GPGGA,230039.000,3101.6568,N,12125.5921,E,1,00,00009.033,M 
$GPGGA,230040.000,3101.6576,N,12125.5916,E,1,00,00009.255,M 
$GPGGA,230040.000,3101.6579,N,12125.5913,E,1,00,00009.255,M 
$GPGGA,230041.000,3101.6582,N,12125.5908,E,1,00,00009.373,M 
$GPGGA,230041.000,3101.6584,N,12125.5905,E,1,00,00009.373,M 
$GPGGA,230042.000,3101.6589,N,12125.5906,E,1,00,00008.703,M 
$GPGGA,230042.000,3101.6591,N,12125.5906,E,1,00,00008.703,M 
$GPGGA,230043.000,3101.6599,N,12125.5904,E,1,00,00007.801,M 
$GPGGA,230043.000,3101.6603,N,12125.5902,E,1,00,00007.801,M 
$GPGGA,230044.000,3101.6605,N,12125.5902,E,1,00,00006.855,M 
$GPGGA,230044.000,3101.6607,N,12125.5901,E,1,00,00006.855,M 
$GPGGA,230045.000,3101.6613,N,12125.5900,E,1,00,00005.795,M 
$GPGGA,230045.000,3101.6616,N,12125.5899,E,1,00,00005.795,M 
$GPGGA,230046.000,3101.6624,N,12125.5900,E,1,00,00006.873,M 
$GPGGA,230047.000,3101.6630,N,12125.5900,E,1,00,00006.395,M 
$GPGGA,230047.000,3101.6633,N,12125.5900,E,1,00,00006.395,M 
$GPGGA,230048.000,3101.6637,N,12125.5896,E,1,00,00007.769,M 
$GPGGA,230048.000,3101.6639,N,12125.5895,E,1,00,00007.769,M 
$GPGGA,230049.000,3101.6645,N,12125.5894,E,1,00,00008.078,M 
$GPGGA,230049.000,3101.6647,N,12125.5894,E,1,00,00008.078,M 
$GPGGA,230050.000,3101.6650,N,12125.5890,E,1,00,00007.296,M 
$GPGGA,230050.000,3101.6652,N,12125.5889,E,1,00,00007.296,M 
$GPGGA,230051.000,3101.6656,N,12125.5891,E,1,00,00009.203,M 
$GPGGA,230051.000,3101.6659,N,12125.5892,E,1,00,00009.203,M 
$GPGGA,230052.000,3101.6664,N,12125.5889,E,1,00,00008.958,M 
$GPGGA,230053.000,3101.6670,N,12125.5886,E,1,00,00009.096,M 
$GPGGA,230053.000,3101.6673,N,12125.5884,E,1,00,00009.096,M 
$GPGGA,230054.000,3101.6675,N,12125.5884,E,1,00,00008.149,M 
$GPGGA,230054.000,3101.6677,N,12125.5883,E,1,00,00008.149,M 
$GPGGA,230055.000,3101.6678,N,12125.5884,E,1,00,00008.219,M 
$GPGGA,230055.000,3101.6680,N,12125.5884,E,1,00,00008.219,M 
$GPGGA,230056.000,3101.6685,N,12125.5880,E,1,00,00007.823,M 
$GPGGA,230056.000,3101.6688,N,12125.5878,E,1,00,00007.823,M 
$GPGGA,230057.000,3101.6694,N,12125.5880,E,1,00,00006.884,M 
$GPGGA,230057.000,3101.6697,N,12125.5880,E,1,00,00006.884,M 
$GPGGA,230058.000,3101.6705,N,12125.5880,E,1,00,00007.795,M 
$GPGGA,230058.000,3101.6710,N,12125.5880,E,1,00,00007.795,M 
$GPGGA,230059.000,3101.6711,N,12125.5878,E,1,00,00008.286,M 
$GPGGA,230100.000,3101.6715,N,12125.5877,E,1,00,00008.829,M 
$GPGGA,230100.000,3101.6717,N,12125.5877,E,1,00,00008.829,M 
$GPGGA,230101.000,3101.6720,N,12125.5875,E,1,00,00009.158,M 
$GPGGA,230101.000,3101.6722,N,12125.5874,E,1,00,00009.158,M 
$GPGGA,230102.000,3101.6724,N,12125.5876,E,1,00,00010.827,M 
$GPGGA,230102.000,3101.6726,N,12125.5876,E,1,00,00010.827,M 
$GPGGA,230103.000,3101.6730,N,12125.5870,E,1,00,00010.182,M 
$GPGGA,230103.000,3101.6733,N,12125.5868,E,1,00,00010.182,M 
$GPGGA,230104.000,3101.6738,N,12125.5864,E,1,00,00010.635,M 
$GPGGA,230104.000,3101.6741,N,12125.5862,E,1,00,00010.636,M 
$GPGGA,230105.000,3101.6748,N,12125.5859,E,1,00,00011.389,M 
$GPGGA,230105.000,3101.6751,N,12125.5858,E,1,00,00011.389,M 
$GPGGA,230106.000,3101.6757,N,12125.5857,E,1,00,00011.171,M 
$GPGGA,230106.000,3101.6761,N,12125.5857,E,1,00,00011.171,M 
$GPGGA,230107.000,3101.6767,N,12125.5851,E,1,00,00010.068,M 
$GPGGA,230108.000,3101.6775,N,12125.5849,E,1,00,00009.663,M 
$GPGGA,230108.000,3101.6779,N,12125.5849,E,1,00,00009.663,M 
$GPGGA,230109.000,3101.6783,N,12125.5847,E,1,00,00008.837,M 
$GPGGA,230109.000,3101.6786,N,12125.5846,E,1,00,00008.837,M 
$GPGGA,230110.000,3101.6790,N,12125.5846,E,1,00,00010.821,M 
$GPGGA,230110.000,3101.6792,N,12125.5846,E,1,00,00010.822,M 
$GPGGA,230111.000,3101.6795,N,12125.5848,E,1,00,00010.817,M 
$GPGGA,230111.000,3101.6797,N,12125.5849,E,1,00,00010.817,M 
$GPGGA,230112.000,3101.6800,N,12125.5850,E,1,00,00012.197,M 
$GPGGA,230112.000,3101.6802,N,12125.5849,E,1,00,00012.197,M 
$GPGGA,230113.000,3101.6808,N,12125.5846,E,1,00,00010.266,M 
$GPGGA,230113.000,3101.6812,N,12125.5844,E,1,00,00010.266,M 
$GPGGA,230114.000,3101.6820,N,12125.5841,E,1,00,00010.125,M 
$GPGGA,230114.000,3101.6825,N,12125.5840,E,1,00,00010.125,M 
$GPGGA,230115.000,3101.6830,N,12125.5838,E,1,00,00011.833,M 
$GPGGA,230115.000,3101.6833,N,12125.5838,E,1,00,00011.833,M 
$GPGGA,230116.000,3101.6840,N,12125.5834,E,1,00,00010.388,M 
$GPGGA,230116.000,3101.6843,N,12125.5833,E,1,00,00010.388,M 
$GPGGA,230117.000,3101.6848,N,12125.5830,E,1,00,00011.107,M 
$GPGGA,230118.000,3101.6852,N,12125.5829,E,1,00,00012.094,M 
$GPGGA,230118.000,3101.6855,N,12125.5829,E,1,00,00012.094,M 
$GPGGA,230119.000,3101.6861,N,12125.5825,E,1,00,00012.922,M 
$GPGGA,230119.000,3101.6865,N,12125.5823,E,1,00,00012.922,M 
$GPGGA,230120.000,3101.6871,N,12125.5821,E,1,00,00014.068,M 
$GPGGA,230120.000,3101.6874,N,12125.5820,E,1,00,00014.069,M 
$GPGGA,230121.000,3101.6881,N,12125.5815,E,1,00,00013.535,M 
$GPGGA,230121.000,3101.6885,N,12125.5813,E,1,00,00013.535,M 
$GPGGA,230122.000,3101.6888,N,12125.5812,E,1,00,00011.216,M 
$GPGGA,230122.000,3101.6890,N,12125.5811,E,1,00,00011.216,M 
$GPGGA,230123.000,3101.6893,N,12125.5813,E,1,00,00011.550,M 
$GPGGA,230123.000,3101.6895,N,12125.5814,E,1,00,00011.550,M 
$GPGGA,230124.000,3101.6899,N,12125.5816,E,1,00,00012.272,M 
$GPGGA,230124.000,3101.6902,N,12125.5816,E,1,00,00012.272,M 
$GPGGA,230125.000,3101.6907,N,12125.5813,E,1,00,00011.637,M 
$GPGGA,230126.000,3101.6912,N,12125.5812,E,1,00,00011.835,M 
$GPGGA,230126.000,3101.6914,N,12125.5811,E,1,00,00011.835,M 
$GPGGA,230127.000,3101.6915,N,12125.5813,E,1,00,00014.150,M 
$GPGGA,230127.000,3101.6916,N,12125.5814,E,1,00,00014.150,M 
$GPGGA,230128.000,3101.6917,N,12125.5814,E,1,00,00013.886,M 
$GPGGA,230128.000,3101.6919,N,12125.5814,E,1,00,00013.886,M 
$GPGGA,230129.000,3101.6926,N,12125.5812,E,1,00,00013.776,M 
$GPGGA,230129.000,3101.6930,N,12125.5811,E,1,00,00013.776,M 
$GPGGA,230130.000,3101.6937,N,12125.5804,E,1,00,00013.356,M 
$GPGGA,230130.000,3101.6941,N,12125.5801,E,1,00,00013.356,M 
$GPGGA,230131.000,3101.6947,N,12125.5795,E,1,00,00012.072,M 
$GPGGA,230131.000,3101.6950,N,12125.5793,E,1,00,00012.073,M 
$GPGGA,230132.000,3101.6955,N,12125.5794,E,1,00,00011.292,M 
$GPGGA,230132.000,3101.6958,N,12125.5794,E,1,00,00011.292,M 
$GPGGA,230133.000,3101.6964,N,12125.5790,E,1,00,00010.578,M 
$GPGGA,230134.000,3101.6970,N,12125.5790,E,1,00,00011.590,M 
$GPGGA,230134.000,3101.6973,N,12125.5790,E,1,00,00011.590,M 
$GPGGA,230135.000,3101.6977,N,12125.5786,E,1,00,00010.832,M 
$GPGGA,230135.000,3101.6980,N,12125.5784,E,1,00,00010.832,M 
$GPGGA,230136.000,3101.6983,N,12125.5781,E,1,00,00012.214,M 
$GPGGA,230136.000,3101.6986,N,12125.5779,E,1,00,00012.214,M 
$GPGGA,230137.000,3101.6990,N,12125.5781,E,1,00,00011.574,M 
$GPGGA,230137.000,3101.6992,N,12125.5781,E,1,00,00011.574,M 
$GPGGA,230138.000,3101.6998,N,12125.5781,E,1,00,00012.053,M 
$GPGGA,230138.000,3101.7001,N,12125.5781,E,1,00,00012.053,M 
$GPGGA,230139.000,3101.7005,N,12125.5778,E,1,00,00011.248,M 
$GPGGA,230139.000,3101.7007,N,12125.5777,E,1,00,00011.248,M 
$GPGGA,230140.000,3101.7010,N,12125.5777,E,1,00,00011.617,M 
$GPGGA,230141.000,3101.7018,N,12125.5774,E,1,00,00011.536,M 
$GPGGA,230141.000,3101.7022,N,12125.5773,E,1,00,00011.536,M 
$GPGGA,230142.000,3101.7028,N,12125.5769,E,1,00,00012.041,M 
$GPGGA,230142.000,3101.7032,N,12125.5768,E,1,00,00012.041,M 
$GPGGA,230143.000,3101.7036,N,12125.5764,E,1,00,00011.383,M 
$GPGGA,230143.000,3101.7039,N,12125.5762,E,1,00,00011.383,M 
$GPGGA,230144.000,3101.7042,N,12125.5759,E,1,00,00012.551,M 
$GPGGA,230144.000,3101.7044,N,12125.5757,E,1,00,00012.551,M 
$GPGGA,230145.000,3101.7049,N,12125.5755,E,1,00,00011.040,M 
$GPGGA,230145.000,3101.7052,N,12125.5753,E,1,00,00011.040,M 
$GPGGA,230146.000,3101.7058,N,12125.5752,E,1,00,00012.074,M 
$GPGGA,230146.000,3101.7061,N,12125.5751,E,1,00,00012.074,M 
$GPGGA,230147.000,3101.7064,N,12125.5753,E,1,00,00011.704,M 
$GPGGA,230147.000,3101.7066,N,12125.5753,E,1,00,00011.704,M 
$GPGGA,230148.000,3101.7074,N,12125.5754,E,1,00,00011.964,M 
$GPGGA,230149.000,3101.7078,N,12125.5752,E,1,00,00013.284,M 
$GPGGA,230149.000,3101.7080,N,12125.5751,E,1,00,00013.284,M 
$GPGGA,230150.000,3101.7082,N,12125.5751,E,1,00,00012.142,M 
$GPGGA,230150.000,3101.7084,N,12125.5752,E,1,00,00012.142,M 
$GPGGA,230151.000,3101.7091,N,12125.5749,E,1,00,00013.531,M 
$GPGGA,230151.000,3101.7095,N,12125.5748,E,1,00,00013.531,M 
$GPGGA,230152.000,3101.7101,N,12125.5749,E,1,00,00014.699,M 
$GPGGA,230152.000,3101.7104,N,12125.5749,E,1,00,00014.699,M 
$GPGGA,230153.000,3101.7108,N,12125.5748,E,1,00,00013.365,M 
$GPGGA,230153.000,3101.7111,N,12125.5747,E,1,00,00013.365,M 
$GPGGA,230154.000,3101.7116,N,12125.5745,E,1,00,00012.053,M 
$GPGGA,230154.000,3101.7119,N,12125.5745,E,1,00,00012.053,M 
$GPGGA,230155.000,3101.7122,N,12125.5745,E,1,00,00010.832,M 
$GPGGA,230156.000,3101.7127,N,12125.5739,E,1,00,00010.422,M 
$GPGGA,230156.000,3101.7129,N,12125.5736,E,1,00,00010.422,M 
$GPGGA,230157.000,3101.7134,N,12125.5736,E,1,00,00010.335,M 
$GPGGA,230157.000,3101.7136,N,12125.5736,E,1,00,00010.335,M 
$GPGGA,230158.000,3101.7141,N,12125.5733,E,1,00,00009.644,M 
$GPGGA,230158.000,3101.7144,N,12125.5732,E,1,00,00009.644,M 
$GPGGA,230159.000,3101.7150,N,12125.5729,E,1,00,00010.138,M 
$GPGGA,230159.000,3101.7152,N,12125.5728,E,1,00,00010.138,M 
$GPGGA,230200.000,3101.7157,N,12125.5729,E,1,00,00010.094,M 
$GPGGA,230200.000,3101.7159,N,12125.5730,E,1,00,00010.094,M 
$GPGGA,230201.000,3101.7163,N,12125.5727,E,1,00,00012.294,M 
$GPGGA,230201.000,3101.7166,N,12125.5725,E,1,00,00012.294,M 
$GPGGA,230202.000,3101.7170,N,12125.5727,E,1,00,00013.164,M 
$GPGGA,230202.000,3101.7172,N,12125.5727,E,1,00,00013.164,M 
$GPGGA,230203.000,3101.7177,N,12125.5727,E,1,00,00013.041,M 
$GPGGA,230204.000,3101.7181,N,12125.5722,E,1,00,00011.788,M 
$GPGGA,230204.000,3101.7183,N,12125.5720,E,1,00,00011.788,M 
$GPGGA,230205.000,3101.7192,N,12125.5721,E,1,00,00012.189,M 
$GPGGA,230205.000,3101.7197,N,12125.5721,E,1,00,00012.189,M 
$GPGGA,230206.000,3101.7200,N,12125.5718,E,1,00,00012.858,M 
$GPGGA,230206.000,3101.7202,N,12125.5716,E,1,00,00012.858,M 
$GPGGA,230207.000,3101.7207,N,12125.5717,E,1,00,00013.644,M 
$GPGGA,230207.000,3101.7210,N,12125.5717,E,1,00,00013.644,M 
$GPGGA,230208.000,3101.7212,N,12125.5715,E,1,00,00015.132,M 
$GPGGA,230208.000,3101.7214,N,12125.5714,E,1,00,00015.132,M 
$GPGGA,230209.000,3101.7220,N,12125.5714,E,1,00,00013.996,M 
$GPGGA,230209.000,3101.7223,N,12125.5715,E,1,00,00013.996,M 
$GPGGA,230210.000,3101.7227,N,12125.5715,E,1,00,00015.643,M 
$GPGGA,230210.000,3101.7229,N,12125.5715,E,1,00,00015.643,M 
$GPGGA,230211.000,3101.7232,N,12125.5713,E,1,00,00016.087,M 
$GPGGA,230211.000,3101.7234,N,12125.5711,E,1,00,00016.087,M 
$GPGGA,230212.000,3101.7243,N,12125.5710,E,1,00,00015.086,M 
$GPGGA,230213.000,3101.7248,N,12125.5708,E,1,00,00014.737,M 
$GPGGA,230213.000,3101.7251,N,12125.5707,E,1,00,00014.738,M 
$GPGGA,230214.000,3101.7255,N,12125.5705,E,1,00,00014.830,M 
$GPGGA,230214.000,3101.7258,N,12125.5705,E,1,00,00014.830,M 
$GPGGA,230215.000,3101.7262,N,12125.5703,E,1,00,00015.857,M 
$GPGGA,230215.000,3101.7264,N,12125.5702,E,1,00,00015.857,M 
$GPGGA,230216.000,3101.7271,N,12125.5698,E,1,00,00015.657,M 
$GPGGA,230216.000,3101.7275,N,12125.5696,E,1,00,00015.657,M 
$GPGGA,230217.000,3101.7282,N,12125.5697,E,1,00,00014.592,M 
$GPGGA,230217.000,3101.7286,N,12125.5697,E,1,00,00014.592,M 
$GPGGA,230218.000,3101.7290,N,12125.5694,E,1,00,00015.134,M 
$GPGGA,230218.000,3101.7293,N,12125.5692,E,1,00,00015.134,M 
$GPGGA,230219.000,3101.7298,N,12125.5693,E,1,00,00015.577,M 
$GPGGA,230220.000,3101.7306,N,12125.5688,E,1,00,00015.905,M 
$GPGGA,230220.000,3101.7311,N,12125.5687,E,1,00,00015.905,M 
$GPGGA,230221.000,3101.7318,N,12125.5684,E,1,00,00015.148,M 
$GPGGA,230221.000,3101.7322,N,12125.5683,E,1,00,00015.148,M 
$GPGGA,230222.000,3101.7326,N,12125.5678,E,1,00,00016.038,M 
$GPGGA,230222.000,3101.7329,N,12125.5676,E,1,00,00016.038,M 
$GPGGA,230223.000,3101.7333,N,12125.5677,E,1,00,00015.912,M 
$GPGGA,230223.000,3101.7336,N,12125.5677,E,1,00,00015.912,M 
$GPGGA,230224.000,3101.7339,N,12125.5680,E,1,00,00016.457,M 
$GPGGA,230224.000,3101.7341,N,12125.5682,E,1,00,00016.457,M 
$GPGGA,230225.000,3101.7349,N,12125.5678,E,1,00,00017.329,M 
$GPGGA,230225.000,3101.7353,N,12125.5676,E,1,00,00017.329,M 
$GPGGA,230226.000,3101.7361,N,12125.5678,E,1,00,00016.161,M 
$GPGGA,230226.000,3101.7364,N,12125.5678,E,1,00,00016.161,M 
$GPGGA,230227.000,3101.7371,N,12125.5677,E,1,00,00015.150,M 
$GPGGA,230228.000,3101.7375,N,12125.5674,E,1,00,00016.013,M 
$GPGGA,230228.000,3101.7378,N,12125.5673,E,1,00,00016.013,M 
$GPGGA,230229.000,3101.7379,N,12125.5669,E,1,00,00015.178,M 
$GPGGA,230229.000,3101.7381,N,12125.5668,E,1,00,00015.179,M 
$GPGGA,230230.000,3101.7384,N,12125.5664,E,1,00,00014.178,M 
$GPGGA,230230.000,3101.7387,N,12125.5662,E,1,00,00014.178,M 
$GPGGA,230231.000,3101.7393,N,12125.5661,E,1,00,00012.888,M 
$GPGGA,230231.000,3101.7397,N,12125.5660,E,1,00,00012.888,M 
$GPGGA,230232.000,3101.7399,N,12125.5656,E,1,00,00012.376,M 
$GPGGA,230232.000,3101.7401,N,12125.5655,E,1,00,00012.376,M 
$GPGGA,230233.000,3101.7405,N,12125.5652,E,1,00,00012.299,M 
$GPGGA,230233.000,3101.7407,N,12125.5651,E,1,00,00012.299,M 
$GPGGA,230234.000,3101.7410,N,12125.5651,E,1,00,00010.765,M 
$GPGGA,230234.000,3101.7412,N,12125.5651,E,1,00,00010.765,M 
$GPGGA,230235.000,3101.7417,N,12125.5647,E,1,00,00012.046,M 
$GPGGA,230236.000,3101.7423,N,12125.5644,E,1,00,00012.591,M 
$GPGGA,230236.000,3101.7427,N,12125.5643,E,1,00,00012.591,M 
$GPGGA,230237.000,3101.7432,N,12125.5642,E,1,00,00012.917,M 
$GPGGA,230237.000,3101.7435,N,12125.5641,E,1,00,00012.917,M 
$GPGGA,230238.000,3101.7440,N,12125.5639,E,1,00,00013.350,M 
$GPGGA,230238.000,3101.7443,N,12125.5638,E,1,00,00013.350,M 
$GPGGA,230239.000,3101.7445,N,12125.5638,E,1,00,00012.331,M 
$GPGGA,230239.000,3101.7447,N,12125.5637,E,1,00,00012.331,M 
$GPGGA,230240.000,3101.7450,N,12125.5635,E,1,00,00011.838,M 
$GPGGA,230240.000,3101.7453,N,12125.5634,E,1,00,00011.838,M 
$GPGGA,230241.000,3101.7457,N,12125.5632,E,1,00,00010.847,M 
$GPGGA,230241.000,3101.7459,N,12125.5631,E,1,00,00010.847,M 
$GPGGA,230242.000,3101.7465,N,12125.5629,E,1,00,00010.596,M 
$GPGGA,230243.000,3101.7469,N,12125.5627,E,1,00,00009.675,M 
$GPGGA,230243.000,3101.7472,N,12125.5625,E,1,00,00009.675,M 
$GPGGA,230244.000,3101.7476,N,12125.5624,E,1,00,00009.200,M 
$GPGGA,230244.000,3101.7479,N,12125.5623,E,1,00,00009.200,M 
$GPGGA,230245.000,3101.7488,N,12125.5622,E,1,00,00008.956,M 
$GPGGA,230245.000,3101.7492,N,12125.5621,E,1,00,00008.956,M 
$GPGGA,230246.000,3101.7495,N,12125.5619,E,1,00,00008.714,M 
$GPGGA,230246.000,3101.7497,N,12125.5619,E,1,00,00008.714,M 
$GPGGA,230247.000,3101.7497,N,12125.5621,E,1,00,00009.666,M 
$GPGGA,230248.000,3101.7497,N,12125.5620,E,1,00,00009.463,M 
$GPGGA,230251.000,3101.7494,N,12125.5623,E,1,00,00011.029,M 
$GPGGA,230252.000,3101.7493,N,12125.5629,E,1,00,00012.053,M 
$GPGGA,230252.000,3101.7493,N,12125.5632,E,1,00,00012.052,M 
$GPGGA,230253.000,3101.7497,N,12125.5638,E,1,00,00012.473,M 
$GPGGA,230253.000,3101.7498,N,12125.5641,E,1,00,00012.473,M 
$GPGGA,230254.000,3101.7502,N,12125.5646,E,1,00,00012.852,M 
$GPGGA,230254.000,3101.7503,N,12125.5649,E,1,00,00012.852,M 
$GPGGA,230255.000,3101.7506,N,12125.5654,E,1,00,00013.662,M 
$GPGGA,230256.000,3101.7507,N,12125.5656,E,1,00,00013.878,M 
$GPGGA,230256.000,3101.7508,N,12125.5658,E,1,00,00013.878,M 
$GPGGA,230257.000,3101.7511,N,12125.5660,E,1,00,00014.047,M 
$GPGGA,230257.000,3101.7512,N,12125.5661,E,1,00,00014.047,M 
$GPGGA,230258.000,3101.7513,N,12125.5665,E,1,00,00013.042,M 
$GPGGA,230258.000,3101.7513,N,12125.5668,E,1,00,00013.041,M 
$GPGGA,230259.000,3101.7515,N,12125.5670,E,1,00,00012.390,M 
$GPGGA,230259.000,3101.7516,N,12125.5672,E,1,00,00012.390,M 
$GPGGA,230300.000,3101.7518,N,12125.5679,E,1,00,00010.849,M 
$GPGGA,230300.000,3101.7520,N,12125.5683,E,1,00,00010.849,M 
$GPGGA,230301.000,3101.7520,N,12125.5690,E,1,00,00010.475,M 
$GPGGA,230301.000,3101.7520,N,12125.5694,E,1,00,00010.475,M 
$GPGGA,230302.000,3101.7524,N,12125.5700,E,1,00,00010.328,M 
$GPGGA,230303.000,3101.7526,N,12125.5705,E,1,00,00010.062,M 
$GPGGA,230303.000,3101.7527,N,12125.5708,E,1,00,00010.062,M 
$GPGGA,230304.000,3101.7528,N,12125.5712,E,1,00,00009.363,M 
$GPGGA,230304.000,3101.7528,N,12125.5715,E,1,00,00009.363,M 
$GPGGA,230305.000,3101.7531,N,12125.5720,E,1,00,00010.238,M 
$GPGGA,230305.000,3101.7532,N,12125.5723,E,1,00,00010.238,M 
$GPGGA,230306.000,3101.7534,N,12125.5729,E,1,00,00010.071,M 
$GPGGA,230306.000,3101.7535,N,12125.5733,E,1,00,00010.070,M 
$GPGGA,230307.000,3101.7534,N,12125.5738,E,1,00,00010.675,M 
$GPGGA,230307.000,3101.7534,N,12125.5741,E,1,00,00010.675,M 
$GPGGA,230308.000,3101.7536,N,12125.5743,E,1,00,00011.759,M 
$GPGGA,230309.000,3101.7537,N,12125.5752,E,1,00,00011.708,M 
$GPGGA,230309.000,3101.7538,N,12125.5756,E,1,00,00011.708,M 
$GPGGA,230310.000,3101.7540,N,12125.5760,E,1,00,00011.941,M 
$GPGGA,230310.000,3101.7541,N,12125.5763,E,1,00,00011.941,M 
$GPGGA,230311.000,3101.7542,N,12125.5767,E,1,00,00011.954,M 
$GPGGA,230311.000,3101.7542,N,12125.5770,E,1,00,00011.954,M 
$GPGGA,230312.000,3101.7543,N,12125.5775,E,1,00,00012.308,M 
$GPGGA,230312.000,3101.7543,N,12125.5779,E,1,00,00012.308,M 
$GPGGA,230313.000,3101.7544,N,12125.5783,E,1,00,00012.864,M 
$GPGGA,230313.000,3101.7545,N,12125.5785,E,1,00,00012.864,M 
$GPGGA,230314.000,3101.7545,N,12125.5790,E,1,00,00012.948,M 
$GPGGA,230315.000,3101.7549,N,12125.5795,E,1,00,00012.578,M 
$GPGGA,230315.000,3101.7550,N,12125.5798,E,1,00,00012.578,M 
$GPGGA,230316.000,3101.7551,N,12125.5805,E,1,00,00012.716,M 
$GPGGA,230316.000,3101.7551,N,12125.5809,E,1,00,00012.716,M 
$GPGGA,230317.000,3101.7553,N,12125.5814,E,1,00,00011.982,M 
$GPGGA,230317.000,3101.7554,N,12125.5817,E,1,00,00011.982,M 
$GPGGA,230318.000,3101.7557,N,12125.5822,E,1,00,00011.770,M 
$GPGGA,230318.000,3101.7558,N,12125.5825,E,1,00,00011.770,M 
$GPGGA,230319.000,3101.7559,N,12125.5832,E,1,00,00011.427,M 
$GPGGA,230320.000,3101.7560,N,12125.5839,E,1,00,00010.907,M 
$GPGGA,230320.000,3101.7561,N,12125.5843,E,1,00,00010.907,M 
$GPGGA,230321.000,3101.7561,N,12125.5850,E,1,00,00010.843,M 
$GPGGA,230321.000,3101.7561,N,12125.5854,E,1,00,00010.843,M 
$GPGGA,230322.000,3101.7562,N,12125.5861,E,1,00,00011.863,M 
$GPGGA,230322.000,3101.7562,N,12125.5865,E,1,00,00011.862,M 
$GPGGA,230323.000,3101.7564,N,12125.5872,E,1,00,00011.394,M 
$GPGGA,230323.000,3101.7564,N,12125.5875,E,1,00,00011.394,M 
$GPGGA,230324.000,3101.7567,N,12125.5880,E,1,00,00012.201,M 
$GPGGA,230325.000,3101.7567,N,12125.5888,E,1,00,00011.553,M 
$GPGGA,230325.000,3101.7567,N,12125.5892,E,1,00,00011.553,M 
$GPGGA,230326.000,3101.7567,N,12125.5896,E,1,00,00011.935,M 
$GPGGA,230326.000,3101.7567,N,12125.5898,E,1,00,00011.935,M 
$GPGGA,230327.000,3101.7567,N,12125.5902,E,1,00,00011.226,M 
$GPGGA,230327.000,3101.7567,N,12125.5904,E,1,00,00011.226,M 
$GPGGA,230328.000,3101.7567,N,12125.5910,E,1,00,00011.242,M 
$GPGGA,230328.000,3101.7567,N,12125.5914,E,1,00,00011.242,M 
$GPGGA,230329.000,3101.7565,N,12125.5923,E,1,00,00011.332,M 
$GPGGA,230329.000,3101.7564,N,12125.5927,E,1,00,00011.332,M 
$GPGGA,230330.000,3101.7566,N,12125.5932,E,1,00,00011.166,M 
$GPGGA,230330.000,3101.7567,N,12125.5935,E,1,00,00011.166,M 
$GPGGA,230331.000,3101.7568,N,12125.5940,E,1,00,00010.831,M 
$GPGGA,230332.000,3101.7570,N,12125.5948,E,1,00,00010.770,M 
$GPGGA,230332.000,3101.7570,N,12125.5953,E,1,00,00010.770,M 
$GPGGA,230333.000,3101.7574,N,12125.5954,E,1,00,00009.785,M 
$GPGGA,230333.000,3101.7575,N,12125.5956,E,1,00,00009.785,M 
$GPGGA,230334.000,3101.7576,N,12125.5962,E,1,00,00010.887,M 
$GPGGA,230334.000,3101.7576,N,12125.5966,E,1,00,00010.887,M 
$GPGGA,230335.000,3101.7578,N,12125.5970,E,1,00,00009.937,M 
$GPGGA,230335.000,3101.7579,N,12125.5973,E,1,00,00009.937,M 
$GPGGA,230336.000,3101.7579,N,12125.5978,E,1,00,00008.455,M 
$GPGGA,230336.000,3101.7579,N,12125.5982,E,1,00,00008.455,M 
$GPGGA,230337.000,3101.7580,N,12125.5988,E,1,00,00008.938,M 
$GPGGA,230337.000,3101.7581,N,12125.5991,E,1,00,00008.938,M 
$GPGGA,230338.000,3101.7583,N,12125.5996,E,1,00,00010.952,M 
$GPGGA,230339.000,3101.7581,N,12125.6002,E,1,00,00011.594,M 
$GPGGA,230339.000,3101.7580,N,12125.6006,E,1,00,00011.594,M 
$GPGGA,230340.000,3101.7582,N,12125.6013,E,1,00,00011.370,M 
$GPGGA,230340.000,3101.7583,N,12125.6017,E,1,00,00011.370,M 
$GPGGA,230341.000,3101.7589,N,12125.6022,E,1,00,00011.343,M 
$GPGGA,230341.000,3101.7591,N,12125.6024,E,1,00,00011.343,M 
$GPGGA,230342.000,3101.7592,N,12125.6030,E,1,00,00010.749,M 
$GPGGA,230342.000,3101.7592,N,12125.6034,E,1,00,00010.749,M 
$GPGGA,230343.000,3101.7593,N,12125.6038,E,1,00,00012.258,M 
$GPGGA,230343.000,3101.7594,N,12125.6041,E,1,00,00012.258,M 
$GPGGA,230344.000,3101.7598,N,12125.6048,E,1,00,00011.266,M 
$GPGGA,230344.000,3101.7599,N,12125.6051,E,1,00,00011.266,M 
$GPGGA,230345.000,3101.7603,N,12125.6056,E,1,00,00011.965,M 
$GPGGA,230345.000,3101.7604,N,12125.6058,E,1,00,00011.965,M 
$GPGGA,230346.000,3101.7606,N,12125.6060,E,1,00,00013.220,M 
$GPGGA,230346.000,3101.7607,N,12125.6062,E,1,00,00013.220,M 
$GPGGA,230347.000,3101.7611,N,12125.6065,E,1,00,00012.959,M 
$GPGGA,230348.000,3101.7613,N,12125.6070,E,1,00,00014.104,M 
$GPGGA,230348.000,3101.7614,N,12125.6072,E,1,00,00014.103,M 
$GPGGA,230349.000,3101.7615,N,12125.6075,E,1,00,00014.699,M 
$GPGGA,230349.000,3101.7616,N,12125.6078,E,1,00,00014.698,M 
$GPGGA,230350.000,3101.7617,N,12125.6083,E,1,00,00014.137,M 
$GPGGA,230350.000,3101.7617,N,12125.6086,E,1,00,00014.137,M 
$GPGGA,230351.000,3101.7619,N,12125.6087,E,1,00,00015.075,M 
$GPGGA,230351.000,3101.7620,N,12125.6088,E,1,00,00015.075,M 
$GPGGA,230352.000,3101.7622,N,12125.6090,E,1,00,00015.937,M 
$GPGGA,230352.000,3101.7622,N,12125.6092,E,1,00,00015.937,M 
$GPGGA,230353.000,3101.7623,N,12125.6097,E,1,00,00017.409,M 
$GPGGA,230354.000,3101.7622,N,12125.6100,E,1,00,00017.555,M 
$GPGGA,230354.000,3101.7622,N,12125.6102,E,1,00,00017.555,M 
$GPGGA,230355.000,3101.7624,N,12125.6101,E,1,00,00017.821,M 
$GPGGA,230403.000,3101.7631,N,12125.6095,E,1,00,00011.770,M 
$GPGGA,230404.000,3101.7630,N,12125.6094,E,1,00,00012.084,M 
$GPGGA,230404.000,3101.7630,N,12125.6095,E,1,00,00012.084,M 
$GPGGA,230405.000,3101.7629,N,12125.6099,E,1,00,00011.184,M 
$GPGGA,230406.000,3101.7629,N,12125.6100,E,1,00,00011.229,M 
$GPGGA,230406.000,3101.7629,N,12125.6101,E,1,00,00011.229,M 
$GPGGA,230407.000,3101.7629,N,12125.6105,E,1,00,00011.073,M 
$GPGGA,230407.000,3101.7629,N,12125.6108,E,1,00,00011.073,M 
$GPGGA,230408.000,3101.7630,N,12125.6111,E,1,00,00011.233,M 
$GPGGA,230408.000,3101.7630,N,12125.6113,E,1,00,00011.233,M 
$GPGGA,230409.000,3101.7630,N,12125.6114,E,1,00,00013.021,M 
$GPGGA,230409.000,3101.7629,N,12125.6116,E,1,00,00013.021,M 
$GPGGA,230410.000,3101.7629,N,12125.6120,E,1,00,00016.268,M 
$GPGGA,230411.000,3101.7630,N,12125.6124,E,1,00,00019.792,M 
$GPGGA,230411.000,3101.7630,N,12125.6126,E,1,00,00019.792,M 
$GPGGA,230412.000,3101.7638,N,12125.6127,E,1,00,00021.492,M 
$GPGGA,230422.000,3101.7648,N,12125.6133,E,1,00,00014.767,M 
$GPGGA,230422.000,3101.7652,N,12125.6136,E,1,00,00014.767,M 
$GPGGA,230423.000,3101.7655,N,12125.6139,E,1,00,00015.320,M 
$GPGGA,230424.000,3101.7657,N,12125.6139,E,1,00,00014.817,M 
$GPGGA,230424.000,3101.7658,N,12125.6141,E,1,00,00014.817,M 
$GPGGA,230425.000,3101.7658,N,12125.6146,E,1,00,00013.789,M 
$GPGGA,230426.000,3101.7657,N,12125.6167,E,1,00,00008.671,M 
$GPGGA,230426.000,3101.7656,N,12125.6176,E,1,00,00008.671,M 
$GPGGA,230427.000,3101.7654,N,12125.6205,E,1,00,00000.614,M 
$GPGGA,230427.000,3101.7653,N,12125.6218,E,1,00,00000.613,M 
$GPGGA,230428.000,3101.7653,N,12125.6233,E,1,00,-0002.170,M 
$GPGGA,230429.000,3101.7654,N,12125.6249,E,1,00,-0002.620,M 
$GPGGA,230429.000,3101.7655,N,12125.6256,E,1,00,-0002.620,M 
$GPGGA,230430.000,3101.7653,N,12125.6267,E,1,00,-0004.117,M 
$GPGGA,230430.000,3101.7653,N,12125.6272,E,1,00,-0004.117,M 
$GPGGA,230431.000,3101.7657,N,12125.6273,E,1,00,00000.678,M 
$GPGGA,230432.000,3101.7663,N,12125.6270,E,1,00,00012.018,M 
$GPGGA,230432.000,3101.7666,N,12125.6269,E,1,00,00012.018,M 
$GPGGA,230433.000,3101.7669,N,12125.6271,E,1,00,00014.261,M 
$GPGGA,230433.000,3101.7670,N,12125.6273,E,1,00,00014.261,M 
$GPGGA,230434.000,3101.7672,N,12125.6277,E,1,00,00014.767,M 
$GPGGA,230435.000,3101.7672,N,12125.6282,E,1,00,00016.228,M 
$GPGGA,230435.000,3101.7672,N,12125.6285,E,1,00,00016.228,M 
$GPGGA,230436.000,3101.7666,N,12125.6287,E,1,00,00015.620,M 
$GPGGA,230436.000,3101.7664,N,12125.6289,E,1,00,00015.620,M 
$GPGGA,230437.000,3101.7663,N,12125.6290,E,1,00,00016.085,M 
$GPGGA,230437.000,3101.7663,N,12125.6292,E,1,00,00016.085,M 
$GPGGA,230438.000,3101.7663,N,12125.6295,E,1,00,00012.353,M 
$GPGGA,230439.000,3101.7665,N,12125.6297,E,1,00,00012.516,M 
$GPGGA,230439.000,3101.7666,N,12125.6298,E,1,00,00012.516,M 
$GPGGA,230440.000,3101.7667,N,12125.6301,E,1,00,00011.236,M 
$GPGGA,230440.000,3101.7667,N,12125.6303,E,1,00,00011.235,M 
$GPGGA,230441.000,3101.7669,N,12125.6304,E,1,00,00011.935,M 
$GPGGA,230442.000,3101.7669,N,12125.6308,E,1,00,00010.617,M 
$GPGGA,230442.000,3101.7670,N,12125.6310,E,1,00,00010.617,M 
$GPGGA,230443.000,3101.7670,N,12125.6312,E,1,00,00009.749,M 
$GPGGA,230443.000,3101.7671,N,12125.6314,E,1,00,00009.749,M 
$GPGGA,230444.000,3101.7671,N,12125.6318,E,1,00,00008.293,M 
$GPGGA,230445.000,3101.7674,N,12125.6325,E,1,00,00008.857,M 
$GPGGA,230445.000,3101.7675,N,12125.6328,E,1,00,00008.857,M 
$GPGGA,230446.000,3101.7678,N,12125.6332,E,1,00,00008.921,M 
$GPGGA,230447.000,3101.7682,N,12125.6337,E,1,00,00009.181,M 
$GPGGA,230447.000,3101.7684,N,12125.6339,E,1,00,00009.181,M 
$GPGGA,230448.000,3101.7688,N,12125.6344,E,1,00,00010.136,M 
$GPGGA,230448.000,3101.7690,N,12125.6346,E,1,00,00010.136,M 
$GPGGA,230449.000,3101.7698,N,12125.6349,E,1,00,00022.681,M 
$GPGGA,230449.000,3101.7701,N,12125.6351,E,1,00,00022.681,M 
$GPGGA,230450.000,3101.7702,N,12125.6355,E,1,00,00022.247,M 
$GPGGA,230451.000,3101.7697,N,12125.6363,E,1,00,00019.172,M 
$GPGGA,230451.000,3101.7695,N,12125.6368,E,1,00,00019.171,M 
$GPGGA,230452.000,3101.7696,N,12125.6378,E,1,00,00016.217,M 
$GPGGA,230452.000,3101.7696,N,12125.6383,E,1,00,00016.217,M 
$GPGGA,230453.000,3101.7699,N,12125.6392,E,1,00,00013.823,M 
$GPGGA,230454.000,3101.7702,N,12125.6403,E,1,00,00011.912,M 
$GPGGA,230454.000,3101.7703,N,12125.6408,E,1,00,00011.912,M 
$GPGGA,230455.000,3101.7705,N,12125.6419,E,1,00,00011.068,M 
$GPGGA,230455.000,3101.7706,N,12125.6424,E,1,00,00011.068,M 
$GPGGA,230456.000,3101.7705,N,12125.6436,E,1,00,00008.812,M 
$GPGGA,230456.000,3101.7704,N,12125.6442,E,1,00,00008.812,M 
$GPGGA,230457.000,3101.7703,N,12125.6454,E,1,00,00004.569,M 
$GPGGA,230458.000,3101.7701,N,12125.6464,E,1,00,00007.498,M 
$GPGGA,230458.000,3101.7700,N,12125.6469,E,1,00,00007.498,M 
$GPGGA,230459.000,3101.7698,N,12125.6475,E,1,00,00006.612,M 
$GPGGA,230459.000,3101.7697,N,12125.6479,E,1,00,00006.612,M 
$GPGGA,230500.000,3101.7697,N,12125.6487,E,1,00,00009.980,M 
$GPGGA,230500.000,3101.7697,N,12125.6491,E,1,00,00009.980,M 
$GPGGA,230501.000,3101.7692,N,12125.6496,E,1,00,00013.258,M 
$GPGGA,230502.000,3101.7688,N,12125.6502,E,1,00,00011.639,M 
$GPGGA,230502.000,3101.7686,N,12125.6506,E,1,00,00011.639,M 
$GPGGA,230503.000,3101.7688,N,12125.6511,E,1,00,00012.850,M 
$GPGGA,230503.000,3101.7688,N,12125.6514,E,1,00,00012.850,M 
$GPGGA,230504.000,3101.7690,N,12125.6519,E,1,00,00016.087,M 
$GPGGA,230504.000,3101.7690,N,12125.6522,E,1,00,00016.087,M 
$GPGGA,230505.000,3101.7689,N,12125.6525,E,1,00,00015.781,M 
$GPGGA,230505.000,3101.7689,N,12125.6527,E,1,00,00015.781,M 
$GPGGA,230506.000,3101.7695,N,12125.6532,E,1,00,00017.712,M 
$GPGGA,230507.000,3101.7700,N,12125.6537,E,1,00,00019.936,M 
$GPGGA,230507.000,3101.7701,N,12125.6539,E,1,00,00019.936,M 
$GPGGA,230508.000,3101.7703,N,12125.6545,E,1,00,00018.695,M 
$GPGGA,230508.000,3101.7703,N,12125.6549,E,1,00,00018.695,M 
$GPGGA,230509.000,3101.7711,N,12125.6552,E,1,00,00022.208,M 
$GPGGA,230510.000,3101.7715,N,12125.6557,E,1,00,00020.716,M 
$GPGGA,230510.000,3101.7717,N,12125.6560,E,1,00,00020.716,M 
$GPGGA,230511.000,3101.7718,N,12125.6565,E,1,00,00021.933,M 
$GPGGA,230511.000,3101.7718,N,12125.6567,E,1,00,00021.933,M 
$GPGGA,230512.000,3101.7716,N,12125.6576,E,1,00,00020.772,M 
$GPGGA,230512.000,3101.7716,N,12125.6579,E,1,00,00020.772,M 
$GPGGA,230513.000,3101.7712,N,12125.6586,E,1,00,00017.658,M 
$GPGGA,230514.000,3101.7706,N,12125.6596,E,1,00,00015.635,M 
$GPGGA,230514.000,3101.7704,N,12125.6601,E,1,00,00015.635,M 
$GPGGA,230515.000,3101.7703,N,12125.6606,E,1,00,00016.438,M 
$GPGGA,230515.000,3101.7702,N,12125.6610,E,1,00,00016.438,M 
$GPGGA,230516.000,3101.7703,N,12125.6613,E,1,00,00016.094,M 
$GPGGA,230517.000,3101.7707,N,12125.6619,E,1,00,00014.095,M 
$GPGGA,230517.000,3101.7708,N,12125.6622,E,1,00,00014.095,M 
$GPGGA,230518.000,3101.7710,N,12125.6627,E,1,00,00012.196,M 
$GPGGA,230518.000,3101.7711,N,12125.6630,E,1,00,00012.196,M 
$GPGGA,230519.000,3101.7710,N,12125.6632,E,1,00,00011.449,M 
$GPGGA,230520.000,3101.7713,N,12125.6640,E,1,00,00011.277,M 
$GPGGA,230520.000,3101.7714,N,12125.6644,E,1,00,00011.277,M 
$GPGGA,230521.000,3101.7711,N,12125.6649,E,1,00,00010.999,M 
$GPGGA,230521.000,3101.7710,N,12125.6651,E,1,00,00010.999,M 
$GPGGA,230522.000,3101.7712,N,12125.6655,E,1,00,00011.053,M 
$GPGGA,230522.000,3101.7713,N,12125.6658,E,1,00,00011.052,M 
$GPGGA,230523.000,3101.7715,N,12125.6660,E,1,00,00008.761,M 
$GPGGA,230524.000,3101.7714,N,12125.6668,E,1,00,00009.433,M 
$GPGGA,230524.000,3101.7713,N,12125.6672,E,1,00,00009.433,M 
$GPGGA,230525.000,3101.7714,N,12125.6680,E,1,00,00009.580,M 
$GPGGA,230525.000,3101.7715,N,12125.6684,E,1,00,00009.580,M 
$GPGGA,230526.000,3101.7716,N,12125.6687,E,1,00,00010.836,M 
$GPGGA,230526.000,3101.7717,N,12125.6690,E,1,00,00010.836,M 
$GPGGA,230527.000,3101.7717,N,12125.6700,E,1,00,00010.840,M 
$GPGGA,230528.000,3101.7719,N,12125.6707,E,1,00,00010.220,M 
$GPGGA,230528.000,3101.7720,N,12125.6711,E,1,00,00010.220,M 
$GPGGA,230529.000,3101.7723,N,12125.6715,E,1,00,00008.987,M 
$GPGGA,230529.000,3101.7723,N,12125.6717,E,1,00,00008.987,M 
$GPGGA,230530.000,3101.7724,N,12125.6723,E,1,00,00011.195,M 
$GPGGA,230531.000,3101.7725,N,12125.6729,E,1,00,00010.727,M 
$GPGGA,230531.000,3101.7725,N,12125.6733,E,1,00,00010.727,M 
$GPGGA,230532.000,3101.7725,N,12125.6737,E,1,00,00011.894,M 
$GPGGA,230532.000,3101.7725,N,12125.6740,E,1,00,00011.894,M 
$GPGGA,230533.000,3101.7725,N,12125.6745,E,1,00,00011.242,M 
$GPGGA,230533.000,3101.7725,N,12125.6749,E,1,00,00011.242,M 
$GPGGA,230534.000,3101.7727,N,12125.6753,E,1,00,00010.921,M 
$GPGGA,230535.000,3101.7728,N,12125.6760,E,1,00,00010.324,M 
$GPGGA,230535.000,3101.7728,N,12125.6764,E,1,00,00010.324,M 
$GPGGA,230536.000,3101.7730,N,12125.6766,E,1,00,00009.508,M 
$GPGGA,230536.000,3101.7730,N,12125.6768,E,1,00,00009.508,M 
$GPGGA,230537.000,3101.7729,N,12125.6778,E,1,00,00010.899,M 
$GPGGA,230537.000,3101.7728,N,12125.6783,E,1,00,00010.899,M 
$GPGGA,230538.000,3101.7728,N,12125.6790,E,1,00,00011.432,M 
$GPGGA,230539.000,3101.7729,N,12125.6795,E,1,00,00010.618,M 
$GPGGA,230539.000,3101.7730,N,12125.6798,E,1,00,00010.618,M 
$GPGGA,230540.000,3101.7733,N,12125.6803,E,1,00,00009.577,M 
$GPGGA,230540.000,3101.7735,N,12125.6805,E,1,00,00009.577,M 
$GPGGA,230541.000,3101.7737,N,12125.6810,E,1,00,00009.157,M 
$GPGGA,230542.000,3101.7741,N,12125.6816,E,1,00,00009.229,M 
$GPGGA,230542.000,3101.7743,N,12125.6819,E,1,00,00009.229,M 
$GPGGA,230543.000,3101.7743,N,12125.6824,E,1,00,00008.101,M 
$GPGGA,230543.000,3101.7744,N,12125.6827,E,1,00,00008.101,M 
$GPGGA,230544.000,3101.7744,N,12125.6831,E,1,00,00008.793,M 
$GPGGA,230544.000,3101.7743,N,12125.6834,E,1,00,00008.793,M 
$GPGGA,230545.000,3101.7741,N,12125.6840,E,1,00,00009.127,M 
$GPGGA,230546.000,3101.7740,N,12125.6845,E,1,00,00009.820,M 
$GPGGA,230546.000,3101.7740,N,12125.6849,E,1,00,00009.820,M 
$GPGGA,230547.000,3101.7742,N,12125.6856,E,1,00,00009.256,M 
$GPGGA,230547.000,3101.7743,N,12125.6860,E,1,00,00009.256,M 
$GPGGA,230548.000,3101.7745,N,12125.6868,E,1,00,00010.144,M 
$GPGGA,230548.000,3101.7746,N,12125.6872,E,1,00,00010.144,M 
$GPGGA,230549.000,3101.7746,N,12125.6879,E,1,00,00009.201,M 
$GPGGA,230550.000,3101.7748,N,12125.6886,E,1,00,00008.855,M 
$GPGGA,230550.000,3101.7749,N,12125.6889,E,1,00,00008.855,M 
$GPGGA,230551.000,3101.7750,N,12125.6894,E,1,00,00008.997,M 
$GPGGA,230551.000,3101.7750,N,12125.6897,E,1,00,00008.996,M 
$GPGGA,230552.000,3101.7753,N,12125.6900,E,1,00,00009.258,M 
$GPGGA,230552.000,3101.7754,N,12125.6903,E,1,00,00009.258,M 
$GPGGA,230553.000,3101.7754,N,12125.6909,E,1,00,00010.992,M 
$GPGGA,230554.000,3101.7757,N,12125.6913,E,1,00,00010.064,M 
$GPGGA,230554.000,3101.7758,N,12125.6916,E,1,00,00010.064,M 
$GPGGA,230555.000,3101.7756,N,12125.6922,E,1,00,00009.470,M 
$GPGGA,230555.000,3101.7756,N,12125.6925,E,1,00,00009.470,M 
$GPGGA,230556.000,3101.7753,N,12125.6931,E,1,00,00011.012,M 
$GPGGA,230557.000,3101.7754,N,12125.6937,E,1,00,00010.887,M 
$GPGGA,230557.000,3101.7754,N,12125.6940,E,1,00,00010.887,M 
$GPGGA,230558.000,3101.7753,N,12125.6943,E,1,00,00010.483,M 
$GPGGA,230558.000,3101.7753,N,12125.6945,E,1,00,00010.483,M 
$GPGGA,230559.000,3101.7753,N,12125.6950,E,1,00,00011.202,M 
$GPGGA,230559.000,3101.7752,N,12125.6953,E,1,00,00011.201,M 
$GPGGA,230600.000,3101.7754,N,12125.6960,E,1,00,00010.634,M 
$GPGGA,230601.000,3101.7757,N,12125.6965,E,1,00,00009.578,M 
$GPGGA,230601.000,3101.7758,N,12125.6968,E,1,00,00009.578,M 
$GPGGA,230602.000,3101.7759,N,12125.6972,E,1,00,00011.392,M 
$GPGGA,230602.000,3101.7760,N,12125.6975,E,1,00,00011.392,M 
$GPGGA,230603.000,3101.7761,N,12125.6978,E,1,00,00011.250,M 
$GPGGA,230603.000,3101.7762,N,12125.6980,E,1,00,00011.250,M 
$GPGGA,230604.000,3101.7762,N,12125.6988,E,1,00,00011.109,M 
$GPGGA,230605.000,3101.7765,N,12125.6993,E,1,00,00010.951,M 
$GPGGA,230605.000,3101.7766,N,12125.6996,E,1,00,00010.951,M 
$GPGGA,230606.000,3101.7767,N,12125.7000,E,1,00,00011.115,M 
$GPGGA,230606.000,3101.7767,N,12125.7003,E,1,00,00011.114,M 
$GPGGA,230607.000,3101.7765,N,12125.7011,E,1,00,00010.778,M 
