$GPGGA,223536.000,3101.6806,N,12126.3737,E,1,00,00019.581,M 
$GPGGA,223601.000,3101.6806,N,12126.3742,E,1,00,00019.581,M 
$GPGGA,223602.000,3101.6805,N,12126.3746,E,1,00,00019.581,M 
$GPGGA,223602.000,3101.6805,N,12126.3751,E,1,00,00019.581,M 
$GPGGA,223603.000,3101.6805,N,12126.3755,E,1,00,00019.581,M 
$GPGGA,223603.000,3101.6804,N,12126.3760,E,1,00,00019.581,M 
$GPGGA,223604.000,3101.6804,N,12126.3764,E,1,00,00019.581,M 
$GPGGA,223604.000,3101.6804,N,12126.3768,E,1,00,00019.581,M 
$GPGGA,223605.000,3101.6803,N,12126.3773,E,1,00,00019.581,M 
$GPGGA,223606.000,3101.6803,N,12126.3777,E,1,00,00019.581,M 
$GPGGA,223606.000,3101.6802,N,12126.3782,E,1,00,00019.581,M 
$GPGGA,223607.000,3101.6802,N,12126.3786,E,1,00,00019.581,M 
$GPGGA,223607.000,3101.6802,N,12126.3791,E,1,00,00019.581,M 
$GPGGA,223608.000,3101.6801,N,12126.3795,E,1,00,00019.581,M 
$GPGGA,223608.000,3101.6801,N,12126.3800,E,1,00,00019.581,M 
$GPGGA,223609.000,3101.6801,N,12126.3804,E,1,00,00019.581,M 
$GPGGA,223610.000,3101.6801,N,12126.3809,E,1,00,00019.581,M 
$GPGGA,223610.000,3101.6800,N,12126.3813,E,1,00,00019.581,M 
$GPGGA,223611.000,3101.6800,N,12126.3817,E,1,00,00019.581,M 
$GPGGA,223611.000,3101.6800,N,12126.3822,E,1,00,00019.581,M 
$GPGGA,223612.000,3101.6799,N,12126.3826,E,1,00,00019.581,M 
$GPGGA,223612.000,3101.6799,N,12126.3831,E,1,00,00019.581,M 
$GPGGA,223613.000,3101.6799,N,12126.3835,E,1,00,00019.581,M 
$GPGGA,223613.000,3101.6798,N,12126.3840,E,1,00,00019.581,M 
$GPGGA,223614.000,3101.6798,N,12126.3844,E,1,00,00019.581,M 
$GPGGA,223615.000,3101.6798,N,12126.3849,E,1,00,00019.581,M 
$GPGGA,223615.000,3101.6797,N,12126.3853,E,1,00,00019.581,M 
$GPGGA,223616.000,3101.6797,N,12126.3858,E,1,00,00019.581,M 
$GPGGA,223616.000,3101.6797,N,12126.3862,E,1,00,00019.581,M 
$GPGGA,223617.000,3101.6796,N,12126.3867,E,1,00,00019.581,M 
$GPGGA,223617.000,3101.6796,N,12126.3871,E,1,00,00019.581,M 
$GPGGA,223618.000,3101.6795,N,12126.3876,E,1,00,00019.581,M 
$GPGGA,223618.000,3101.6795,N,12126.3880,E,1,00,00019.581,M 
$GPGGA,223619.000,3101.6795,N,12126.3884,E,1,00,00019.581,M 
$GPGGA,223620.000,3101.6794,N,12126.3889,E,1,00,00019.581,M 
$GPGGA,223620.000,3101.6794,N,12126.3894,E,1,00,00019.581,M 
$GPGGA,223621.000,3101.6793,N,12126.3898,E,1,00,00019.582,M 
$GPGGA,223621.000,3101.6793,N,12126.3902,E,1,00,00019.582,M 
$GPGGA,223622.000,3101.6792,N,12126.3907,E,1,00,00019.582,M 
$GPGGA,223622.000,3101.6792,N,12126.3911,E,1,00,00019.582,M 
$GPGGA,223623.000,3101.6792,N,12126.3916,E,1,00,00019.582,M 
$GPGGA,223624.000,3101.6791,N,12126.3920,E,1,00,00019.582,M 
$GPGGA,223624.000,3101.6791,N,12126.3925,E,1,00,00019.582,M 
$GPGGA,223625.000,3101.6790,N,12126.3929,E,1,00,00019.582,M 
$GPGGA,223625.000,3101.6790,N,12126.3934,E,1,00,00019.582,M 
$GPGGA,223626.000,3101.6789,N,12126.3938,E,1,00,00019.582,M 
$GPGGA,223626.000,3101.6789,N,12126.3943,E,1,00,00019.582,M 
$GPGGA,223627.000,3101.6788,N,12126.3947,E,1,00,00019.582,M 
$GPGGA,223627.000,3101.6788,N,12126.3951,E,1,00,00019.582,M 
$GPGGA,223628.000,3101.6788,N,12126.3956,E,1,00,00019.582,M 
$GPGGA,223629.000,3101.6787,N,12126.3960,E,1,00,00019.582,M 
$GPGGA,223629.000,3101.6787,N,12126.3965,E,1,00,00019.582,M 
$GPGGA,223630.000,3101.6786,N,12126.3969,E,1,00,00019.582,M 
$GPGGA,223630.000,3101.6786,N,12126.3974,E,1,00,00019.582,M 
$GPGGA,223631.000,3101.6785,N,12126.3978,E,1,00,00019.582,M 
$GPGGA,223631.000,3101.6785,N,12126.3983,E,1,00,00019.582,M 
$GPGGA,223632.000,3101.6784,N,12126.3987,E,1,00,00019.582,M 
$GPGGA,223633.000,3101.6784,N,12126.3991,E,1,00,00019.582,M 
$GPGGA,223633.000,3101.6783,N,12126.3996,E,1,00,00019.582,M 
$GPGGA,223634.000,3101.6783,N,12126.4000,E,1,00,00019.582,M 
$GPGGA,223634.000,3101.6782,N,12126.4005,E,1,00,00019.582,M 
$GPGGA,223635.000,3101.6782,N,12126.4009,E,1,00,00019.582,M 
$GPGGA,223635.000,3101.6781,N,12126.4014,E,1,00,00019.582,M 
$GPGGA,223636.000,3101.6781,N,12126.4018,E,1,00,00019.582,M 
$GPGGA,223636.000,3101.6780,N,12126.4022,E,1,00,00019.582,M 
$GPGGA,223637.000,3101.6779,N,12126.4027,E,1,00,00019.582,M 
$GPGGA,223638.000,3101.6779,N,12126.4031,E,1,00,00019.582,M 
$GPGGA,223638.000,3101.6778,N,12126.4036,E,1,00,00019.582,M 
$GPGGA,223639.000,3101.6778,N,12126.4040,E,1,00,00019.582,M 
$GPGGA,223639.000,3101.6777,N,12126.4045,E,1,00,00019.582,M 
$GPGGA,223640.000,3101.6777,N,12126.4049,E,1,00,00019.582,M 
$GPGGA,223640.000,3101.6776,N,12126.4054,E,1,00,00019.582,M 
$GPGGA,223641.000,3101.6776,N,12126.4058,E,1,00,00019.582,M 
$GPGGA,223641.000,3101.6775,N,12126.4063,E,1,00,00019.582,M 
$GPGGA,223642.000,3101.6775,N,12126.4067,E,1,00,00019.582,M 
$GPGGA,223643.000,3101.6774,N,12126.4071,E,1,00,00019.582,M 
$GPGGA,223643.000,3101.6774,N,12126.4076,E,1,00,00019.582,M 
$GPGGA,223644.000,3101.6773,N,12126.4080,E,1,00,00019.582,M 
$GPGGA,223644.000,3101.6773,N,12126.4085,E,1,00,00019.582,M 
$GPGGA,223645.000,3101.6772,N,12126.4089,E,1,00,00019.582,M 
$GPGGA,223645.000,3101.6772,N,12126.4094,E,1,00,00019.582,M 
$GPGGA,223646.000,3101.6771,N,12126.4099,E,1,00,00019.583,M 
$GPGGA,223646.000,3101.6771,N,12126.4103,E,1,00,00019.583,M 
$GPGGA,223647.000,3101.6770,N,12126.4107,E,1,00,00019.583,M 
$GPGGA,223648.000,3101.6770,N,12126.4112,E,1,00,00019.583,M 
$GPGGA,223648.000,3101.6769,N,12126.4116,E,1,00,00019.583,M 
$GPGGA,223649.000,3101.6769,N,12126.4121,E,1,00,00019.583,M 
$GPGGA,223649.000,3101.6768,N,12126.4125,E,1,00,00019.583,M 
$GPGGA,223650.000,3101.6768,N,12126.4130,E,1,00,00019.583,M 
$GPGGA,223650.000,3101.6768,N,12126.4134,E,1,00,00019.583,M 
$GPGGA,223651.000,3101.6767,N,12126.4139,E,1,00,00019.583,M 
$GPGGA,223651.000,3101.6766,N,12126.4143,E,1,00,00019.583,M 
$GPGGA,223652.000,3101.6766,N,12126.4148,E,1,00,00019.583,M 
$GPGGA,223653.000,3101.6766,N,12126.4152,E,1,00,00019.583,M 
$GPGGA,223653.000,3101.6765,N,12126.4157,E,1,00,00019.583,M 
$GPGGA,223654.000,3101.6765,N,12126.4161,E,1,00,00019.583,M 
$GPGGA,223654.000,3101.6764,N,12126.4166,E,1,00,00019.583,M 
$GPGGA,223655.000,3101.6764,N,12126.4170,E,1,00,00019.583,M 
$GPGGA,223655.000,3101.6763,N,12126.4175,E,1,00,00019.583,M 
$GPGGA,223656.000,3101.6763,N,12126.4179,E,1,00,00019.583,M 
$GPGGA,223656.000,3101.6762,N,12126.4183,E,1,00,00019.583,M 
$GPGGA,223657.000,3101.6762,N,12126.4188,E,1,00,00019.583,M 
$GPGGA,223658.000,3101.6761,N,12126.4192,E,1,00,00019.583,M 
$GPGGA,223658.000,3101.6761,N,12126.4197,E,1,00,00019.583,M 
$GPGGA,223659.000,3101.6761,N,12126.4201,E,1,00,00019.583,M 
$GPGGA,223659.000,3101.6760,N,12126.4206,E,1,00,00019.583,M 
$GPGGA,223700.000,3101.6760,N,12126.4210,E,1,00,00019.583,M 
$GPGGA,223700.000,3101.6759,N,12126.4214,E,1,00,00019.583,M 
$GPGGA,223701.000,3101.6759,N,12126.4219,E,1,00,00019.583,M 
$GPGGA,223702.000,3101.6759,N,12126.4223,E,1,00,00019.583,M 
$GPGGA,223702.000,3101.6758,N,12126.4228,E,1,00,00019.583,M 
$GPGGA,223703.000,3101.6758,N,12126.4232,E,1,00,00019.583,M 
$GPGGA,223703.000,3101.6757,N,12126.4237,E,1,00,00019.583,M 
$GPGGA,223704.000,3101.6757,N,12126.4242,E,1,00,00019.583,M 
$GPGGA,223704.000,3101.6757,N,12126.4246,E,1,00,00019.583,M 
$GPGGA,223705.000,3101.6756,N,12126.4251,E,1,00,00019.583,M 
$GPGGA,223705.000,3101.6756,N,12126.4255,E,1,00,00019.583,M 
$GPGGA,223706.000,3101.6755,N,12126.4260,E,1,00,00019.583,M 
$GPGGA,223706.000,3101.6755,N,12126.4264,E,1,00,00019.583,M 
$GPGGA,223707.000,3101.6754,N,12126.4269,E,1,00,00019.584,M 
$GPGGA,223708.000,3101.6754,N,12126.4273,E,1,00,00019.584,M 
$GPGGA,223708.000,3101.6753,N,12126.4278,E,1,00,00019.584,M 
$GPGGA,223709.000,3101.6753,N,12126.4282,E,1,00,00019.584,M 
$GPGGA,223709.000,3101.6752,N,12126.4286,E,1,00,00019.584,M 
$GPGGA,223710.000,3101.6752,N,12126.4291,E,1,00,00019.584,M 
$GPGGA,223710.000,3101.6751,N,12126.4295,E,1,00,00019.584,M 
$GPGGA,223711.000,3101.6751,N,12126.4300,E,1,00,00019.584,M 
$GPGGA,223712.000,3101.6750,N,12126.4304,E,1,00,00019.584,M 
$GPGGA,223712.000,3101.6750,N,12126.4309,E,1,00,00019.584,M 
$GPGGA,223713.000,3101.6749,N,12126.4313,E,1,00,00019.584,M 
$GPGGA,223713.000,3101.6748,N,12126.4317,E,1,00,00019.584,M 
$GPGGA,223714.000,3101.6748,N,12126.4322,E,1,00,00019.584,M 
$GPGGA,223714.000,3101.6747,N,12126.4326,E,1,00,00019.584,M 
$GPGGA,223715.000,3101.6747,N,12126.4330,E,1,00,00019.584,M 
$GPGGA,223715.000,3101.6746,N,12126.4335,E,1,00,00019.584,M 
$GPGGA,223716.000,3101.6746,N,12126.4339,E,1,00,00019.584,M 
$GPGGA,223717.000,3101.6745,N,12126.4344,E,1,00,00019.584,M 
$GPGGA,223717.000,3101.6745,N,12126.4348,E,1,00,00019.584,M 
$GPGGA,223718.000,3101.6744,N,12126.4353,E,1,00,00019.584,M 
$GPGGA,223718.000,3101.6744,N,12126.4357,E,1,00,00019.584,M 
$GPGGA,223719.000,3101.6743,N,12126.4362,E,1,00,00019.584,M 
$GPGGA,223719.000,3101.6742,N,12126.4366,E,1,00,00019.584,M 
$GPGGA,223720.000,3101.6742,N,12126.4370,E,1,00,00019.584,M 
$GPGGA,223721.000,3101.6741,N,12126.4375,E,1,00,00019.584,M 
$GPGGA,223721.000,3101.6741,N,12126.4379,E,1,00,00019.584,M 
$GPGGA,223722.000,3101.6741,N,12126.4383,E,1,00,00019.584,M 
$GPGGA,223722.000,3101.6740,N,12126.4388,E,1,00,00019.584,M 
$GPGGA,223723.000,3101.6740,N,12126.4393,E,1,00,00019.584,M 
$GPGGA,223723.000,3101.6740,N,12126.4397,E,1,00,00019.584,M 
$GPGGA,223724.000,3101.6739,N,12126.4401,E,1,00,00019.584,M 
$GPGGA,223725.000,3101.6739,N,12126.4406,E,1,00,00019.584,M 
$GPGGA,223725.000,3101.6738,N,12126.4410,E,1,00,00019.584,M 
$GPGGA,223726.000,3101.6738,N,12126.4415,E,1,00,00019.584,M 
$GPGGA,223726.000,3101.6737,N,12126.4419,E,1,00,00019.584,M 
$GPGGA,223727.000,3101.6737,N,12126.4423,E,1,00,00019.584,M 
$GPGGA,223727.000,3101.6736,N,12126.4428,E,1,00,00019.585,M 
$GPGGA,223728.000,3101.6736,N,12126.4432,E,1,00,00019.585,M 
$GPGGA,223728.000,3101.6736,N,12126.4437,E,1,00,00019.585,M 
$GPGGA,223729.000,3101.6735,N,12126.4441,E,1,00,00019.585,M 
$GPGGA,223730.000,3101.6735,N,12126.4446,E,1,00,00019.585,M 
$GPGGA,223730.000,3101.6734,N,12126.4450,E,1,00,00019.585,M 
$GPGGA,223731.000,3101.6734,N,12126.4454,E,1,00,00019.585,M 
$GPGGA,223731.000,3101.6733,N,12126.4459,E,1,00,00019.585,M 
$GPGGA,223732.000,3101.6732,N,12126.4463,E,1,00,00019.585,M 
$GPGGA,223732.000,3101.6732,N,12126.4468,E,1,00,00019.585,M 
$GPGGA,223733.000,3101.6731,N,12126.4472,E,1,00,00019.585,M 
$GPGGA,223734.000,3101.6731,N,12126.4476,E,1,00,00019.585,M 
$GPGGA,223734.000,3101.6730,N,12126.4481,E,1,00,00019.585,M 
$GPGGA,223735.000,3101.6729,N,12126.4485,E,1,00,00019.585,M 
$GPGGA,223735.000,3101.6729,N,12126.4490,E,1,00,00019.585,M 
$GPGGA,223736.000,3101.6729,N,12126.4494,E,1,00,00019.585,M 
$GPGGA,223736.000,3101.6728,N,12126.4498,E,1,00,00019.585,M 
$GPGGA,223737.000,3101.6728,N,12126.4503,E,1,00,00019.585,M 
$GPGGA,223738.000,3101.6727,N,12126.4507,E,1,00,00019.585,M 
$GPGGA,223738.000,3101.6727,N,12126.4512,E,1,00,00019.585,M 
$GPGGA,223739.000,3101.6726,N,12126.4516,E,1,00,00019.585,M 
$GPGGA,223739.000,3101.6726,N,12126.4521,E,1,00,00019.585,M 
$GPGGA,223740.000,3101.6725,N,12126.4525,E,1,00,00019.585,M 
$GPGGA,223740.000,3101.6725,N,12126.4529,E,1,00,00019.585,M 
$GPGGA,223741.000,3101.6724,N,12126.4534,E,1,00,00019.585,M 
$GPGGA,223742.000,3101.6724,N,12126.4538,E,1,00,00019.585,M 
$GPGGA,223742.000,3101.6723,N,12126.4543,E,1,00,00019.585,M 
$GPGGA,223743.000,3101.6723,N,12126.4547,E,1,00,00019.585,M 
$GPGGA,223743.000,3101.6722,N,12126.4551,E,1,00,00019.585,M 
$GPGGA,223744.000,3101.6722,N,12126.4556,E,1,00,00019.585,M 
$GPGGA,223744.000,3101.6721,N,12126.4560,E,1,00,00019.585,M 
$GPGGA,223745.000,3101.6721,N,12126.4564,E,1,00,00019.585,M 
$GPGGA,223745.000,3101.6721,N,12126.4569,E,1,00,00019.585,M 
$GPGGA,223746.000,3101.6720,N,12126.4573,E,1,00,00019.586,M 
$GPGGA,223747.000,3101.6720,N,12126.4578,E,1,00,00019.586,M 
$GPGGA,223747.000,3101.6719,N,12126.4582,E,1,00,00019.586,M 
$GPGGA,223748.000,3101.6719,N,12126.4587,E,1,00,00019.586,M 
$GPGGA,223748.000,3101.6718,N,12126.4591,E,1,00,00019.586,M 
$GPGGA,223749.000,3101.6718,N,12126.4595,E,1,00,00019.586,M 
$GPGGA,223749.000,3101.6717,N,12126.4600,E,1,00,00019.586,M 
$GPGGA,223750.000,3101.6717,N,12126.4604,E,1,00,00019.586,M 
$GPGGA,223751.000,3101.6716,N,12126.4608,E,1,00,00019.586,M 
$GPGGA,223751.000,3101.6716,N,12126.4613,E,1,00,00019.586,M 
$GPGGA,223752.000,3101.6715,N,12126.4617,E,1,00,00019.586,M 
$GPGGA,223752.000,3101.6715,N,12126.4622,E,1,00,00019.586,M 
$GPGGA,223753.000,3101.6714,N,12126.4626,E,1,00,00019.586,M 
$GPGGA,223753.000,3101.6714,N,12126.4630,E,1,00,00019.586,M 
$GPGGA,223754.000,3101.6713,N,12126.4635,E,1,00,00019.586,M 
$GPGGA,223755.000,3101.6713,N,12126.4639,E,1,00,00019.586,M 
$GPGGA,223755.000,3101.6712,N,12126.4644,E,1,00,00019.586,M 
$GPGGA,223756.000,3101.6712,N,12126.4648,E,1,00,00019.586,M 
$GPGGA,223756.000,3101.6711,N,12126.4653,E,1,00,00019.586,M 
$GPGGA,223757.000,3101.6711,N,12126.4657,E,1,00,00019.586,M 
$GPGGA,223757.000,3101.6710,N,12126.4661,E,1,00,00019.586,M 
$GPGGA,223758.000,3101.6710,N,12126.4666,E,1,00,00019.586,M 
$GPGGA,223759.000,3101.6710,N,12126.4670,E,1,00,00019.586,M 
$GPGGA,223759.000,3101.6709,N,12126.4675,E,1,00,00019.586,M 
$GPGGA,223800.000,3101.6709,N,12126.4679,E,1,00,00019.586,M 
$GPGGA,223800.000,3101.6709,N,12126.4683,E,1,00,00019.586,M 
$GPGGA,223801.000,3101.6708,N,12126.4688,E,1,00,00019.586,M 
$GPGGA,223801.000,3101.6708,N,12126.4692,E,1,00,00019.586,M 
$GPGGA,223802.000,3101.6708,N,12126.4696,E,1,00,00019.586,M 
$GPGGA,223803.000,3101.6707,N,12126.4700,E,1,00,00019.586,M 
$GPGGA,223803.000,3101.6707,N,12126.4701,E,1,00,00019.586,M 
$GPGGA,223839.000,3101.6707,N,12126.4705,E,1,00,00019.587,M 
$GPGGA,223840.000,3101.6706,N,12126.4710,E,1,00,00019.587,M 
$GPGGA,223840.000,3101.6706,N,12126.4714,E,1,00,00019.587,M 
$GPGGA,223841.000,3101.6705,N,12126.4718,E,1,00,00019.587,M 
$GPGGA,223841.000,3101.6705,N,12126.4723,E,1,00,00019.587,M 
$GPGGA,223842.000,3101.6704,N,12126.4728,E,1,00,00019.587,M 
$GPGGA,223842.000,3101.6704,N,12126.4732,E,1,00,00019.587,M 
$GPGGA,223843.000,3101.6703,N,12126.4737,E,1,00,00019.587,M 
$GPGGA,223843.000,3101.6703,N,12126.4741,E,1,00,00019.587,M 
$GPGGA,223844.000,3101.6702,N,12126.4746,E,1,00,00019.587,M 
$GPGGA,223845.000,3101.6702,N,12126.4750,E,1,00,00019.587,M 
$GPGGA,223845.000,3101.6701,N,12126.4755,E,1,00,00019.587,M 
$GPGGA,223846.000,3101.6701,N,12126.4759,E,1,00,00019.587,M 
$GPGGA,223846.000,3101.6700,N,12126.4764,E,1,00,00019.587,M 
$GPGGA,223847.000,3101.6700,N,12126.4768,E,1,00,00019.587,M 
$GPGGA,223847.000,3101.6699,N,12126.4773,E,1,00,00019.587,M 
$GPGGA,223848.000,3101.6699,N,12126.4777,E,1,00,00019.587,M 
$GPGGA,223848.000,3101.6698,N,12126.4782,E,1,00,00019.587,M 
$GPGGA,223849.000,3101.6698,N,12126.4786,E,1,00,00019.587,M 
$GPGGA,223850.000,3101.6698,N,12126.4791,E,1,00,00019.587,M 
$GPGGA,223850.000,3101.6697,N,12126.4795,E,1,00,00019.587,M 
$GPGGA,223851.000,3101.6696,N,12126.4800,E,1,00,00019.587,M 
$GPGGA,223851.000,3101.6696,N,12126.4804,E,1,00,00019.587,M 
$GPGGA,223852.000,3101.6695,N,12126.4809,E,1,00,00019.587,M 
$GPGGA,223852.000,3101.6695,N,12126.4813,E,1,00,00019.587,M 
$GPGGA,223853.000,3101.6695,N,12126.4817,E,1,00,00019.587,M 
$GPGGA,223853.000,3101.6694,N,12126.4822,E,1,00,00019.587,M 
$GPGGA,223854.000,3101.6694,N,12126.4826,E,1,00,00019.588,M 
$GPGGA,223855.000,3101.6693,N,12126.4831,E,1,00,00019.588,M 
$GPGGA,223855.000,3101.6693,N,12126.4835,E,1,00,00019.588,M 
$GPGGA,223856.000,3101.6693,N,12126.4840,E,1,00,00019.588,M 
$GPGGA,223856.000,3101.6692,N,12126.4844,E,1,00,00019.588,M 
$GPGGA,223857.000,3101.6692,N,12126.4849,E,1,00,00019.588,M 
$GPGGA,223857.000,3101.6691,N,12126.4853,E,1,00,00019.588,M 
$GPGGA,223858.000,3101.6691,N,12126.4858,E,1,00,00019.588,M 
$GPGGA,223858.000,3101.6690,N,12126.4862,E,1,00,00019.588,M 
$GPGGA,223859.000,3101.6690,N,12126.4867,E,1,00,00019.588,M 
$GPGGA,223900.000,3101.6690,N,12126.4871,E,1,00,00019.588,M 
$GPGGA,223900.000,3101.6689,N,12126.4876,E,1,00,00019.588,M 
$GPGGA,223901.000,3101.6689,N,12126.4880,E,1,00,00019.588,M 
$GPGGA,223901.000,3101.6688,N,12126.4885,E,1,00,00019.588,M 
$GPGGA,223902.000,3101.6688,N,12126.4889,E,1,00,00019.588,M 
$GPGGA,223902.000,3101.6688,N,12126.4894,E,1,00,00019.588,M 
$GPGGA,223903.000,3101.6687,N,12126.4898,E,1,00,00019.588,M 
$GPGGA,223903.000,3101.6687,N,12126.4903,E,1,00,00019.588,M 
$GPGGA,223904.000,3101.6686,N,12126.4907,E,1,00,00019.588,M 
$GPGGA,223905.000,3101.6686,N,12126.4911,E,1,00,00019.588,M 
$GPGGA,223905.000,3101.6685,N,12126.4916,E,1,00,00019.588,M 
$GPGGA,223906.000,3101.6685,N,12126.4920,E,1,00,00019.588,M 
$GPGGA,223906.000,3101.6684,N,12126.4925,E,1,00,00019.588,M 
$GPGGA,223907.000,3101.6684,N,12126.4929,E,1,00,00019.588,M 
$GPGGA,223907.000,3101.6683,N,12126.4934,E,1,00,00019.588,M 
$GPGGA,223908.000,3101.6683,N,12126.4938,E,1,00,00019.588,M 
$GPGGA,223908.000,3101.6682,N,12126.4943,E,1,00,00019.589,M 
$GPGGA,223909.000,3101.6682,N,12126.4947,E,1,00,00019.589,M 
$GPGGA,223910.000,3101.6681,N,12126.4952,E,1,00,00019.589,M 
$GPGGA,223910.000,3101.6681,N,12126.4956,E,1,00,00019.589,M 
$GPGGA,223911.000,3101.6680,N,12126.4961,E,1,00,00019.589,M 
$GPGGA,223911.000,3101.6680,N,12126.4965,E,1,00,00019.589,M 
$GPGGA,223912.000,3101.6679,N,12126.4969,E,1,00,00019.589,M 
$GPGGA,223912.000,3101.6679,N,12126.4974,E,1,00,00019.589,M 
$GPGGA,223913.000,3101.6678,N,12126.4978,E,1,00,00019.589,M 
$GPGGA,223914.000,3101.6678,N,12126.4983,E,1,00,00019.589,M 
$GPGGA,223914.000,3101.6678,N,12126.4987,E,1,00,00019.589,M 
$GPGGA,223915.000,3101.6677,N,12126.4992,E,1,00,00019.589,M 
$GPGGA,223915.000,3101.6677,N,12126.4996,E,1,00,00019.589,M 
$GPGGA,223916.000,3101.6676,N,12126.5001,E,1,00,00019.589,M 
$GPGGA,223916.000,3101.6676,N,12126.5005,E,1,00,00019.589,M 
$GPGGA,223917.000,3101.6675,N,12126.5010,E,1,00,00019.589,M 
$GPGGA,223917.000,3101.6675,N,12126.5014,E,1,00,00019.589,M 
$GPGGA,223918.000,3101.6674,N,12126.5019,E,1,00,00019.589,M 
$GPGGA,223919.000,3101.6674,N,12126.5023,E,1,00,00019.589,M 
$GPGGA,223919.000,3101.6673,N,12126.5028,E,1,00,00019.589,M 
$GPGGA,223920.000,3101.6673,N,12126.5032,E,1,00,00019.589,M 
$GPGGA,223920.000,3101.6672,N,12126.5036,E,1,00,00019.589,M 
$GPGGA,223921.000,3101.6672,N,12126.5041,E,1,00,00019.589,M 
$GPGGA,223921.000,3101.6671,N,12126.5045,E,1,00,00019.589,M 
$GPGGA,223922.000,3101.6671,N,12126.5050,E,1,00,00019.589,M 
$GPGGA,223922.000,3101.6670,N,12126.5054,E,1,00,00019.590,M 
$GPGGA,223923.000,3101.6670,N,12126.5059,E,1,00,00019.590,M 
$GPGGA,223924.000,3101.6669,N,12126.5063,E,1,00,00019.590,M 
$GPGGA,223924.000,3101.6669,N,12126.5068,E,1,00,00019.590,M 
$GPGGA,223925.000,3101.6668,N,12126.5072,E,1,00,00019.590,M 
$GPGGA,223925.000,3101.6668,N,12126.5077,E,1,00,00019.590,M 
$GPGGA,223926.000,3101.6667,N,12126.5081,E,1,00,00019.590,M 
$GPGGA,223926.000,3101.6667,N,12126.5086,E,1,00,00019.590,M 
$GPGGA,223927.000,3101.6667,N,12126.5090,E,1,00,00019.590,M 
$GPGGA,223927.000,3101.6666,N,12126.5095,E,1,00,00019.590,M 
$GPGGA,223928.000,3101.6666,N,12126.5099,E,1,00,00019.590,M 
$GPGGA,223929.000,3101.6665,N,12126.5104,E,1,00,00019.590,M 
$GPGGA,223929.000,3101.6664,N,12126.5108,E,1,00,00019.590,M 
$GPGGA,223930.000,3101.6664,N,12126.5113,E,1,00,00019.590,M 
$GPGGA,223930.000,3101.6663,N,12126.5117,E,1,00,00019.590,M 
$GPGGA,223931.000,3101.6663,N,12126.5122,E,1,00,00019.590,M 
$GPGGA,223931.000,3101.6662,N,12126.5126,E,1,00,00019.590,M 
$GPGGA,223932.000,3101.6662,N,12126.5130,E,1,00,00019.590,M 
$GPGGA,223932.000,3101.6661,N,12126.5135,E,1,00,00019.590,M 
$GPGGA,223933.000,3101.6660,N,12126.5139,E,1,00,00019.590,M 
$GPGGA,223934.000,3101.6660,N,12126.5144,E,1,00,00019.590,M 
$GPGGA,223934.000,3101.6659,N,12126.5148,E,1,00,00019.590,M 
$GPGGA,223935.000,3101.6659,N,12126.5153,E,1,00,00019.590,M 
$GPGGA,223935.000,3101.6658,N,12126.5157,E,1,00,00019.590,M 
$GPGGA,223936.000,3101.6657,N,12126.5161,E,1,00,00019.591,M 
$GPGGA,223936.000,3101.6657,N,12126.5166,E,1,00,00019.591,M 
$GPGGA,223937.000,3101.6656,N,12126.5170,E,1,00,00019.591,M 
$GPGGA,223938.000,3101.6655,N,12126.5175,E,1,00,00019.591,M 
$GPGGA,223938.000,3101.6654,N,12126.5179,E,1,00,00019.591,M 
$GPGGA,223939.000,3101.6654,N,12126.5183,E,1,00,00019.591,M 
$GPGGA,223939.000,3101.6653,N,12126.5188,E,1,00,00019.591,M 
$GPGGA,223940.000,3101.6653,N,12126.5192,E,1,00,00019.591,M 
$GPGGA,223940.000,3101.6652,N,12126.5197,E,1,00,00019.591,M 
$GPGGA,223941.000,3101.6652,N,12126.5201,E,1,00,00019.591,M 
$GPGGA,223941.000,3101.6652,N,12126.5205,E,1,00,00019.591,M 
$GPGGA,223942.000,3101.6651,N,12126.5210,E,1,00,00019.591,M 
$GPGGA,223943.000,3101.6650,N,12126.5214,E,1,00,00019.591,M 
$GPGGA,223943.000,3101.6650,N,12126.5219,E,1,00,00019.591,M 
$GPGGA,223944.000,3101.6649,N,12126.5223,E,1,00,00019.591,M 
$GPGGA,223944.000,3101.6649,N,12126.5228,E,1,00,00019.591,M 
$GPGGA,223945.000,3101.6648,N,12126.5232,E,1,00,00019.591,M 
$GPGGA,223945.000,3101.6648,N,12126.5236,E,1,00,00019.591,M 
$GPGGA,223946.000,3101.6647,N,12126.5241,E,1,00,00019.591,M 
$GPGGA,223947.000,3101.6647,N,12126.5245,E,1,00,00019.591,M 
$GPGGA,223947.000,3101.6647,N,12126.5250,E,1,00,00019.591,M 
$GPGGA,223948.000,3101.6646,N,12126.5254,E,1,00,00019.591,M 
$GPGGA,223948.000,3101.6646,N,12126.5259,E,1,00,00019.591,M 
$GPGGA,223949.000,3101.6645,N,12126.5263,E,1,00,00019.592,M 
$GPGGA,223949.000,3101.6645,N,12126.5267,E,1,00,00019.592,M 
$GPGGA,223950.000,3101.6644,N,12126.5272,E,1,00,00019.592,M 
$GPGGA,223950.000,3101.6644,N,12126.5276,E,1,00,00019.592,M 
$GPGGA,223951.000,3101.6643,N,12126.5281,E,1,00,00019.592,M 
$GPGGA,223952.000,3101.6643,N,12126.5285,E,1,00,00019.592,M 
$GPGGA,223952.000,3101.6642,N,12126.5289,E,1,00,00019.592,M 
$GPGGA,223953.000,3101.6642,N,12126.5294,E,1,00,00019.592,M 
$GPGGA,223953.000,3101.6641,N,12126.5298,E,1,00,00019.592,M 
$GPGGA,223954.000,3101.6641,N,12126.5303,E,1,00,00019.592,M 
$GPGGA,223954.000,3101.6640,N,12126.5307,E,1,00,00019.592,M 
$GPGGA,223955.000,3101.6640,N,12126.5311,E,1,00,00019.592,M 
$GPGGA,223956.000,3101.6639,N,12126.5316,E,1,00,00019.592,M 
$GPGGA,223956.000,3101.6639,N,12126.5320,E,1,00,00019.592,M 
$GPGGA,223957.000,3101.6638,N,12126.5325,E,1,00,00019.592,M 
$GPGGA,223957.000,3101.6638,N,12126.5329,E,1,00,00019.592,M 
$GPGGA,223958.000,3101.6637,N,12126.5333,E,1,00,00019.592,M 
$GPGGA,223958.000,3101.6637,N,12126.5338,E,1,00,00019.592,M 
$GPGGA,223959.000,3101.6636,N,12126.5342,E,1,00,00019.592,M 
$GPGGA,224000.000,3101.6636,N,12126.5347,E,1,00,00019.592,M 
$GPGGA,224000.000,3101.6635,N,12126.5351,E,1,00,00019.592,M 
$GPGGA,224001.000,3101.6635,N,12126.5355,E,1,00,00019.592,M 
$GPGGA,224001.000,3101.6634,N,12126.5360,E,1,00,00019.593,M 
$GPGGA,224002.000,3101.6634,N,12126.5364,E,1,00,00019.593,M 
$GPGGA,224002.000,3101.6633,N,12126.5369,E,1,00,00019.593,M 
$GPGGA,224003.000,3101.6633,N,12126.5373,E,1,00,00019.593,M 
$GPGGA,224004.000,3101.6633,N,12126.5377,E,1,00,00019.593,M 
$GPGGA,224004.000,3101.6632,N,12126.5382,E,1,00,00019.593,M 
$GPGGA,224005.000,3101.6632,N,12126.5386,E,1,00,00019.593,M 
$GPGGA,224005.000,3101.6631,N,12126.5391,E,1,00,00019.593,M 
$GPGGA,224006.000,3101.6631,N,12126.5395,E,1,00,00019.593,M 
$GPGGA,224006.000,3101.6630,N,12126.5399,E,1,00,00019.593,M 
$GPGGA,224007.000,3101.6630,N,12126.5404,E,1,00,00019.593,M 
$GPGGA,224008.000,3101.6629,N,12126.5408,E,1,00,00019.593,M 
$GPGGA,224008.000,3101.6629,N,12126.5413,E,1,00,00019.593,M 
$GPGGA,224009.000,3101.6628,N,12126.5417,E,1,00,00019.593,M 
$GPGGA,224009.000,3101.6628,N,12126.5421,E,1,00,00019.593,M 
$GPGGA,224010.000,3101.6627,N,12126.5425,E,1,00,00019.593,M 
$GPGGA,224010.000,3101.6627,N,12126.5430,E,1,00,00019.593,M 
$GPGGA,224011.000,3101.6626,N,12126.5434,E,1,00,00019.593,M 
$GPGGA,224012.000,3101.6626,N,12126.5439,E,1,00,00019.593,M 
$GPGGA,224012.000,3101.6625,N,12126.5443,E,1,00,00019.593,M 
$GPGGA,224013.000,3101.6625,N,12126.5448,E,1,00,00019.593,M 
$GPGGA,224013.000,3101.6624,N,12126.5452,E,1,00,00019.593,M 
$GPGGA,224014.000,3101.6624,N,12126.5457,E,1,00,00019.594,M 
$GPGGA,224014.000,3101.6623,N,12126.5461,E,1,00,00019.594,M 
$GPGGA,224015.000,3101.6623,N,12126.5465,E,1,00,00019.594,M 
$GPGGA,224015.000,3101.6622,N,12126.5470,E,1,00,00019.594,M 
$GPGGA,224016.000,3101.6622,N,12126.5474,E,1,00,00019.594,M 
$GPGGA,224017.000,3101.6621,N,12126.5479,E,1,00,00019.594,M 
$GPGGA,224017.000,3101.6621,N,12126.5483,E,1,00,00019.594,M 
$GPGGA,224018.000,3101.6620,N,12126.5488,E,1,00,00019.594,M 
$GPGGA,224018.000,3101.6620,N,12126.5492,E,1,00,00019.594,M 
$GPGGA,224019.000,3101.6619,N,12126.5496,E,1,00,00019.594,M 
$GPGGA,224019.000,3101.6619,N,12126.5501,E,1,00,00019.594,M 
$GPGGA,224020.000,3101.6618,N,12126.5505,E,1,00,00019.594,M 
$GPGGA,224021.000,3101.6618,N,12126.5510,E,1,00,00019.594,M 
$GPGGA,224021.000,3101.6617,N,12126.5514,E,1,00,00019.594,M 
$GPGGA,224022.000,3101.6617,N,12126.5519,E,1,00,00019.594,M 
$GPGGA,224022.000,3101.6616,N,12126.5523,E,1,00,00019.594,M 
$GPGGA,224023.000,3101.6616,N,12126.5528,E,1,00,00019.594,M 
$GPGGA,224023.000,3101.6615,N,12126.5532,E,1,00,00019.594,M 
$GPGGA,224024.000,3101.6614,N,12126.5537,E,1,00,00019.594,M 
$GPGGA,224024.000,3101.6614,N,12126.5541,E,1,00,00019.594,M 
$GPGGA,224025.000,3101.6613,N,12126.5545,E,1,00,00019.595,M 
$GPGGA,224026.000,3101.6613,N,12126.5550,E,1,00,00019.595,M 
$GPGGA,224026.000,3101.6612,N,12126.5554,E,1,00,00019.595,M 
$GPGGA,224027.000,3101.6612,N,12126.5559,E,1,00,00019.595,M 
$GPGGA,224027.000,3101.6611,N,12126.5563,E,1,00,00019.595,M 
$GPGGA,224028.000,3101.6610,N,12126.5568,E,1,00,00019.595,M 
$GPGGA,224028.000,3101.6610,N,12126.5572,E,1,00,00019.595,M 
$GPGGA,224029.000,3101.6609,N,12126.5577,E,1,00,00019.595,M 
$GPGGA,224029.000,3101.6609,N,12126.5581,E,1,00,00019.595,M 
$GPGGA,224030.000,3101.6608,N,12126.5586,E,1,00,00019.595,M 
$GPGGA,224031.000,3101.6608,N,12126.5590,E,1,00,00019.595,M 
$GPGGA,224031.000,3101.6607,N,12126.5594,E,1,00,00019.595,M 
$GPGGA,224032.000,3101.6606,N,12126.5599,E,1,00,00019.595,M 
$GPGGA,224032.000,3101.6606,N,12126.5603,E,1,00,00019.595,M 
$GPGGA,224033.000,3101.6605,N,12126.5608,E,1,00,00019.595,M 
$GPGGA,224033.000,3101.6605,N,12126.5612,E,1,00,00019.595,M 
$GPGGA,224034.000,3101.6604,N,12126.5617,E,1,00,00019.595,M 
$GPGGA,224035.000,3101.6604,N,12126.5621,E,1,00,00019.595,M 
$GPGGA,224035.000,3101.6604,N,12126.5626,E,1,00,00019.595,M 
$GPGGA,224036.000,3101.6603,N,12126.5630,E,1,00,00019.595,M 
$GPGGA,224036.000,3101.6602,N,12126.5634,E,1,00,00019.596,M 
$GPGGA,224037.000,3101.6602,N,12126.5639,E,1,00,00019.596,M 
$GPGGA,224037.000,3101.6602,N,12126.5643,E,1,00,00019.596,M 
$GPGGA,224038.000,3101.6601,N,12126.5647,E,1,00,00019.596,M 
$GPGGA,224039.000,3101.6601,N,12126.5652,E,1,00,00019.596,M 
$GPGGA,224039.000,3101.6600,N,12126.5656,E,1,00,00019.596,M 
$GPGGA,224040.000,3101.6600,N,12126.5661,E,1,00,00019.596,M 
$GPGGA,224040.000,3101.6599,N,12126.5665,E,1,00,00019.596,M 
$GPGGA,224041.000,3101.6599,N,12126.5670,E,1,00,00019.596,M 
$GPGGA,224041.000,3101.6598,N,12126.5674,E,1,00,00019.596,M 
$GPGGA,224042.000,3101.6598,N,12126.5678,E,1,00,00019.596,M 
$GPGGA,224042.000,3101.6597,N,12126.5683,E,1,00,00019.596,M 
$GPGGA,224043.000,3101.6597,N,12126.5687,E,1,00,00019.596,M 
$GPGGA,224044.000,3101.6596,N,12126.5692,E,1,00,00019.596,M 
$GPGGA,224044.000,3101.6595,N,12126.5696,E,1,00,00019.596,M 
$GPGGA,224045.000,3101.6595,N,12126.5700,E,1,00,00019.596,M 
$GPGGA,224045.000,3101.6595,N,12126.5704,E,1,00,00019.596,M 
$GPGGA,224046.000,3101.6594,N,12126.5709,E,1,00,00019.596,M 
$GPGGA,224046.000,3101.6593,N,12126.5713,E,1,00,00019.596,M 
$GPGGA,224047.000,3101.6593,N,12126.5718,E,1,00,00019.596,M 
$GPGGA,224048.000,3101.6592,N,12126.5722,E,1,00,00019.597,M 
$GPGGA,224048.000,3101.6591,N,12126.5726,E,1,00,00019.597,M 
$GPGGA,224049.000,3101.6591,N,12126.5731,E,1,00,00019.597,M 
$GPGGA,224049.000,3101.6590,N,12126.5735,E,1,00,00019.597,M 
$GPGGA,224050.000,3101.6589,N,12126.5739,E,1,00,00019.597,M 
$GPGGA,224050.000,3101.6589,N,12126.5744,E,1,00,00019.597,M 
$GPGGA,224051.000,3101.6588,N,12126.5748,E,1,00,00019.597,M 
$GPGGA,224052.000,3101.6588,N,12126.5752,E,1,00,00019.597,M 
$GPGGA,224052.000,3101.6587,N,12126.5756,E,1,00,00019.597,M 
$GPGGA,224053.000,3101.6587,N,12126.5757,E,1,00,00019.597,M 
$GPGGA,224143.000,3101.6586,N,12126.5762,E,1,00,00019.597,M 
$GPGGA,224143.000,3101.6586,N,12126.5766,E,1,00,00019.597,M 
$GPGGA,224144.000,3101.6585,N,12126.5770,E,1,00,00019.597,M 
$GPGGA,224145.000,3101.6585,N,12126.5775,E,1,00,00019.597,M 
$GPGGA,224145.000,3101.6584,N,12126.5780,E,1,00,00019.597,M 
$GPGGA,224146.000,3101.6583,N,12126.5784,E,1,00,00019.597,M 
$GPGGA,224146.000,3101.6582,N,12126.5789,E,1,00,00019.597,M 
$GPGGA,224147.000,3101.6582,N,12126.5793,E,1,00,00019.597,M 
$GPGGA,224147.000,3101.6581,N,12126.5798,E,1,00,00019.597,M 
$GPGGA,224148.000,3101.6580,N,12126.5803,E,1,00,00019.597,M 
$GPGGA,224148.000,3101.6580,N,12126.5807,E,1,00,00019.598,M 
$GPGGA,224149.000,3101.6579,N,12126.5812,E,1,00,00019.598,M 
$GPGGA,224149.000,3101.6578,N,12126.5816,E,1,00,00019.598,M 
$GPGGA,224150.000,3101.6577,N,12126.5821,E,1,00,00019.598,M 
$GPGGA,224150.000,3101.6577,N,12126.5825,E,1,00,00019.598,M 
$GPGGA,224151.000,3101.6576,N,12126.5830,E,1,00,00019.598,M 
$GPGGA,224152.000,3101.6575,N,12126.5834,E,1,00,00019.598,M 
$GPGGA,224152.000,3101.6575,N,12126.5839,E,1,00,00019.598,M 
$GPGGA,224153.000,3101.6574,N,12126.5843,E,1,00,00019.598,M 
$GPGGA,224153.000,3101.6574,N,12126.5848,E,1,00,00019.598,M 
$GPGGA,224154.000,3101.6573,N,12126.5852,E,1,00,00019.598,M 
$GPGGA,224154.000,3101.6572,N,12126.5856,E,1,00,00019.598,M 
$GPGGA,224155.000,3101.6571,N,12126.5861,E,1,00,00019.598,M 
$GPGGA,224155.000,3101.6571,N,12126.5865,E,1,00,00019.598,M 
$GPGGA,224156.000,3101.6570,N,12126.5870,E,1,00,00019.598,M 
$GPGGA,224157.000,3101.6569,N,12126.5874,E,1,00,00019.598,M 
$GPGGA,224157.000,3101.6569,N,12126.5879,E,1,00,00019.598,M 
$GPGGA,224158.000,3101.6568,N,12126.5884,E,1,00,00019.598,M 
$GPGGA,224158.000,3101.6568,N,12126.5888,E,1,00,00019.598,M 
$GPGGA,224159.000,3101.6567,N,12126.5893,E,1,00,00019.599,M 
$GPGGA,224159.000,3101.6566,N,12126.5897,E,1,00,00019.599,M 
$GPGGA,224200.000,3101.6565,N,12126.5902,E,1,00,00019.599,M 
$GPGGA,224200.000,3101.6565,N,12126.5906,E,1,00,00019.599,M 
$GPGGA,224201.000,3101.6564,N,12126.5911,E,1,00,00019.599,M 
$GPGGA,224201.000,3101.6563,N,12126.5915,E,1,00,00019.599,M 
$GPGGA,224202.000,3101.6562,N,12126.5919,E,1,00,00019.599,M 
$GPGGA,224203.000,3101.6562,N,12126.5924,E,1,00,00019.599,M 
$GPGGA,224203.000,3101.6561,N,12126.5928,E,1,00,00019.599,M 
$GPGGA,224204.000,3101.6560,N,12126.5933,E,1,00,00019.599,M 
$GPGGA,224204.000,3101.6560,N,12126.5937,E,1,00,00019.599,M 
$GPGGA,224205.000,3101.6559,N,12126.5942,E,1,00,00019.599,M 
$GPGGA,224205.000,3101.6558,N,12126.5946,E,1,00,00019.599,M 
$GPGGA,224206.000,3101.6557,N,12126.5951,E,1,00,00019.599,M 
$GPGGA,224206.000,3101.6557,N,12126.5955,E,1,00,00019.599,M 
$GPGGA,224207.000,3101.6556,N,12126.5960,E,1,00,00019.599,M 
$GPGGA,224207.000,3101.6555,N,12126.5964,E,1,00,00019.599,M 
$GPGGA,224208.000,3101.6554,N,12126.5969,E,1,00,00019.599,M 
$GPGGA,224209.000,3101.6554,N,12126.5973,E,1,00,00019.600,M 
$GPGGA,224209.000,3101.6553,N,12126.5978,E,1,00,00019.600,M 
$GPGGA,224210.000,3101.6552,N,12126.5982,E,1,00,00019.600,M 
$GPGGA,224210.000,3101.6551,N,12126.5986,E,1,00,00019.600,M 
$GPGGA,224211.000,3101.6551,N,12126.5991,E,1,00,00019.600,M 
$GPGGA,224211.000,3101.6550,N,12126.5995,E,1,00,00019.600,M 
$GPGGA,224212.000,3101.6549,N,12126.6000,E,1,00,00019.600,M 
$GPGGA,224212.000,3101.6549,N,12126.6004,E,1,00,00019.600,M 
$GPGGA,224213.000,3101.6548,N,12126.6009,E,1,00,00019.600,M 
$GPGGA,224214.000,3101.6547,N,12126.6013,E,1,00,00019.600,M 
$GPGGA,224214.000,3101.6546,N,12126.6018,E,1,00,00019.600,M 
$GPGGA,224215.000,3101.6546,N,12126.6022,E,1,00,00019.600,M 
$GPGGA,224215.000,3101.6545,N,12126.6027,E,1,00,00019.600,M 
$GPGGA,224216.000,3101.6544,N,12126.6031,E,1,00,00019.600,M 
$GPGGA,224216.000,3101.6543,N,12126.6036,E,1,00,00019.600,M 
$GPGGA,224217.000,3101.6543,N,12126.6040,E,1,00,00019.600,M 
$GPGGA,224217.000,3101.6542,N,12126.6045,E,1,00,00019.600,M 
$GPGGA,224218.000,3101.6541,N,12126.6049,E,1,00,00019.600,M 
$GPGGA,224219.000,3101.6541,N,12126.6053,E,1,00,00019.601,M 
$GPGGA,224219.000,3101.6540,N,12126.6058,E,1,00,00019.601,M 
$GPGGA,224220.000,3101.6539,N,12126.6062,E,1,00,00019.601,M 
$GPGGA,224220.000,3101.6539,N,12126.6066,E,1,00,00019.601,M 
$GPGGA,224221.000,3101.6538,N,12126.6071,E,1,00,00019.601,M 
$GPGGA,224221.000,3101.6538,N,12126.6075,E,1,00,00019.601,M 
$GPGGA,224222.000,3101.6537,N,12126.6080,E,1,00,00019.601,M 
$GPGGA,224222.000,3101.6536,N,12126.6084,E,1,00,00019.601,M 
$GPGGA,224223.000,3101.6536,N,12126.6089,E,1,00,00019.601,M 
$GPGGA,224224.000,3101.6535,N,12126.6093,E,1,00,00019.601,M 
$GPGGA,224224.000,3101.6534,N,12126.6098,E,1,00,00019.601,M 
$GPGGA,224225.000,3101.6534,N,12126.6102,E,1,00,00019.601,M 
$GPGGA,224225.000,3101.6533,N,12126.6106,E,1,00,00019.601,M 
$GPGGA,224226.000,3101.6533,N,12126.6111,E,1,00,00019.601,M 
$GPGGA,224226.000,3101.6532,N,12126.6115,E,1,00,00019.601,M 
$GPGGA,224227.000,3101.6532,N,12126.6120,E,1,00,00019.601,M 
$GPGGA,224227.000,3101.6531,N,12126.6124,E,1,00,00019.601,M 
$GPGGA,224228.000,3101.6531,N,12126.6129,E,1,00,00019.602,M 
$GPGGA,224229.000,3101.6530,N,12126.6133,E,1,00,00019.602,M 
$GPGGA,224229.000,3101.6530,N,12126.6138,E,1,00,00019.602,M 
$GPGGA,224230.000,3101.6529,N,12126.6142,E,1,00,00019.602,M 
$GPGGA,224230.000,3101.6529,N,12126.6147,E,1,00,00019.602,M 
$GPGGA,224231.000,3101.6528,N,12126.6151,E,1,00,00019.602,M 
$GPGGA,224231.000,3101.6528,N,12126.6156,E,1,00,00019.602,M 
$GPGGA,224232.000,3101.6527,N,12126.6160,E,1,00,00019.602,M 
$GPGGA,224232.000,3101.6527,N,12126.6165,E,1,00,00019.602,M 
$GPGGA,224233.000,3101.6526,N,12126.6169,E,1,00,00019.602,M 
$GPGGA,224234.000,3101.6525,N,12126.6174,E,1,00,00019.602,M 
$GPGGA,224234.000,3101.6525,N,12126.6178,E,1,00,00019.602,M 
$GPGGA,224235.000,3101.6524,N,12126.6183,E,1,00,00019.602,M 
$GPGGA,224235.000,3101.6524,N,12126.6187,E,1,00,00019.602,M 
$GPGGA,224236.000,3101.6523,N,12126.6192,E,1,00,00019.602,M 
$GPGGA,224236.000,3101.6522,N,12126.6196,E,1,00,00019.602,M 
$GPGGA,224237.000,3101.6522,N,12126.6200,E,1,00,00019.602,M 
$GPGGA,224237.000,3101.6521,N,12126.6205,E,1,00,00019.603,M 
$GPGGA,224238.000,3101.6520,N,12126.6210,E,1,00,00019.603,M 
$GPGGA,224239.000,3101.6520,N,12126.6214,E,1,00,00019.603,M 
$GPGGA,224239.000,3101.6519,N,12126.6218,E,1,00,00019.603,M 
$GPGGA,224240.000,3101.6519,N,12126.6223,E,1,00,00019.603,M 
$GPGGA,224240.000,3101.6518,N,12126.6227,E,1,00,00019.603,M 
$GPGGA,224241.000,3101.6517,N,12126.6232,E,1,00,00019.603,M 
$GPGGA,224241.000,3101.6517,N,12126.6236,E,1,00,00019.603,M 
$GPGGA,224242.000,3101.6516,N,12126.6240,E,1,00,00019.603,M 
$GPGGA,224242.000,3101.6516,N,12126.6245,E,1,00,00019.603,M 
$GPGGA,224243.000,3101.6515,N,12126.6249,E,1,00,00019.603,M 
$GPGGA,224244.000,3101.6515,N,12126.6254,E,1,00,00019.603,M 
$GPGGA,224244.000,3101.6514,N,12126.6258,E,1,00,00019.603,M 
$GPGGA,224245.000,3101.6514,N,12126.6262,E,1,00,00019.603,M 
$GPGGA,224245.000,3101.6513,N,12126.6267,E,1,00,00019.603,M 
$GPGGA,224246.000,3101.6512,N,12126.6271,E,1,00,00019.603,M 
$GPGGA,224246.000,3101.6512,N,12126.6276,E,1,00,00019.604,M 
$GPGGA,224247.000,3101.6511,N,12126.6280,E,1,00,00019.604,M 
$GPGGA,224248.000,3101.6511,N,12126.6285,E,1,00,00019.604,M 
$GPGGA,224248.000,3101.6510,N,12126.6289,E,1,00,00019.604,M 
$GPGGA,224249.000,3101.6510,N,12126.6294,E,1,00,00019.604,M 
$GPGGA,224249.000,3101.6509,N,12126.6298,E,1,00,00019.604,M 
$GPGGA,224250.000,3101.6508,N,12126.6303,E,1,00,00019.604,M 
$GPGGA,224250.000,3101.6508,N,12126.6307,E,1,00,00019.604,M 
$GPGGA,224251.000,3101.6507,N,12126.6311,E,1,00,00019.604,M 
$GPGGA,224251.000,3101.6506,N,12126.6316,E,1,00,00019.604,M 
$GPGGA,224252.000,3101.6506,N,12126.6320,E,1,00,00019.604,M 
$GPGGA,224253.000,3101.6505,N,12126.6325,E,1,00,00019.604,M 
$GPGGA,224253.000,3101.6504,N,12126.6329,E,1,00,00019.604,M 
$GPGGA,224254.000,3101.6503,N,12126.6334,E,1,00,00019.604,M 
$GPGGA,224254.000,3101.6503,N,12126.6338,E,1,00,00019.604,M 
$GPGGA,224255.000,3101.6502,N,12126.6343,E,1,00,00019.604,M 
$GPGGA,224255.000,3101.6501,N,12126.6347,E,1,00,00019.605,M 
$GPGGA,224256.000,3101.6501,N,12126.6351,E,1,00,00019.605,M 
$GPGGA,224256.000,3101.6500,N,12126.6356,E,1,00,00019.605,M 
$GPGGA,224257.000,3101.6500,N,12126.6357,E,1,00,00019.605,M 
$GPGGA,224324.000,3101.6499,N,12126.6361,E,1,00,00019.605,M 
$GPGGA,224324.000,3101.6498,N,12126.6366,E,1,00,00019.605,M 
$GPGGA,224325.000,3101.6497,N,12126.6370,E,1,00,00019.605,M 
$GPGGA,224325.000,3101.6496,N,12126.6374,E,1,00,00019.605,M 
$GPGGA,224326.000,3101.6496,N,12126.6379,E,1,00,00019.605,M 
$GPGGA,224326.000,3101.6495,N,12126.6383,E,1,00,00019.605,M 
$GPGGA,224327.000,3101.6494,N,12126.6388,E,1,00,00019.605,M 
$GPGGA,224328.000,3101.6493,N,12126.6392,E,1,00,00019.605,M 
$GPGGA,224328.000,3101.6493,N,12126.6397,E,1,00,00019.605,M 
$GPGGA,224329.000,3101.6492,N,12126.6401,E,1,00,00019.605,M 
$GPGGA,224329.000,3101.6491,N,12126.6406,E,1,00,00019.605,M 
$GPGGA,224330.000,3101.6490,N,12126.6410,E,1,00,00019.605,M 
$GPGGA,224330.000,3101.6490,N,12126.6414,E,1,00,00019.605,M 
$GPGGA,224331.000,3101.6489,N,12126.6419,E,1,00,00019.605,M 
$GPGGA,224331.000,3101.6488,N,12126.6424,E,1,00,00019.606,M 
$GPGGA,224332.000,3101.6488,N,12126.6428,E,1,00,00019.606,M 
$GPGGA,224332.000,3101.6487,N,12126.6433,E,1,00,00019.606,M 
$GPGGA,224333.000,3101.6486,N,12126.6437,E,1,00,00019.606,M 
$GPGGA,224334.000,3101.6485,N,12126.6442,E,1,00,00019.606,M 
$GPGGA,224334.000,3101.6485,N,12126.6446,E,1,00,00019.606,M 
$GPGGA,224335.000,3101.6484,N,12126.6451,E,1,00,00019.606,M 
$GPGGA,224335.000,3101.6484,N,12126.6455,E,1,00,00019.606,M 
$GPGGA,224336.000,3101.6483,N,12126.6460,E,1,00,00019.606,M 
$GPGGA,224336.000,3101.6482,N,12126.6464,E,1,00,00019.606,M 
$GPGGA,224337.000,3101.6481,N,12126.6469,E,1,00,00019.606,M 
$GPGGA,224337.000,3101.6481,N,12126.6473,E,1,00,00019.606,M 
$GPGGA,224338.000,3101.6480,N,12126.6478,E,1,00,00019.606,M 
$GPGGA,224338.000,3101.6479,N,12126.6482,E,1,00,00019.606,M 
$GPGGA,224339.000,3101.6478,N,12126.6487,E,1,00,00019.606,M 
$GPGGA,224340.000,3101.6478,N,12126.6491,E,1,00,00019.607,M 
$GPGGA,224340.000,3101.6477,N,12126.6495,E,1,00,00019.607,M 
$GPGGA,224341.000,3101.6476,N,12126.6500,E,1,00,00019.607,M 
$GPGGA,224341.000,3101.6475,N,12126.6504,E,1,00,00019.607,M 
$GPGGA,224342.000,3101.6475,N,12126.6509,E,1,00,00019.607,M 
$GPGGA,224342.000,3101.6474,N,12126.6513,E,1,00,00019.607,M 
$GPGGA,224343.000,3101.6473,N,12126.6518,E,1,00,00019.607,M 
$GPGGA,224343.000,3101.6472,N,12126.6522,E,1,00,00019.607,M 
$GPGGA,224344.000,3101.6472,N,12126.6527,E,1,00,00019.607,M 
$GPGGA,224345.000,3101.6471,N,12126.6531,E,1,00,00019.607,M 
$GPGGA,224345.000,3101.6470,N,12126.6536,E,1,00,00019.607,M 
$GPGGA,224346.000,3101.6469,N,12126.6540,E,1,00,00019.607,M 
$GPGGA,224346.000,3101.6468,N,12126.6545,E,1,00,00019.607,M 
$GPGGA,224347.000,3101.6467,N,12126.6549,E,1,00,00019.607,M 
$GPGGA,224347.000,3101.6466,N,12126.6553,E,1,00,00019.607,M 
$GPGGA,224348.000,3101.6466,N,12126.6558,E,1,00,00019.607,M 
$GPGGA,224348.000,3101.6465,N,12126.6562,E,1,00,00019.608,M 
$GPGGA,224349.000,3101.6464,N,12126.6567,E,1,00,00019.608,M 
$GPGGA,224349.000,3101.6463,N,12126.6571,E,1,00,00019.608,M 
$GPGGA,224350.000,3101.6462,N,12126.6575,E,1,00,00019.608,M 
$GPGGA,224351.000,3101.6462,N,12126.6580,E,1,00,00019.608,M 
$GPGGA,224351.000,3101.6461,N,12126.6584,E,1,00,00019.608,M 
$GPGGA,224352.000,3101.6460,N,12126.6589,E,1,00,00019.608,M 
$GPGGA,224352.000,3101.6459,N,12126.6593,E,1,00,00019.608,M 
$GPGGA,224353.000,3101.6458,N,12126.6597,E,1,00,00019.608,M 
$GPGGA,224353.000,3101.6458,N,12126.6602,E,1,00,00019.608,M 
$GPGGA,224354.000,3101.6457,N,12126.6606,E,1,00,00019.608,M 
$GPGGA,224354.000,3101.6456,N,12126.6611,E,1,00,00019.608,M 
$GPGGA,224355.000,3101.6455,N,12126.6615,E,1,00,00019.608,M 
$GPGGA,224356.000,3101.6455,N,12126.6620,E,1,00,00019.608,M 
$GPGGA,224356.000,3101.6454,N,12126.6624,E,1,00,00019.608,M 
$GPGGA,224357.000,3101.6453,N,12126.6628,E,1,00,00019.609,M 
$GPGGA,224357.000,3101.6452,N,12126.6633,E,1,00,00019.609,M 
$GPGGA,224358.000,3101.6451,N,12126.6637,E,1,00,00019.609,M 
$GPGGA,224358.000,3101.6451,N,12126.6642,E,1,00,00019.609,M 
$GPGGA,224359.000,3101.6450,N,12126.6646,E,1,00,00019.609,M 
$GPGGA,224359.000,3101.6449,N,12126.6651,E,1,00,00019.609,M 
$GPGGA,224400.000,3101.6448,N,12126.6655,E,1,00,00019.609,M 
$GPGGA,224401.000,3101.6447,N,12126.6659,E,1,00,00019.609,M 
$GPGGA,224401.000,3101.6446,N,12126.6664,E,1,00,00019.609,M 
$GPGGA,224402.000,3101.6445,N,12126.6668,E,1,00,00019.609,M 
$GPGGA,224402.000,3101.6444,N,12126.6672,E,1,00,00019.609,M 
$GPGGA,224403.000,3101.6444,N,12126.6677,E,1,00,00019.609,M 
$GPGGA,224403.000,3101.6443,N,12126.6681,E,1,00,00019.609,M 
$GPGGA,224404.000,3101.6442,N,12126.6686,E,1,00,00019.609,M 
$GPGGA,224404.000,3101.6441,N,12126.6690,E,1,00,00019.609,M 
$GPGGA,224405.000,3101.6440,N,12126.6695,E,1,00,00019.609,M 
$GPGGA,224406.000,3101.6439,N,12126.6699,E,1,00,00019.610,M 
$GPGGA,224406.000,3101.6438,N,12126.6703,E,1,00,00019.610,M 
$GPGGA,224407.000,3101.6437,N,12126.6708,E,1,00,00019.610,M 
$GPGGA,224407.000,3101.6436,N,12126.6712,E,1,00,00019.610,M 
$GPGGA,224408.000,3101.6435,N,12126.6716,E,1,00,00019.610,M 
$GPGGA,224408.000,3101.6434,N,12126.6721,E,1,00,00019.610,M 
$GPGGA,224409.000,3101.6433,N,12126.6725,E,1,00,00019.610,M 
$GPGGA,224410.000,3101.6432,N,12126.6729,E,1,00,00019.610,M 
$GPGGA,224410.000,3101.6431,N,12126.6734,E,1,00,00019.610,M 
$GPGGA,224411.000,3101.6431,N,12126.6738,E,1,00,00019.610,M 
$GPGGA,224411.000,3101.6430,N,12126.6742,E,1,00,00019.610,M 
$GPGGA,224412.000,3101.6429,N,12126.6747,E,1,00,00019.610,M 
$GPGGA,224412.000,3101.6428,N,12126.6751,E,1,00,00019.610,M 
$GPGGA,224413.000,3101.6427,N,12126.6755,E,1,00,00019.610,M 
$GPGGA,224413.000,3101.6426,N,12126.6760,E,1,00,00019.610,M 
$GPGGA,224414.000,3101.6425,N,12126.6764,E,1,00,00019.611,M 
$GPGGA,224415.000,3101.6424,N,12126.6768,E,1,00,00019.611,M 
$GPGGA,224415.000,3101.6423,N,12126.6773,E,1,00,00019.611,M 
$GPGGA,224416.000,3101.6422,N,12126.6777,E,1,00,00019.611,M 
$GPGGA,224416.000,3101.6421,N,12126.6781,E,1,00,00019.611,M 
$GPGGA,224417.000,3101.6420,N,12126.6786,E,1,00,00019.611,M 
$GPGGA,224417.000,3101.6419,N,12126.6790,E,1,00,00019.611,M 
$GPGGA,224418.000,3101.6418,N,12126.6794,E,1,00,00019.611,M 
$GPGGA,224419.000,3101.6417,N,12126.6799,E,1,00,00019.611,M 
$GPGGA,224419.000,3101.6416,N,12126.6803,E,1,00,00019.611,M 
$GPGGA,224420.000,3101.6415,N,12126.6807,E,1,00,00019.611,M 
$GPGGA,224420.000,3101.6414,N,12126.6812,E,1,00,00019.611,M 
$GPGGA,224421.000,3101.6413,N,12126.6816,E,1,00,00019.611,M 
$GPGGA,224421.000,3101.6412,N,12126.6820,E,1,00,00019.611,M 
$GPGGA,224422.000,3101.6411,N,12126.6825,E,1,00,00019.611,M 
$GPGGA,224422.000,3101.6410,N,12126.6829,E,1,00,00019.611,M 
$GPGGA,224423.000,3101.6409,N,12126.6833,E,1,00,00019.612,M 
$GPGGA,224424.000,3101.6408,N,12126.6838,E,1,00,00019.612,M 
$GPGGA,224424.000,3101.6407,N,12126.6842,E,1,00,00019.612,M 
$GPGGA,224425.000,3101.6406,N,12126.6846,E,1,00,00019.612,M 
$GPGGA,224425.000,3101.6405,N,12126.6851,E,1,00,00019.612,M 
$GPGGA,224426.000,3101.6403,N,12126.6855,E,1,00,00019.612,M 
$GPGGA,224426.000,3101.6402,N,12126.6859,E,1,00,00019.612,M 
$GPGGA,224427.000,3101.6401,N,12126.6864,E,1,00,00019.612,M 
$GPGGA,224427.000,3101.6400,N,12126.6868,E,1,00,00019.612,M 
$GPGGA,224428.000,3101.6399,N,12126.6873,E,1,00,00019.612,M 
$GPGGA,224428.000,3101.6398,N,12126.6877,E,1,00,00019.612,M 
$GPGGA,224429.000,3101.6397,N,12126.6881,E,1,00,00019.612,M 
$GPGGA,224430.000,3101.6396,N,12126.6886,E,1,00,00019.612,M 
$GPGGA,224430.000,3101.6395,N,12126.6890,E,1,00,00019.612,M 
$GPGGA,224431.000,3101.6394,N,12126.6895,E,1,00,00019.612,M 
$GPGGA,224431.000,3101.6393,N,12126.6899,E,1,00,00019.613,M 
$GPGGA,224432.000,3101.6392,N,12126.6903,E,1,00,00019.613,M 
$GPGGA,224432.000,3101.6391,N,12126.6908,E,1,00,00019.613,M 
$GPGGA,224433.000,3101.6390,N,12126.6912,E,1,00,00019.613,M 
$GPGGA,224433.000,3101.6389,N,12126.6916,E,1,00,00019.613,M 
$GPGGA,224434.000,3101.6388,N,12126.6921,E,1,00,00019.613,M 
$GPGGA,224435.000,3101.6387,N,12126.6925,E,1,00,00019.613,M 
$GPGGA,224435.000,3101.6386,N,12126.6930,E,1,00,00019.613,M 
$GPGGA,224436.000,3101.6385,N,12126.6934,E,1,00,00019.613,M 
$GPGGA,224436.000,3101.6384,N,12126.6938,E,1,00,00019.613,M 
$GPGGA,224437.000,3101.6383,N,12126.6943,E,1,00,00019.613,M 
$GPGGA,224437.000,3101.6382,N,12126.6947,E,1,00,00019.613,M 
$GPGGA,224438.000,3101.6381,N,12126.6951,E,1,00,00019.613,M 
$GPGGA,224438.000,3101.6380,N,12126.6956,E,1,00,00019.613,M 
$GPGGA,224439.000,3101.6379,N,12126.6960,E,1,00,00019.613,M 
$GPGGA,224440.000,3101.6378,N,12126.6964,E,1,00,00019.614,M 
$GPGGA,224440.000,3101.6377,N,12126.6969,E,1,00,00019.614,M 
$GPGGA,224441.000,3101.6376,N,12126.6973,E,1,00,00019.614,M 
$GPGGA,224441.000,3101.6375,N,12126.6978,E,1,00,00019.614,M 
$GPGGA,224442.000,3101.6374,N,12126.6982,E,1,00,00019.614,M 
$GPGGA,224442.000,3101.6373,N,12126.6986,E,1,00,00019.614,M 
$GPGGA,224443.000,3101.6372,N,12126.6991,E,1,00,00019.614,M 
$GPGGA,224443.000,3101.6370,N,12126.6995,E,1,00,00019.614,M 
$GPGGA,224444.000,3101.6369,N,12126.6999,E,1,00,00019.614,M 
$GPGGA,224445.000,3101.6368,N,12126.7004,E,1,00,00019.614,M 
$GPGGA,224445.000,3101.6367,N,12126.7008,E,1,00,00019.614,M 
$GPGGA,224446.000,3101.6366,N,12126.7012,E,1,00,00019.614,M 
$GPGGA,224446.000,3101.6365,N,12126.7017,E,1,00,00019.614,M 
$GPGGA,224447.000,3101.6364,N,12126.7021,E,1,00,00019.614,M 
$GPGGA,224447.000,3101.6363,N,12126.7025,E,1,00,00019.615,M 
$GPGGA,224448.000,3101.6362,N,12126.7029,E,1,00,00019.615,M 
$GPGGA,224448.000,3101.6361,N,12126.7034,E,1,00,00019.615,M 
$GPGGA,224449.000,3101.6360,N,12126.7038,E,1,00,00019.615,M 
$GPGGA,224450.000,3101.6359,N,12126.7042,E,1,00,00019.615,M 
$GPGGA,224450.000,3101.6358,N,12126.7046,E,1,00,00019.615,M 
$GPGGA,224451.000,3101.6357,N,12126.7051,E,1,00,00019.615,M 
$GPGGA,224451.000,3101.6356,N,12126.7055,E,1,00,00019.615,M 
$GPGGA,224452.000,3101.6355,N,12126.7059,E,1,00,00019.615,M 
$GPGGA,224452.000,3101.6354,N,12126.7064,E,1,00,00019.615,M 
$GPGGA,224453.000,3101.6353,N,12126.7068,E,1,00,00019.615,M 
$GPGGA,224454.000,3101.6352,N,12126.7072,E,1,00,00019.615,M 
$GPGGA,223536.000,3101.6806,N,12126.3737,E,1,00,00019.581,M 
$GPGGA,223601.000,3101.6806,N,12126.3742,E,1,00,00019.581,M 
$GPGGA,223602.000,3101.6805,N,12126.3746,E,1,00,00019.581,M 
$GPGGA,223602.000,3101.6805,N,12126.3751,E,1,00,00019.581,M 
$GPGGA,223603.000,3101.6805,N,12126.3755,E,1,00,00019.581,M 
$GPGGA,223603.000,3101.6804,N,12126.3760,E,1,00,00019.581,M 
$GPGGA,223604.000,3101.6804,N,12126.3764,E,1,00,00019.581,M 
$GPGGA,223604.000,3101.6804,N,12126.3768,E,1,00,00019.581,M 
$GPGGA,223605.000,3101.6803,N,12126.3773,E,1,00,00019.581,M 
$GPGGA,223606.000,3101.6803,N,12126.3777,E,1,00,00019.581,M 
$GPGGA,223606.000,3101.6802,N,12126.3782,E,1,00,00019.581,M 
$GPGGA,223607.000,3101.6802,N,12126.3786,E,1,00,00019.581,M 
$GPGGA,223607.000,3101.6802,N,12126.3791,E,1,00,00019.581,M 
$GPGGA,223608.000,3101.6801,N,12126.3795,E,1,00,00019.581,M 
$GPGGA,223608.000,3101.6801,N,12126.3800,E,1,00,00019.581,M 
$GPGGA,223609.000,3101.6801,N,12126.3804,E,1,00,00019.581,M 
$GPGGA,223610.000,3101.6801,N,12126.3809,E,1,00,00019.581,M 
$GPGGA,223610.000,3101.6800,N,12126.3813,E,1,00,00019.581,M 
$GPGGA,223611.000,3101.6800,N,12126.3817,E,1,00,00019.581,M 
$GPGGA,223611.000,3101.6800,N,12126.3822,E,1,00,00019.581,M 
$GPGGA,223612.000,3101.6799,N,12126.3826,E,1,00,00019.581,M 
$GPGGA,223612.000,3101.6799,N,12126.3831,E,1,00,00019.581,M 
$GPGGA,223613.000,3101.6799,N,12126.3835,E,1,00,00019.581,M 
$GPGGA,223613.000,3101.6798,N,12126.3840,E,1,00,00019.581,M 
$GPGGA,223614.000,3101.6798,N,12126.3844,E,1,00,00019.581,M 
$GPGGA,223615.000,3101.6798,N,12126.3849,E,1,00,00019.581,M 
$GPGGA,223615.000,3101.6797,N,12126.3853,E,1,00,00019.581,M 
$GPGGA,223616.000,3101.6797,N,12126.3858,E,1,00,00019.581,M 
$GPGGA,223616.000,3101.6797,N,12126.3862,E,1,00,00019.581,M 
$GPGGA,223617.000,3101.6796,N,12126.3867,E,1,00,00019.581,M 
$GPGGA,223617.000,3101.6796,N,12126.3871,E,1,00,00019.581,M 
$GPGGA,223618.000,3101.6795,N,12126.3876,E,1,00,00019.581,M 
$GPGGA,223618.000,3101.6795,N,12126.3880,E,1,00,00019.581,M 
$GPGGA,223619.000,3101.6795,N,12126.3884,E,1,00,00019.581,M 
$GPGGA,223620.000,3101.6794,N,12126.3889,E,1,00,00019.581,M 
$GPGGA,223620.000,3101.6794,N,12126.3894,E,1,00,00019.581,M 
$GPGGA,223621.000,3101.6793,N,12126.3898,E,1,00,00019.582,M 
$GPGGA,223621.000,3101.6793,N,12126.3902,E,1,00,00019.582,M 
$GPGGA,223622.000,3101.6792,N,12126.3907,E,1,00,00019.582,M 
$GPGGA,223622.000,3101.6792,N,12126.3911,E,1,00,00019.582,M 
$GPGGA,223623.000,3101.6792,N,12126.3916,E,1,00,00019.582,M 
$GPGGA,223624.000,3101.6791,N,12126.3920,E,1,00,00019.582,M 
$GPGGA,223624.000,3101.6791,N,12126.3925,E,1,00,00019.582,M 
$GPGGA,223625.000,3101.6790,N,12126.3929,E,1,00,00019.582,M 
$GPGGA,223625.000,3101.6790,N,12126.3934,E,1,00,00019.582,M 
$GPGGA,223626.000,3101.6789,N,12126.3938,E,1,00,00019.582,M 
$GPGGA,223626.000,3101.6789,N,12126.3943,E,1,00,00019.582,M 
$GPGGA,223627.000,3101.6788,N,12126.3947,E,1,00,00019.582,M 
$GPGGA,223627.000,3101.6788,N,12126.3951,E,1,00,00019.582,M 
$GPGGA,223628.000,3101.6788,N,12126.3956,E,1,00,00019.582,M 
$GPGGA,223629.000,3101.6787,N,12126.3960,E,1,00,00019.582,M 
$GPGGA,223629.000,3101.6787,N,12126.3965,E,1,00,00019.582,M 
$GPGGA,223630.000,3101.6786,N,12126.3969,E,1,00,00019.582,M 
$GPGGA,223630.000,3101.6786,N,12126.3974,E,1,00,00019.582,M 
$GPGGA,223631.000,3101.6785,N,12126.3978,E,1,00,00019.582,M 
$GPGGA,223631.000,3101.6785,N,12126.3983,E,1,00,00019.582,M 
$GPGGA,223632.000,3101.6784,N,12126.3987,E,1,00,00019.582,M 
$GPGGA,223633.000,3101.6784,N,12126.3991,E,1,00,00019.582,M 
$GPGGA,223633.000,3101.6783,N,12126.3996,E,1,00,00019.582,M 
$GPGGA,223634.000,3101.6783,N,12126.4000,E,1,00,00019.582,M 
$GPGGA,223634.000,3101.6782,N,12126.4005,E,1,00,00019.582,M 
$GPGGA,223635.000,3101.6782,N,12126.4009,E,1,00,00019.582,M 
$GPGGA,223635.000,3101.6781,N,12126.4014,E,1,00,00019.582,M 
$GPGGA,223636.000,3101.6781,N,12126.4018,E,1,00,00019.582,M 
$GPGGA,223636.000,3101.6780,N,12126.4022,E,1,00,00019.582,M 
$GPGGA,223637.000,3101.6779,N,12126.4027,E,1,00,00019.582,M 
$GPGGA,223638.000,3101.6779,N,12126.4031,E,1,00,00019.582,M 
$GPGGA,223638.000,3101.6778,N,12126.4036,E,1,00,00019.582,M 
$GPGGA,223639.000,3101.6778,N,12126.4040,E,1,00,00019.582,M 
$GPGGA,223639.000,3101.6777,N,12126.4045,E,1,00,00019.582,M 
$GPGGA,223640.000,3101.6777,N,12126.4049,E,1,00,00019.582,M 
$GPGGA,223640.000,3101.6776,N,12126.4054,E,1,00,00019.582,M 
$GPGGA,223641.000,3101.6776,N,12126.4058,E,1,00,00019.582,M 
$GPGGA,223641.000,3101.6775,N,12126.4063,E,1,00,00019.582,M 
$GPGGA,223642.000,3101.6775,N,12126.4067,E,1,00,00019.582,M 
$GPGGA,223643.000,3101.6774,N,12126.4071,E,1,00,00019.582,M 
$GPGGA,223643.000,3101.6774,N,12126.4076,E,1,00,00019.582,M 
$GPGGA,223644.000,3101.6773,N,12126.4080,E,1,00,00019.582,M 
$GPGGA,223644.000,3101.6773,N,12126.4085,E,1,00,00019.582,M 
$GPGGA,223645.000,3101.6772,N,12126.4089,E,1,00,00019.582,M 
$GPGGA,223645.000,3101.6772,N,12126.4094,E,1,00,00019.582,M 
$GPGGA,223646.000,3101.6771,N,12126.4099,E,1,00,00019.583,M 
$GPGGA,223646.000,3101.6771,N,12126.4103,E,1,00,00019.583,M 
$GPGGA,223647.000,3101.6770,N,12126.4107,E,1,00,00019.583,M 
$GPGGA,223648.000,3101.6770,N,12126.4112,E,1,00,00019.583,M 
$GPGGA,223648.000,3101.6769,N,12126.4116,E,1,00,00019.583,M 
$GPGGA,223649.000,3101.6769,N,12126.4121,E,1,00,00019.583,M 
$GPGGA,223649.000,3101.6768,N,12126.4125,E,1,00,00019.583,M 
$GPGGA,223650.000,3101.6768,N,12126.4130,E,1,00,00019.583,M 
$GPGGA,223650.000,3101.6768,N,12126.4134,E,1,00,00019.583,M 
$GPGGA,223651.000,3101.6767,N,12126.4139,E,1,00,00019.583,M 
$GPGGA,223651.000,3101.6766,N,12126.4143,E,1,00,00019.583,M 
$GPGGA,223652.000,3101.6766,N,12126.4148,E,1,00,00019.583,M 
$GPGGA,223653.000,3101.6766,N,12126.4152,E,1,00,00019.583,M 
$GPGGA,223653.000,3101.6765,N,12126.4157,E,1,00,00019.583,M 
$GPGGA,223654.000,3101.6765,N,12126.4161,E,1,00,00019.583,M 
$GPGGA,223654.000,3101.6764,N,12126.4166,E,1,00,00019.583,M 
$GPGGA,223655.000,3101.6764,N,12126.4170,E,1,00,00019.583,M 
$GPGGA,223655.000,3101.6763,N,12126.4175,E,1,00,00019.583,M 
$GPGGA,223656.000,3101.6763,N,12126.4179,E,1,00,00019.583,M 
$GPGGA,223656.000,3101.6762,N,12126.4183,E,1,00,00019.583,M 
$GPGGA,223657.000,3101.6762,N,12126.4188,E,1,00,00019.583,M 
$GPGGA,223658.000,3101.6761,N,12126.4192,E,1,00,00019.583,M 
$GPGGA,223658.000,3101.6761,N,12126.4197,E,1,00,00019.583,M 
$GPGGA,223659.000,3101.6761,N,12126.4201,E,1,00,00019.583,M 
$GPGGA,223659.000,3101.6760,N,12126.4206,E,1,00,00019.583,M 
$GPGGA,223700.000,3101.6760,N,12126.4210,E,1,00,00019.583,M 
$GPGGA,223700.000,3101.6759,N,12126.4214,E,1,00,00019.583,M 
$GPGGA,223701.000,3101.6759,N,12126.4219,E,1,00,00019.583,M 
$GPGGA,223702.000,3101.6759,N,12126.4223,E,1,00,00019.583,M 
$GPGGA,223702.000,3101.6758,N,12126.4228,E,1,00,00019.583,M 
$GPGGA,223703.000,3101.6758,N,12126.4232,E,1,00,00019.583,M 
$GPGGA,223703.000,3101.6757,N,12126.4237,E,1,00,00019.583,M 
$GPGGA,223704.000,3101.6757,N,12126.4242,E,1,00,00019.583,M 
$GPGGA,223704.000,3101.6757,N,12126.4246,E,1,00,00019.583,M 
$GPGGA,223705.000,3101.6756,N,12126.4251,E,1,00,00019.583,M 
$GPGGA,223705.000,3101.6756,N,12126.4255,E,1,00,00019.583,M 
$GPGGA,223706.000,3101.6755,N,12126.4260,E,1,00,00019.583,M 
$GPGGA,223706.000,3101.6755,N,12126.4264,E,1,00,00019.583,M 
$GPGGA,223707.000,3101.6754,N,12126.4269,E,1,00,00019.584,M 
$GPGGA,223708.000,3101.6754,N,12126.4273,E,1,00,00019.584,M 
$GPGGA,223708.000,3101.6753,N,12126.4278,E,1,00,00019.584,M 
$GPGGA,223709.000,3101.6753,N,12126.4282,E,1,00,00019.584,M 
$GPGGA,223709.000,3101.6752,N,12126.4286,E,1,00,00019.584,M 
$GPGGA,223710.000,3101.6752,N,12126.4291,E,1,00,00019.584,M 
$GPGGA,223710.000,3101.6751,N,12126.4295,E,1,00,00019.584,M 
$GPGGA,223711.000,3101.6751,N,12126.4300,E,1,00,00019.584,M 
$GPGGA,223712.000,3101.6750,N,12126.4304,E,1,00,00019.584,M 
$GPGGA,223712.000,3101.6750,N,12126.4309,E,1,00,00019.584,M 
$GPGGA,223713.000,3101.6749,N,12126.4313,E,1,00,00019.584,M 
$GPGGA,223713.000,3101.6748,N,12126.4317,E,1,00,00019.584,M 
$GPGGA,223714.000,3101.6748,N,12126.4322,E,1,00,00019.584,M 
$GPGGA,223714.000,3101.6747,N,12126.4326,E,1,00,00019.584,M 
$GPGGA,223715.000,3101.6747,N,12126.4330,E,1,00,00019.584,M 
$GPGGA,223715.000,3101.6746,N,12126.4335,E,1,00,00019.584,M 
$GPGGA,223716.000,3101.6746,N,12126.4339,E,1,00,00019.584,M 
$GPGGA,223717.000,3101.6745,N,12126.4344,E,1,00,00019.584,M 
$GPGGA,223717.000,3101.6745,N,12126.4348,E,1,00,00019.584,M 
$GPGGA,223718.000,3101.6744,N,12126.4353,E,1,00,00019.584,M 
$GPGGA,223718.000,3101.6744,N,12126.4357,E,1,00,00019.584,M 
$GPGGA,223719.000,3101.6743,N,12126.4362,E,1,00,00019.584,M 
$GPGGA,223719.000,3101.6742,N,12126.4366,E,1,00,00019.584,M 
$GPGGA,223720.000,3101.6742,N,12126.4370,E,1,00,00019.584,M 
$GPGGA,223721.000,3101.6741,N,12126.4375,E,1,00,00019.584,M 
$GPGGA,223721.000,3101.6741,N,12126.4379,E,1,00,00019.584,M 
$GPGGA,223722.000,3101.6741,N,12126.4383,E,1,00,00019.584,M 
$GPGGA,223722.000,3101.6740,N,12126.4388,E,1,00,00019.584,M 
$GPGGA,223723.000,3101.6740,N,12126.4393,E,1,00,00019.584,M 
$GPGGA,223723.000,3101.6740,N,12126.4397,E,1,00,00019.584,M 
$GPGGA,223724.000,3101.6739,N,12126.4401,E,1,00,00019.584,M 
$GPGGA,223725.000,3101.6739,N,12126.4406,E,1,00,00019.584,M 
$GPGGA,223725.000,3101.6738,N,12126.4410,E,1,00,00019.584,M 
$GPGGA,223726.000,3101.6738,N,12126.4415,E,1,00,00019.584,M 
$GPGGA,223726.000,3101.6737,N,12126.4419,E,1,00,00019.584,M 
$GPGGA,223727.000,3101.6737,N,12126.4423,E,1,00,00019.584,M 
$GPGGA,223727.000,3101.6736,N,12126.4428,E,1,00,00019.585,M 
$GPGGA,223728.000,3101.6736,N,12126.4432,E,1,00,00019.585,M 
$GPGGA,223728.000,3101.6736,N,12126.4437,E,1,00,00019.585,M 
$GPGGA,223729.000,3101.6735,N,12126.4441,E,1,00,00019.585,M 
$GPGGA,223730.000,3101.6735,N,12126.4446,E,1,00,00019.585,M 
$GPGGA,223730.000,3101.6734,N,12126.4450,E,1,00,00019.585,M 
$GPGGA,223731.000,3101.6734,N,12126.4454,E,1,00,00019.585,M 
$GPGGA,223731.000,3101.6733,N,12126.4459,E,1,00,00019.585,M 
$GPGGA,223732.000,3101.6732,N,12126.4463,E,1,00,00019.585,M 
$GPGGA,223732.000,3101.6732,N,12126.4468,E,1,00,00019.585,M 
$GPGGA,223733.000,3101.6731,N,12126.4472,E,1,00,00019.585,M 
$GPGGA,223734.000,3101.6731,N,12126.4476,E,1,00,00019.585,M 
$GPGGA,223734.000,3101.6730,N,12126.4481,E,1,00,00019.585,M 
$GPGGA,223735.000,3101.6729,N,12126.4485,E,1,00,00019.585,M 
$GPGGA,223735.000,3101.6729,N,12126.4490,E,1,00,00019.585,M 
$GPGGA,223736.000,3101.6729,N,12126.4494,E,1,00,00019.585,M 
$GPGGA,223736.000,3101.6728,N,12126.4498,E,1,00,00019.585,M 
$GPGGA,223737.000,3101.6728,N,12126.4503,E,1,00,00019.585,M 
$GPGGA,223738.000,3101.6727,N,12126.4507,E,1,00,00019.585,M 
$GPGGA,223738.000,3101.6727,N,12126.4512,E,1,00,00019.585,M 
$GPGGA,223739.000,3101.6726,N,12126.4516,E,1,00,00019.585,M 
$GPGGA,223739.000,3101.6726,N,12126.4521,E,1,00,00019.585,M 
$GPGGA,223740.000,3101.6725,N,12126.4525,E,1,00,00019.585,M 
$GPGGA,223740.000,3101.6725,N,12126.4529,E,1,00,00019.585,M 
$GPGGA,223741.000,3101.6724,N,12126.4534,E,1,00,00019.585,M 
$GPGGA,223742.000,3101.6724,N,12126.4538,E,1,00,00019.585,M 
$GPGGA,223742.000,3101.6723,N,12126.4543,E,1,00,00019.585,M 
$GPGGA,223743.000,3101.6723,N,12126.4547,E,1,00,00019.585,M 
$GPGGA,223743.000,3101.6722,N,12126.4551,E,1,00,00019.585,M 
$GPGGA,223744.000,3101.6722,N,12126.4556,E,1,00,00019.585,M 
$GPGGA,223744.000,3101.6721,N,12126.4560,E,1,00,00019.585,M 
$GPGGA,223745.000,3101.6721,N,12126.4564,E,1,00,00019.585,M 
$GPGGA,223745.000,3101.6721,N,12126.4569,E,1,00,00019.585,M 
$GPGGA,223746.000,3101.6720,N,12126.4573,E,1,00,00019.586,M 
$GPGGA,223747.000,3101.6720,N,12126.4578,E,1,00,00019.586,M 
$GPGGA,223747.000,3101.6719,N,12126.4582,E,1,00,00019.586,M 
$GPGGA,223748.000,3101.6719,N,12126.4587,E,1,00,00019.586,M 
$GPGGA,223748.000,3101.6718,N,12126.4591,E,1,00,00019.586,M 
$GPGGA,223749.000,3101.6718,N,12126.4595,E,1,00,00019.586,M 
$GPGGA,223749.000,3101.6717,N,12126.4600,E,1,00,00019.586,M 
$GPGGA,223750.000,3101.6717,N,12126.4604,E,1,00,00019.586,M 
$GPGGA,223751.000,3101.6716,N,12126.4608,E,1,00,00019.586,M 
$GPGGA,223751.000,3101.6716,N,12126.4613,E,1,00,00019.586,M 
$GPGGA,223752.000,3101.6715,N,12126.4617,E,1,00,00019.586,M 
$GPGGA,223752.000,3101.6715,N,12126.4622,E,1,00,00019.586,M 
$GPGGA,223753.000,3101.6714,N,12126.4626,E,1,00,00019.586,M 
$GPGGA,223753.000,3101.6714,N,12126.4630,E,1,00,00019.586,M 
$GPGGA,223754.000,3101.6713,N,12126.4635,E,1,00,00019.586,M 
$GPGGA,223755.000,3101.6713,N,12126.4639,E,1,00,00019.586,M 
$GPGGA,223755.000,3101.6712,N,12126.4644,E,1,00,00019.586,M 
$GPGGA,223756.000,3101.6712,N,12126.4648,E,1,00,00019.586,M 
$GPGGA,223756.000,3101.6711,N,12126.4653,E,1,00,00019.586,M 
$GPGGA,223757.000,3101.6711,N,12126.4657,E,1,00,00019.586,M 
$GPGGA,223757.000,3101.6710,N,12126.4661,E,1,00,00019.586,M 
$GPGGA,223758.000,3101.6710,N,12126.4666,E,1,00,00019.586,M 
$GPGGA,223759.000,3101.6710,N,12126.4670,E,1,00,00019.586,M 
