$GPGGA,222447.000,3101.5336,N,12126.5886,E,1,00,00058.750,M 
$GPGGA,222519.000,3101.5334,N,12126.5882,E,1,00,00039.029,M 
$GPGGA,222519.000,3101.5333,N,12126.5878,E,1,00,00039.029,M 
$GPGGA,222520.000,3101.5332,N,12126.5874,E,1,00,00035.023,M 
$GPGGA,222520.000,3101.5330,N,12126.5870,E,1,00,00035.023,M 
$GPGGA,222521.000,3101.5329,N,12126.5866,E,1,00,00032.431,M 
$GPGGA,222522.000,3101.5327,N,12126.5862,E,1,00,00030.816,M 
$GPGGA,222522.000,3101.5326,N,12126.5858,E,1,00,00030.816,M 
$GPGGA,222523.000,3101.5324,N,12126.5854,E,1,00,00029.315,M 
$GPGGA,222523.000,3101.5323,N,12126.5850,E,1,00,00029.315,M 
$GPGGA,222524.000,3101.5322,N,12126.5845,E,1,00,00027.784,M 
$GPGGA,222524.000,3101.5320,N,12126.5841,E,1,00,00027.783,M 
$GPGGA,222525.000,3101.5319,N,12126.5837,E,1,00,00026.352,M 
$GPGGA,222526.000,3101.5317,N,12126.5833,E,1,00,00026.002,M 
$GPGGA,222526.000,3101.5316,N,12126.5829,E,1,00,00026.002,M 
$GPGGA,222527.000,3101.5314,N,12126.5825,E,1,00,00024.300,M 
$GPGGA,222527.000,3101.5313,N,12126.5821,E,1,00,00024.300,M 
$GPGGA,222528.000,3101.5311,N,12126.5817,E,1,00,00024.122,M 
$GPGGA,222528.000,3101.5310,N,12126.5812,E,1,00,00024.122,M 
$GPGGA,222529.000,3101.5308,N,12126.5808,E,1,00,00022.850,M 
$GPGGA,222529.000,3101.5306,N,12126.5804,E,1,00,00022.849,M 
$GPGGA,222530.000,3101.5305,N,12126.5800,E,1,00,00023.833,M 
$GPGGA,222530.000,3101.5303,N,12126.5796,E,1,00,00023.832,M 
$GPGGA,222531.000,3101.5302,N,12126.5792,E,1,00,00025.806,M 
$GPGGA,222532.000,3101.5300,N,12126.5788,E,1,00,00026.200,M 
$GPGGA,222532.000,3101.5299,N,12126.5783,E,1,00,00026.200,M 
$GPGGA,222533.000,3101.5297,N,12126.5779,E,1,00,00027.765,M 
$GPGGA,222533.000,3101.5296,N,12126.5775,E,1,00,00027.765,M 
$GPGGA,222534.000,3101.5294,N,12126.5771,E,1,00,00026.597,M 
$GPGGA,222534.000,3101.5293,N,12126.5767,E,1,00,00026.597,M 
$GPGGA,222535.000,3101.5291,N,12126.5763,E,1,00,00026.686,M 
$GPGGA,222536.000,3101.5290,N,12126.5759,E,1,00,00024.398,M 
$GPGGA,222536.000,3101.5288,N,12126.5755,E,1,00,00024.398,M 
$GPGGA,222537.000,3101.5287,N,12126.5751,E,1,00,00023.572,M 
$GPGGA,222537.000,3101.5285,N,12126.5746,E,1,00,00023.572,M 
$GPGGA,222538.000,3101.5284,N,12126.5742,E,1,00,00022.536,M 
$GPGGA,222538.000,3101.5282,N,12126.5738,E,1,00,00022.536,M 
$GPGGA,222539.000,3101.5281,N,12126.5734,E,1,00,00024.418,M 
$GPGGA,222539.000,3101.5279,N,12126.5730,E,1,00,00024.418,M 
$GPGGA,222540.000,3101.5278,N,12126.5726,E,1,00,00023.962,M 
$GPGGA,222541.000,3101.5276,N,12126.5722,E,1,00,00023.124,M 
$GPGGA,222541.000,3101.5274,N,12126.5718,E,1,00,00023.124,M 
$GPGGA,222542.000,3101.5273,N,12126.5714,E,1,00,00023.737,M 
$GPGGA,222542.000,3101.5271,N,12126.5710,E,1,00,00023.737,M 
$GPGGA,222543.000,3101.5270,N,12126.5706,E,1,00,00024.387,M 
$GPGGA,222544.000,3101.5268,N,12126.5702,E,1,00,00023.497,M 
$GPGGA,222544.000,3101.5266,N,12126.5698,E,1,00,00023.497,M 
$GPGGA,222545.000,3101.5265,N,12126.5694,E,1,00,00023.592,M 
$GPGGA,222545.000,3101.5263,N,12126.5690,E,1,00,00023.592,M 
$GPGGA,222546.000,3101.5262,N,12126.5686,E,1,00,00023.602,M 
$GPGGA,222546.000,3101.5260,N,12126.5682,E,1,00,00023.602,M 
$GPGGA,222547.000,3101.5258,N,12126.5678,E,1,00,00024.027,M 
$GPGGA,222548.000,3101.5257,N,12126.5674,E,1,00,00023.814,M 
$GPGGA,222548.000,3101.5255,N,12126.5670,E,1,00,00023.814,M 
$GPGGA,222549.000,3101.5253,N,12126.5666,E,1,00,00023.833,M 
$GPGGA,222549.000,3101.5252,N,12126.5662,E,1,00,00023.833,M 
$GPGGA,222550.000,3101.5250,N,12126.5659,E,1,00,00025.232,M 
$GPGGA,222550.000,3101.5248,N,12126.5655,E,1,00,00025.232,M 
$GPGGA,222551.000,3101.5247,N,12126.5651,E,1,00,00025.921,M 
$GPGGA,222552.000,3101.5245,N,12126.5647,E,1,00,00025.255,M 
$GPGGA,222552.000,3101.5243,N,12126.5643,E,1,00,00025.255,M 
$GPGGA,222553.000,3101.5241,N,12126.5639,E,1,00,00025.300,M 
$GPGGA,222553.000,3101.5240,N,12126.5635,E,1,00,00025.300,M 
$GPGGA,222554.000,3101.5238,N,12126.5631,E,1,00,00024.399,M 
$GPGGA,222555.000,3101.5236,N,12126.5627,E,1,00,00022.882,M 
$GPGGA,222555.000,3101.5235,N,12126.5624,E,1,00,00022.882,M 
$GPGGA,222556.000,3101.5233,N,12126.5620,E,1,00,00023.243,M 
$GPGGA,222556.000,3101.5231,N,12126.5616,E,1,00,00023.243,M 
$GPGGA,222557.000,3101.5229,N,12126.5612,E,1,00,00023.297,M 
$GPGGA,222557.000,3101.5228,N,12126.5608,E,1,00,00023.297,M 
$GPGGA,222558.000,3101.5226,N,12126.5604,E,1,00,00022.693,M 
$GPGGA,222559.000,3101.5224,N,12126.5601,E,1,00,00024.172,M 
$GPGGA,222559.000,3101.5222,N,12126.5597,E,1,00,00024.172,M 
$GPGGA,222600.000,3101.5221,N,12126.5593,E,1,00,00022.422,M 
$GPGGA,222600.000,3101.5219,N,12126.5589,E,1,00,00022.422,M 
$GPGGA,222601.000,3101.5217,N,12126.5585,E,1,00,00021.611,M 
$GPGGA,222602.000,3101.5216,N,12126.5581,E,1,00,00020.112,M 
$GPGGA,222602.000,3101.5214,N,12126.5577,E,1,00,00020.112,M 
$GPGGA,222603.000,3101.5212,N,12126.5573,E,1,00,00020.686,M 
$GPGGA,222603.000,3101.5211,N,12126.5569,E,1,00,00020.686,M 
$GPGGA,222604.000,3101.5209,N,12126.5565,E,1,00,00020.518,M 
$GPGGA,222604.000,3101.5207,N,12126.5561,E,1,00,00020.518,M 
$GPGGA,222605.000,3101.5205,N,12126.5557,E,1,00,00020.343,M 
$GPGGA,222606.000,3101.5204,N,12126.5554,E,1,00,00020.984,M 
$GPGGA,222606.000,3101.5202,N,12126.5550,E,1,00,00020.984,M 
$GPGGA,222607.000,3101.5200,N,12126.5546,E,1,00,00021.697,M 
$GPGGA,222607.000,3101.5198,N,12126.5542,E,1,00,00021.697,M 
$GPGGA,222608.000,3101.5197,N,12126.5538,E,1,00,00021.820,M 
$GPGGA,222608.000,3101.5195,N,12126.5534,E,1,00,00021.820,M 
$GPGGA,222609.000,3101.5193,N,12126.5530,E,1,00,00022.820,M 
$GPGGA,222610.000,3101.5192,N,12126.5526,E,1,00,00022.529,M 
$GPGGA,222610.000,3101.5190,N,12126.5522,E,1,00,00022.529,M 
$GPGGA,222611.000,3101.5188,N,12126.5518,E,1,00,00019.804,M 
$GPGGA,222611.000,3101.5186,N,12126.5514,E,1,00,00019.804,M 
$GPGGA,222612.000,3101.5185,N,12126.5510,E,1,00,00019.480,M 
$GPGGA,222612.000,3101.5183,N,12126.5506,E,1,00,00019.480,M 
$GPGGA,222613.000,3101.5181,N,12126.5502,E,1,00,00019.530,M 
$GPGGA,222613.000,3101.5180,N,12126.5498,E,1,00,00019.530,M 
$GPGGA,222614.000,3101.5178,N,12126.5494,E,1,00,00020.222,M 
$GPGGA,222615.000,3101.5176,N,12126.5490,E,1,00,00019.814,M 
$GPGGA,222615.000,3101.5175,N,12126.5486,E,1,00,00019.814,M 
$GPGGA,222616.000,3101.5173,N,12126.5482,E,1,00,00021.188,M 
$GPGGA,222616.000,3101.5171,N,12126.5478,E,1,00,00021.188,M 
$GPGGA,222617.000,3101.5170,N,12126.5474,E,1,00,00023.252,M 
$GPGGA,222617.000,3101.5168,N,12126.5470,E,1,00,00023.251,M 
$GPGGA,222618.000,3101.5166,N,12126.5466,E,1,00,00021.725,M 
$GPGGA,222619.000,3101.5164,N,12126.5462,E,1,00,00022.671,M 
$GPGGA,222619.000,3101.5163,N,12126.5458,E,1,00,00022.671,M 
$GPGGA,222620.000,3101.5161,N,12126.5455,E,1,00,00022.678,M 
$GPGGA,222620.000,3101.5161,N,12126.5453,E,1,00,00022.678,M 
$GPGGA,222656.000,3101.5159,N,12126.5449,E,1,00,00029.541,M 
$GPGGA,222657.000,3101.5158,N,12126.5445,E,1,00,00029.294,M 
$GPGGA,222657.000,3101.5156,N,12126.5442,E,1,00,00029.294,M 
$GPGGA,222658.000,3101.5155,N,12126.5437,E,1,00,00025.715,M 
$GPGGA,222658.000,3101.5153,N,12126.5433,E,1,00,00025.715,M 
$GPGGA,222659.000,3101.5152,N,12126.5429,E,1,00,00024.673,M 
$GPGGA,222700.000,3101.5150,N,12126.5425,E,1,00,00025.230,M 
$GPGGA,222700.000,3101.5148,N,12126.5421,E,1,00,00025.230,M 
$GPGGA,222701.000,3101.5147,N,12126.5417,E,1,00,00025.283,M 
$GPGGA,222701.000,3101.5145,N,12126.5412,E,1,00,00025.283,M 
$GPGGA,222702.000,3101.5144,N,12126.5408,E,1,00,00028.404,M 
$GPGGA,222702.000,3101.5142,N,12126.5404,E,1,00,00028.404,M 
$GPGGA,222703.000,3101.5141,N,12126.5400,E,1,00,00028.850,M 
$GPGGA,222703.000,3101.5139,N,12126.5396,E,1,00,00028.850,M 
$GPGGA,222704.000,3101.5137,N,12126.5391,E,1,00,00028.648,M 
$GPGGA,222705.000,3101.5136,N,12126.5387,E,1,00,00027.800,M 
$GPGGA,222705.000,3101.5134,N,12126.5383,E,1,00,00027.800,M 
$GPGGA,222706.000,3101.5133,N,12126.5379,E,1,00,00028.858,M 
$GPGGA,222706.000,3101.5131,N,12126.5374,E,1,00,00028.858,M 
$GPGGA,222707.000,3101.5129,N,12126.5370,E,1,00,00026.411,M 
$GPGGA,222707.000,3101.5128,N,12126.5366,E,1,00,00026.411,M 
$GPGGA,222708.000,3101.5126,N,12126.5362,E,1,00,00029.821,M 
$GPGGA,222708.000,3101.5125,N,12126.5357,E,1,00,00029.821,M 
$GPGGA,222709.000,3101.5124,N,12126.5353,E,1,00,00030.151,M 
$GPGGA,222709.000,3101.5122,N,12126.5349,E,1,00,00030.151,M 
$GPGGA,222710.000,3101.5120,N,12126.5345,E,1,00,00029.841,M 
$GPGGA,222710.000,3101.5119,N,12126.5341,E,1,00,00029.841,M 
$GPGGA,222711.000,3101.5117,N,12126.5336,E,1,00,00029.494,M 
$GPGGA,222712.000,3101.5116,N,12126.5332,E,1,00,00028.572,M 
$GPGGA,222712.000,3101.5114,N,12126.5328,E,1,00,00028.572,M 
$GPGGA,222713.000,3101.5112,N,12126.5324,E,1,00,00027.103,M 
$GPGGA,222713.000,3101.5111,N,12126.5320,E,1,00,00027.103,M 
$GPGGA,222714.000,3101.5109,N,12126.5316,E,1,00,00028.899,M 
$GPGGA,222714.000,3101.5108,N,12126.5311,E,1,00,00028.899,M 
$GPGGA,222715.000,3101.5106,N,12126.5307,E,1,00,00028.084,M 
$GPGGA,222715.000,3101.5104,N,12126.5303,E,1,00,00028.084,M 
$GPGGA,222716.000,3101.5103,N,12126.5299,E,1,00,00026.702,M 
$GPGGA,222717.000,3101.5101,N,12126.5295,E,1,00,00027.134,M 
$GPGGA,222717.000,3101.5100,N,12126.5291,E,1,00,00027.134,M 
$GPGGA,222718.000,3101.5098,N,12126.5287,E,1,00,00026.180,M 
$GPGGA,222718.000,3101.5097,N,12126.5283,E,1,00,00026.179,M 
$GPGGA,222719.000,3101.5095,N,12126.5278,E,1,00,00026.531,M 
$GPGGA,222719.000,3101.5094,N,12126.5274,E,1,00,00026.531,M 
$GPGGA,222720.000,3101.5092,N,12126.5270,E,1,00,00025.920,M 
$GPGGA,222720.000,3101.5091,N,12126.5266,E,1,00,00025.920,M 
$GPGGA,222721.000,3101.5089,N,12126.5262,E,1,00,00024.555,M 
$GPGGA,222722.000,3101.5088,N,12126.5258,E,1,00,00025.067,M 
$GPGGA,222722.000,3101.5086,N,12126.5254,E,1,00,00025.067,M 
$GPGGA,222723.000,3101.5085,N,12126.5250,E,1,00,00025.742,M 
$GPGGA,222723.000,3101.5083,N,12126.5246,E,1,00,00025.742,M 
$GPGGA,222724.000,3101.5082,N,12126.5242,E,1,00,00023.929,M 
$GPGGA,222724.000,3101.5080,N,12126.5237,E,1,00,00023.929,M 
$GPGGA,222725.000,3101.5078,N,12126.5233,E,1,00,00024.949,M 
$GPGGA,222726.000,3101.5077,N,12126.5229,E,1,00,00024.346,M 
$GPGGA,222726.000,3101.5076,N,12126.5225,E,1,00,00024.346,M 
$GPGGA,222727.000,3101.5074,N,12126.5221,E,1,00,00022.808,M 
$GPGGA,222727.000,3101.5073,N,12126.5217,E,1,00,00022.808,M 
$GPGGA,222728.000,3101.5071,N,12126.5213,E,1,00,00021.050,M 
$GPGGA,222728.000,3101.5070,N,12126.5209,E,1,00,00021.050,M 
$GPGGA,222729.000,3101.5068,N,12126.5205,E,1,00,00022.022,M 
$GPGGA,222730.000,3101.5067,N,12126.5200,E,1,00,00020.884,M 
$GPGGA,222730.000,3101.5066,N,12126.5197,E,1,00,00020.883,M 
$GPGGA,222731.000,3101.5064,N,12126.5192,E,1,00,00021.448,M 
$GPGGA,222731.000,3101.5063,N,12126.5188,E,1,00,00021.448,M 
$GPGGA,222732.000,3101.5061,N,12126.5184,E,1,00,00021.121,M 
$GPGGA,222732.000,3101.5060,N,12126.5179,E,1,00,00021.121,M 
$GPGGA,222733.000,3101.5059,N,12126.5175,E,1,00,00020.850,M 
$GPGGA,222733.000,3101.5057,N,12126.5171,E,1,00,00020.850,M 
$GPGGA,222734.000,3101.5056,N,12126.5167,E,1,00,00021.129,M 
$GPGGA,222735.000,3101.5055,N,12126.5162,E,1,00,00020.297,M 
$GPGGA,222735.000,3101.5053,N,12126.5158,E,1,00,00020.297,M 
$GPGGA,222736.000,3101.5052,N,12126.5154,E,1,00,00019.975,M 
$GPGGA,222736.000,3101.5050,N,12126.5150,E,1,00,00019.975,M 
$GPGGA,222737.000,3101.5049,N,12126.5146,E,1,00,00020.889,M 
$GPGGA,222737.000,3101.5048,N,12126.5141,E,1,00,00020.889,M 
$GPGGA,222738.000,3101.5046,N,12126.5137,E,1,00,00021.063,M 
$GPGGA,222738.000,3101.5045,N,12126.5133,E,1,00,00021.063,M 
$GPGGA,222739.000,3101.5043,N,12126.5128,E,1,00,00021.676,M 
$GPGGA,222739.000,3101.5042,N,12126.5124,E,1,00,00021.676,M 
$GPGGA,222740.000,3101.5041,N,12126.5120,E,1,00,00021.880,M 
$GPGGA,222741.000,3101.5039,N,12126.5116,E,1,00,00023.080,M 
$GPGGA,222741.000,3101.5038,N,12126.5111,E,1,00,00023.080,M 
$GPGGA,222742.000,3101.5036,N,12126.5107,E,1,00,00023.617,M 
$GPGGA,222742.000,3101.5035,N,12126.5103,E,1,00,00023.617,M 
$GPGGA,222743.000,3101.5034,N,12126.5099,E,1,00,00023.299,M 
$GPGGA,222743.000,3101.5032,N,12126.5095,E,1,00,00023.299,M 
$GPGGA,222744.000,3101.5031,N,12126.5091,E,1,00,00023.252,M 
$GPGGA,222744.000,3101.5029,N,12126.5086,E,1,00,00023.252,M 
$GPGGA,222745.000,3101.5028,N,12126.5082,E,1,00,00024.886,M 
$GPGGA,222746.000,3101.5026,N,12126.5078,E,1,00,00026.590,M 
$GPGGA,222746.000,3101.5025,N,12126.5074,E,1,00,00026.590,M 
$GPGGA,222747.000,3101.5024,N,12126.5070,E,1,00,00026.346,M 
$GPGGA,222747.000,3101.5022,N,12126.5066,E,1,00,00026.346,M 
$GPGGA,222748.000,3101.5021,N,12126.5061,E,1,00,00026.768,M 
$GPGGA,222748.000,3101.5019,N,12126.5057,E,1,00,00026.768,M 
$GPGGA,222749.000,3101.5018,N,12126.5053,E,1,00,00026.845,M 
$GPGGA,222750.000,3101.5016,N,12126.5049,E,1,00,00028.018,M 
$GPGGA,222750.000,3101.5015,N,12126.5045,E,1,00,00028.018,M 
$GPGGA,222751.000,3101.5014,N,12126.5041,E,1,00,00028.568,M 
$GPGGA,222751.000,3101.5012,N,12126.5037,E,1,00,00028.568,M 
$GPGGA,222752.000,3101.5011,N,12126.5033,E,1,00,00029.591,M 
$GPGGA,222752.000,3101.5009,N,12126.5029,E,1,00,00029.591,M 
$GPGGA,222753.000,3101.5008,N,12126.5024,E,1,00,00029.512,M 
$GPGGA,222754.000,3101.5007,N,12126.5020,E,1,00,00030.284,M 
$GPGGA,222754.000,3101.5005,N,12126.5016,E,1,00,00030.284,M 
$GPGGA,222755.000,3101.5004,N,12126.5012,E,1,00,00030.770,M 
$GPGGA,222755.000,3101.5002,N,12126.5008,E,1,00,00030.770,M 
$GPGGA,222756.000,3101.5001,N,12126.5004,E,1,00,00029.364,M 
$GPGGA,222756.000,3101.4999,N,12126.5000,E,1,00,00029.364,M 
$GPGGA,222757.000,3101.4998,N,12126.4996,E,1,00,00030.767,M 
$GPGGA,222758.000,3101.4996,N,12126.4992,E,1,00,00031.675,M 
$GPGGA,222758.000,3101.4995,N,12126.4987,E,1,00,00031.675,M 
$GPGGA,222759.000,3101.4993,N,12126.4983,E,1,00,00030.712,M 
$GPGGA,222759.000,3101.4992,N,12126.4979,E,1,00,00030.712,M 
$GPGGA,222800.000,3101.4990,N,12126.4975,E,1,00,00031.462,M 
$GPGGA,222800.000,3101.4989,N,12126.4971,E,1,00,00031.462,M 
$GPGGA,222801.000,3101.4987,N,12126.4967,E,1,00,00031.917,M 
$GPGGA,222801.000,3101.4986,N,12126.4963,E,1,00,00031.917,M 
$GPGGA,222802.000,3101.4984,N,12126.4959,E,1,00,00030.077,M 
$GPGGA,222803.000,3101.4983,N,12126.4955,E,1,00,00028.183,M 
$GPGGA,222803.000,3101.4981,N,12126.4951,E,1,00,00028.183,M 
$GPGGA,222804.000,3101.4980,N,12126.4947,E,1,00,00027.615,M 
$GPGGA,222804.000,3101.4978,N,12126.4943,E,1,00,00027.615,M 
$GPGGA,222805.000,3101.4977,N,12126.4939,E,1,00,00024.635,M 
$GPGGA,222806.000,3101.4975,N,12126.4935,E,1,00,00022.427,M 
$GPGGA,222806.000,3101.4974,N,12126.4931,E,1,00,00022.427,M 
$GPGGA,222807.000,3101.4972,N,12126.4927,E,1,00,00022.089,M 
$GPGGA,222807.000,3101.4971,N,12126.4923,E,1,00,00022.089,M 
$GPGGA,222808.000,3101.4969,N,12126.4919,E,1,00,00021.355,M 
$GPGGA,222808.000,3101.4967,N,12126.4915,E,1,00,00021.355,M 
$GPGGA,222809.000,3101.4966,N,12126.4911,E,1,00,00021.601,M 
$GPGGA,222810.000,3101.4964,N,12126.4907,E,1,00,00022.350,M 
$GPGGA,222810.000,3101.4963,N,12126.4903,E,1,00,00022.350,M 
$GPGGA,222811.000,3101.4961,N,12126.4899,E,1,00,00022.108,M 
$GPGGA,222811.000,3101.4960,N,12126.4894,E,1,00,00022.108,M 
$GPGGA,222812.000,3101.4958,N,12126.4890,E,1,00,00021.288,M 
$GPGGA,222812.000,3101.4957,N,12126.4886,E,1,00,00021.288,M 
$GPGGA,222813.000,3101.4955,N,12126.4882,E,1,00,00020.300,M 
$GPGGA,222813.000,3101.4954,N,12126.4878,E,1,00,00020.300,M 
$GPGGA,222814.000,3101.4952,N,12126.4874,E,1,00,00019.061,M 
$GPGGA,222815.000,3101.4951,N,12126.4870,E,1,00,00017.617,M 
$GPGGA,222815.000,3101.4950,N,12126.4865,E,1,00,00017.617,M 
$GPGGA,222816.000,3101.4948,N,12126.4861,E,1,00,00017.773,M 
$GPGGA,222816.000,3101.4946,N,12126.4857,E,1,00,00017.773,M 
$GPGGA,222817.000,3101.4945,N,12126.4853,E,1,00,00015.848,M 
$GPGGA,222817.000,3101.4944,N,12126.4849,E,1,00,00015.848,M 
$GPGGA,222818.000,3101.4942,N,12126.4845,E,1,00,00013.699,M 
$GPGGA,222819.000,3101.4941,N,12126.4841,E,1,00,00015.160,M 
$GPGGA,222819.000,3101.4939,N,12126.4836,E,1,00,00015.160,M 
$GPGGA,222820.000,3101.4938,N,12126.4832,E,1,00,00016.445,M 
$GPGGA,222820.000,3101.4936,N,12126.4828,E,1,00,00016.445,M 
$GPGGA,222821.000,3101.4935,N,12126.4824,E,1,00,00016.337,M 
$GPGGA,222821.000,3101.4934,N,12126.4820,E,1,00,00016.337,M 
$GPGGA,222822.000,3101.4932,N,12126.4816,E,1,00,00016.587,M 
$GPGGA,222822.000,3101.4931,N,12126.4812,E,1,00,00016.586,M 
$GPGGA,222823.000,3101.4930,N,12126.4807,E,1,00,00016.297,M 
$GPGGA,222824.000,3101.4929,N,12126.4803,E,1,00,00017.750,M 
$GPGGA,222824.000,3101.4927,N,12126.4799,E,1,00,00017.750,M 
$GPGGA,222825.000,3101.4926,N,12126.4795,E,1,00,00016.175,M 
$GPGGA,222825.000,3101.4924,N,12126.4791,E,1,00,00016.175,M 
$GPGGA,222826.000,3101.4923,N,12126.4787,E,1,00,00016.564,M 
$GPGGA,222827.000,3101.4921,N,12126.4783,E,1,00,00016.059,M 
$GPGGA,222827.000,3101.4920,N,12126.4779,E,1,00,00016.059,M 
$GPGGA,222828.000,3101.4918,N,12126.4775,E,1,00,00016.004,M 
$GPGGA,222828.000,3101.4917,N,12126.4771,E,1,00,00016.004,M 
$GPGGA,222829.000,3101.4915,N,12126.4767,E,1,00,00016.448,M 
$GPGGA,222829.000,3101.4914,N,12126.4763,E,1,00,00016.448,M 
$GPGGA,222830.000,3101.4912,N,12126.4759,E,1,00,00016.939,M 
$GPGGA,222831.000,3101.4911,N,12126.4755,E,1,00,00015.944,M 
$GPGGA,222831.000,3101.4910,N,12126.4751,E,1,00,00015.944,M 
$GPGGA,222832.000,3101.4908,N,12126.4747,E,1,00,00014.909,M 
$GPGGA,222832.000,3101.4907,N,12126.4742,E,1,00,00014.909,M 
$GPGGA,222833.000,3101.4905,N,12126.4738,E,1,00,00016.478,M 
$GPGGA,222833.000,3101.4904,N,12126.4734,E,1,00,00016.478,M 
$GPGGA,222834.000,3101.4902,N,12126.4730,E,1,00,00015.142,M 
$GPGGA,222835.000,3101.4901,N,12126.4726,E,1,00,00016.027,M 
$GPGGA,222835.000,3101.4900,N,12126.4722,E,1,00,00016.027,M 
$GPGGA,222836.000,3101.4898,N,12126.4718,E,1,00,00016.753,M 
$GPGGA,222836.000,3101.4897,N,12126.4714,E,1,00,00016.753,M 
$GPGGA,222837.000,3101.4895,N,12126.4711,E,1,00,00017.261,M 
$GPGGA,222838.000,3101.4894,N,12126.4707,E,1,00,00016.476,M 
$GPGGA,222838.000,3101.4893,N,12126.4703,E,1,00,00016.476,M 
$GPGGA,222839.000,3101.4892,N,12126.4700,E,1,00,00015.089,M 
$GPGGA,222840.000,3101.4891,N,12126.4698,E,1,00,00015.164,M 
$GPGGA,222907.000,3101.4890,N,12126.4694,E,1,00,00012.762,M 
$GPGGA,222907.000,3101.4889,N,12126.4690,E,1,00,00012.762,M 
$GPGGA,222908.000,3101.4887,N,12126.4687,E,1,00,00012.910,M 
$GPGGA,222909.000,3101.4886,N,12126.4682,E,1,00,00012.737,M 
$GPGGA,222909.000,3101.4884,N,12126.4679,E,1,00,00012.737,M 
$GPGGA,222910.000,3101.4883,N,12126.4674,E,1,00,00013.421,M 
$GPGGA,222910.000,3101.4881,N,12126.4671,E,1,00,00013.421,M 
$GPGGA,222911.000,3101.4880,N,12126.4666,E,1,00,00012.680,M 
$GPGGA,222911.000,3101.4879,N,12126.4662,E,1,00,00012.680,M 
$GPGGA,222912.000,3101.4877,N,12126.4658,E,1,00,00011.687,M 
$GPGGA,222913.000,3101.4876,N,12126.4654,E,1,00,00011.561,M 
$GPGGA,222913.000,3101.4875,N,12126.4650,E,1,00,00011.561,M 
$GPGGA,222914.000,3101.4873,N,12126.4646,E,1,00,00010.510,M 
$GPGGA,222914.000,3101.4872,N,12126.4642,E,1,00,00010.510,M 
$GPGGA,222915.000,3101.4870,N,12126.4638,E,1,00,00012.161,M 
$GPGGA,222915.000,3101.4869,N,12126.4633,E,1,00,00012.161,M 
$GPGGA,222916.000,3101.4868,N,12126.4629,E,1,00,00013.431,M 
$GPGGA,222917.000,3101.4866,N,12126.4625,E,1,00,00013.421,M 
$GPGGA,222917.000,3101.4865,N,12126.4621,E,1,00,00013.421,M 
$GPGGA,222918.000,3101.4864,N,12126.4616,E,1,00,00014.974,M 
$GPGGA,222918.000,3101.4862,N,12126.4612,E,1,00,00014.974,M 
$GPGGA,222919.000,3101.4861,N,12126.4608,E,1,00,00015.269,M 
$GPGGA,222919.000,3101.4860,N,12126.4604,E,1,00,00015.269,M 
$GPGGA,222920.000,3101.4858,N,12126.4599,E,1,00,00016.169,M 
$GPGGA,222920.000,3101.4857,N,12126.4595,E,1,00,00016.169,M 
$GPGGA,222921.000,3101.4856,N,12126.4591,E,1,00,00015.934,M 
$GPGGA,222922.000,3101.4854,N,12126.4587,E,1,00,00015.978,M 
$GPGGA,222922.000,3101.4853,N,12126.4583,E,1,00,00015.978,M 
$GPGGA,222923.000,3101.4851,N,12126.4579,E,1,00,00016.395,M 
$GPGGA,222923.000,3101.4850,N,12126.4575,E,1,00,00016.395,M 
$GPGGA,222924.000,3101.4848,N,12126.4571,E,1,00,00017.843,M 
$GPGGA,222924.000,3101.4847,N,12126.4566,E,1,00,00017.843,M 
$GPGGA,222925.000,3101.4845,N,12126.4563,E,1,00,00017.851,M 
$GPGGA,222926.000,3101.4844,N,12126.4559,E,1,00,00019.039,M 
$GPGGA,222926.000,3101.4842,N,12126.4554,E,1,00,00019.039,M 
$GPGGA,222927.000,3101.4841,N,12126.4550,E,1,00,00017.300,M 
$GPGGA,222927.000,3101.4840,N,12126.4546,E,1,00,00017.300,M 
$GPGGA,222928.000,3101.4838,N,12126.4542,E,1,00,00016.394,M 
$GPGGA,222928.000,3101.4836,N,12126.4538,E,1,00,00016.394,M 
$GPGGA,222929.000,3101.4835,N,12126.4534,E,1,00,00016.144,M 
$GPGGA,222930.000,3101.4833,N,12126.4530,E,1,00,00015.151,M 
$GPGGA,222930.000,3101.4831,N,12126.4526,E,1,00,00015.151,M 
$GPGGA,222931.000,3101.4830,N,12126.4522,E,1,00,00016.137,M 
$GPGGA,222931.000,3101.4828,N,12126.4518,E,1,00,00016.137,M 
$GPGGA,222932.000,3101.4826,N,12126.4513,E,1,00,00015.257,M 
$GPGGA,222932.000,3101.4825,N,12126.4510,E,1,00,00015.257,M 
$GPGGA,222933.000,3101.4823,N,12126.4505,E,1,00,00016.306,M 
$GPGGA,222933.000,3101.4822,N,12126.4501,E,1,00,00016.306,M 
$GPGGA,222934.000,3101.4821,N,12126.4497,E,1,00,00015.662,M 
$GPGGA,222935.000,3101.4819,N,12126.4493,E,1,00,00014.629,M 
$GPGGA,222935.000,3101.4818,N,12126.4489,E,1,00,00014.629,M 
$GPGGA,222936.000,3101.4816,N,12126.4485,E,1,00,00013.676,M 
$GPGGA,222936.000,3101.4815,N,12126.4481,E,1,00,00013.676,M 
$GPGGA,222937.000,3101.4813,N,12126.4477,E,1,00,00013.343,M 
$GPGGA,222937.000,3101.4811,N,12126.4472,E,1,00,00013.343,M 
$GPGGA,222938.000,3101.4810,N,12126.4468,E,1,00,00014.448,M 
$GPGGA,222939.000,3101.4808,N,12126.4464,E,1,00,00013.964,M 
$GPGGA,222939.000,3101.4807,N,12126.4460,E,1,00,00013.964,M 
$GPGGA,222940.000,3101.4805,N,12126.4456,E,1,00,00014.673,M 
$GPGGA,222940.000,3101.4803,N,12126.4452,E,1,00,00014.673,M 
$GPGGA,222941.000,3101.4802,N,12126.4448,E,1,00,00012.427,M 
$GPGGA,222941.000,3101.4800,N,12126.4444,E,1,00,00012.427,M 
$GPGGA,222942.000,3101.4798,N,12126.4440,E,1,00,00014.290,M 
$GPGGA,222942.000,3101.4797,N,12126.4436,E,1,00,00014.290,M 
$GPGGA,222943.000,3101.4795,N,12126.4432,E,1,00,00013.559,M 
$GPGGA,222944.000,3101.4793,N,12126.4428,E,1,00,00014.044,M 
$GPGGA,222944.000,3101.4792,N,12126.4424,E,1,00,00014.044,M 
$GPGGA,222945.000,3101.4790,N,12126.4420,E,1,00,00014.352,M 
$GPGGA,222945.000,3101.4788,N,12126.4416,E,1,00,00014.352,M 
$GPGGA,222946.000,3101.4787,N,12126.4412,E,1,00,00016.039,M 
$GPGGA,222946.000,3101.4785,N,12126.4408,E,1,00,00016.039,M 
$GPGGA,222947.000,3101.4783,N,12126.4404,E,1,00,00017.315,M 
$GPGGA,222948.000,3101.4781,N,12126.4400,E,1,00,00018.144,M 
$GPGGA,222948.000,3101.4780,N,12126.4397,E,1,00,00018.144,M 
$GPGGA,222949.000,3101.4778,N,12126.4393,E,1,00,00017.935,M 
$GPGGA,222949.000,3101.4776,N,12126.4388,E,1,00,00017.935,M 
$GPGGA,222950.000,3101.4775,N,12126.4385,E,1,00,00017.136,M 
$GPGGA,222950.000,3101.4773,N,12126.4381,E,1,00,00017.136,M 
$GPGGA,222951.000,3101.4771,N,12126.4377,E,1,00,00017.153,M 
$GPGGA,222952.000,3101.4770,N,12126.4373,E,1,00,00015.570,M 
$GPGGA,222952.000,3101.4768,N,12126.4369,E,1,00,00015.570,M 
$GPGGA,222953.000,3101.4766,N,12126.4365,E,1,00,00016.821,M 
$GPGGA,222953.000,3101.4764,N,12126.4361,E,1,00,00016.821,M 
$GPGGA,222954.000,3101.4763,N,12126.4357,E,1,00,00019.492,M 
$GPGGA,222954.000,3101.4761,N,12126.4353,E,1,00,00019.492,M 
$GPGGA,222955.000,3101.4759,N,12126.4349,E,1,00,00018.438,M 
$GPGGA,222956.000,3101.4758,N,12126.4345,E,1,00,00019.024,M 
$GPGGA,222956.000,3101.4756,N,12126.4341,E,1,00,00019.024,M 
$GPGGA,222957.000,3101.4755,N,12126.4337,E,1,00,00017.807,M 
$GPGGA,222957.000,3101.4753,N,12126.4333,E,1,00,00017.807,M 
$GPGGA,222958.000,3101.4752,N,12126.4329,E,1,00,00020.310,M 
$GPGGA,222958.000,3101.4750,N,12126.4325,E,1,00,00020.310,M 
$GPGGA,222959.000,3101.4749,N,12126.4321,E,1,00,00021.736,M 
$GPGGA,223000.000,3101.4747,N,12126.4317,E,1,00,00020.463,M 
$GPGGA,223000.000,3101.4746,N,12126.4313,E,1,00,00020.463,M 
$GPGGA,223001.000,3101.4744,N,12126.4309,E,1,00,00018.348,M 
$GPGGA,223001.000,3101.4742,N,12126.4305,E,1,00,00018.348,M 
$GPGGA,223002.000,3101.4741,N,12126.4301,E,1,00,00017.923,M 
$GPGGA,223003.000,3101.4739,N,12126.4297,E,1,00,00017.743,M 
$GPGGA,223003.000,3101.4737,N,12126.4293,E,1,00,00017.743,M 
$GPGGA,223004.000,3101.4736,N,12126.4289,E,1,00,00018.490,M 
$GPGGA,223004.000,3101.4734,N,12126.4285,E,1,00,00018.490,M 
$GPGGA,223005.000,3101.4732,N,12126.4281,E,1,00,00017.629,M 
$GPGGA,223005.000,3101.4731,N,12126.4277,E,1,00,00017.629,M 
$GPGGA,223006.000,3101.4729,N,12126.4273,E,1,00,00018.236,M 
$GPGGA,223007.000,3101.4727,N,12126.4269,E,1,00,00016.988,M 
$GPGGA,223007.000,3101.4725,N,12126.4265,E,1,00,00016.988,M 
$GPGGA,223008.000,3101.4724,N,12126.4261,E,1,00,00015.323,M 
$GPGGA,223008.000,3101.4722,N,12126.4258,E,1,00,00015.323,M 
$GPGGA,223009.000,3101.4720,N,12126.4253,E,1,00,00016.741,M 
$GPGGA,223009.000,3101.4719,N,12126.4250,E,1,00,00016.741,M 
$GPGGA,223010.000,3101.4717,N,12126.4246,E,1,00,00016.862,M 
$GPGGA,223011.000,3101.4715,N,12126.4242,E,1,00,00017.633,M 
$GPGGA,223011.000,3101.4713,N,12126.4238,E,1,00,00017.633,M 
$GPGGA,223012.000,3101.4712,N,12126.4234,E,1,00,00016.629,M 
$GPGGA,223012.000,3101.4710,N,12126.4230,E,1,00,00016.629,M 
$GPGGA,223013.000,3101.4708,N,12126.4226,E,1,00,00017.037,M 
$GPGGA,223013.000,3101.4706,N,12126.4222,E,1,00,00017.037,M 
$GPGGA,223014.000,3101.4704,N,12126.4218,E,1,00,00016.940,M 
$GPGGA,223015.000,3101.4703,N,12126.4215,E,1,00,00019.307,M 
$GPGGA,223015.000,3101.4701,N,12126.4211,E,1,00,00019.307,M 
$GPGGA,223016.000,3101.4699,N,12126.4207,E,1,00,00020.089,M 
$GPGGA,223016.000,3101.4697,N,12126.4203,E,1,00,00020.089,M 
$GPGGA,223017.000,3101.4696,N,12126.4199,E,1,00,00020.127,M 
$GPGGA,223017.000,3101.4694,N,12126.4195,E,1,00,00020.127,M 
$GPGGA,223018.000,3101.4692,N,12126.4191,E,1,00,00018.847,M 
$GPGGA,223019.000,3101.4690,N,12126.4187,E,1,00,00018.528,M 
$GPGGA,223019.000,3101.4688,N,12126.4184,E,1,00,00018.528,M 
$GPGGA,223020.000,3101.4686,N,12126.4180,E,1,00,00018.423,M 
$GPGGA,223020.000,3101.4685,N,12126.4176,E,1,00,00018.423,M 
$GPGGA,223021.000,3101.4683,N,12126.4172,E,1,00,00020.907,M 
$GPGGA,223021.000,3101.4681,N,12126.4168,E,1,00,00020.907,M 
$GPGGA,223022.000,3101.4679,N,12126.4164,E,1,00,00021.411,M 
$GPGGA,223023.000,3101.4677,N,12126.4161,E,1,00,00021.098,M 
$GPGGA,223023.000,3101.4674,N,12126.4157,E,1,00,00021.098,M 
$GPGGA,223024.000,3101.4673,N,12126.4153,E,1,00,00020.777,M 
$GPGGA,223024.000,3101.4671,N,12126.4149,E,1,00,00020.777,M 
$GPGGA,223025.000,3101.4669,N,12126.4145,E,1,00,00020.854,M 
$GPGGA,223025.000,3101.4667,N,12126.4141,E,1,00,00020.854,M 
$GPGGA,223026.000,3101.4665,N,12126.4137,E,1,00,00022.175,M 
$GPGGA,223027.000,3101.4663,N,12126.4134,E,1,00,00022.610,M 
$GPGGA,223027.000,3101.4662,N,12126.4130,E,1,00,00022.610,M 
$GPGGA,223028.000,3101.4660,N,12126.4126,E,1,00,00023.199,M 
$GPGGA,223028.000,3101.4658,N,12126.4122,E,1,00,00023.199,M 
$GPGGA,223029.000,3101.4656,N,12126.4118,E,1,00,00020.794,M 
$GPGGA,223029.000,3101.4654,N,12126.4114,E,1,00,00020.794,M 
$GPGGA,223030.000,3101.4652,N,12126.4110,E,1,00,00021.485,M 
$GPGGA,223031.000,3101.4651,N,12126.4106,E,1,00,00020.681,M 
$GPGGA,223031.000,3101.4649,N,12126.4102,E,1,00,00020.681,M 
$GPGGA,223032.000,3101.4647,N,12126.4098,E,1,00,00021.321,M 
$GPGGA,223032.000,3101.4645,N,12126.4094,E,1,00,00021.321,M 
$GPGGA,223033.000,3101.4644,N,12126.4090,E,1,00,00020.045,M 
$GPGGA,223033.000,3101.4642,N,12126.4086,E,1,00,00020.045,M 
$GPGGA,223034.000,3101.4640,N,12126.4082,E,1,00,00018.443,M 
$GPGGA,223034.000,3101.4638,N,12126.4079,E,1,00,00018.443,M 
$GPGGA,223035.000,3101.4636,N,12126.4074,E,1,00,00017.853,M 
$GPGGA,223036.000,3101.4634,N,12126.4071,E,1,00,00018.179,M 
$GPGGA,223036.000,3101.4632,N,12126.4067,E,1,00,00018.179,M 
$GPGGA,223037.000,3101.4631,N,12126.4063,E,1,00,00017.880,M 
$GPGGA,223037.000,3101.4629,N,12126.4059,E,1,00,00017.880,M 
$GPGGA,223038.000,3101.4627,N,12126.4055,E,1,00,00018.861,M 
$GPGGA,223038.000,3101.4625,N,12126.4051,E,1,00,00018.861,M 
$GPGGA,223039.000,3101.4623,N,12126.4047,E,1,00,00018.432,M 
$GPGGA,223039.000,3101.4622,N,12126.4043,E,1,00,00018.432,M 
$GPGGA,223040.000,3101.4620,N,12126.4039,E,1,00,00020.098,M 
$GPGGA,223041.000,3101.4618,N,12126.4035,E,1,00,00020.352,M 
$GPGGA,223041.000,3101.4616,N,12126.4031,E,1,00,00020.352,M 
$GPGGA,223042.000,3101.4615,N,12126.4027,E,1,00,00018.534,M 
$GPGGA,223042.000,3101.4613,N,12126.4023,E,1,00,00018.534,M 
$GPGGA,223043.000,3101.4611,N,12126.4019,E,1,00,00019.345,M 
$GPGGA,223043.000,3101.4609,N,12126.4015,E,1,00,00019.345,M 
$GPGGA,223044.000,3101.4607,N,12126.4011,E,1,00,00018.029,M 
$GPGGA,223045.000,3101.4606,N,12126.4007,E,1,00,00018.035,M 
$GPGGA,223045.000,3101.4604,N,12126.4003,E,1,00,00018.035,M 
$GPGGA,223046.000,3101.4602,N,12126.3999,E,1,00,00017.409,M 
$GPGGA,223046.000,3101.4600,N,12126.3995,E,1,00,00017.409,M 
$GPGGA,223047.000,3101.4598,N,12126.3991,E,1,00,00017.418,M 
$GPGGA,223047.000,3101.4596,N,12126.3987,E,1,00,00017.418,M 
$GPGGA,223048.000,3101.4594,N,12126.3984,E,1,00,00018.364,M 
$GPGGA,223048.000,3101.4593,N,12126.3980,E,1,00,00018.364,M 
$GPGGA,223049.000,3101.4591,N,12126.3976,E,1,00,00016.280,M 
$GPGGA,223050.000,3101.4589,N,12126.3972,E,1,00,00015.692,M 
$GPGGA,223050.000,3101.4587,N,12126.3967,E,1,00,00015.692,M 
$GPGGA,223051.000,3101.4585,N,12126.3964,E,1,00,00014.858,M 
$GPGGA,223051.000,3101.4583,N,12126.3960,E,1,00,00014.858,M 
$GPGGA,223052.000,3101.4581,N,12126.3956,E,1,00,00014.690,M 
$GPGGA,223052.000,3101.4580,N,12126.3952,E,1,00,00014.690,M 
$GPGGA,223053.000,3101.4578,N,12126.3948,E,1,00,00014.882,M 
$GPGGA,223053.000,3101.4576,N,12126.3944,E,1,00,00014.882,M 
$GPGGA,223054.000,3101.4574,N,12126.3940,E,1,00,00013.961,M 
$GPGGA,223055.000,3101.4572,N,12126.3936,E,1,00,00014.048,M 
$GPGGA,223055.000,3101.4570,N,12126.3932,E,1,00,00014.048,M 
$GPGGA,223056.000,3101.4568,N,12126.3928,E,1,00,00014.972,M 
$GPGGA,223056.000,3101.4566,N,12126.3924,E,1,00,00014.972,M 
$GPGGA,223057.000,3101.4565,N,12126.3920,E,1,00,00016.036,M 
$GPGGA,223057.000,3101.4563,N,12126.3916,E,1,00,00016.036,M 
$GPGGA,223058.000,3101.4561,N,12126.3913,E,1,00,00016.532,M 
$GPGGA,223059.000,3101.4559,N,12126.3909,E,1,00,00017.385,M 
$GPGGA,223059.000,3101.4557,N,12126.3905,E,1,00,00017.385,M 
$GPGGA,223100.000,3101.4555,N,12126.3901,E,1,00,00019.441,M 
$GPGGA,223100.000,3101.4553,N,12126.3897,E,1,00,00019.441,M 
$GPGGA,223101.000,3101.4551,N,12126.3893,E,1,00,00019.270,M 
$GPGGA,223101.000,3101.4549,N,12126.3889,E,1,00,00019.270,M 
$GPGGA,223102.000,3101.4548,N,12126.3885,E,1,00,00018.326,M 
$GPGGA,223102.000,3101.4546,N,12126.3882,E,1,00,00018.326,M 
$GPGGA,223103.000,3101.4544,N,12126.3878,E,1,00,00020.107,M 
$GPGGA,223104.000,3101.4542,N,12126.3874,E,1,00,00017.489,M 
$GPGGA,223104.000,3101.4540,N,12126.3870,E,1,00,00017.489,M 
$GPGGA,223105.000,3101.4538,N,12126.3866,E,1,00,00016.826,M 
$GPGGA,223105.000,3101.4536,N,12126.3862,E,1,00,00016.826,M 
$GPGGA,223106.000,3101.4534,N,12126.3858,E,1,00,00017.451,M 
$GPGGA,223106.000,3101.4532,N,12126.3854,E,1,00,00017.451,M 
$GPGGA,223107.000,3101.4529,N,12126.3850,E,1,00,00018.335,M 
$GPGGA,223107.000,3101.4528,N,12126.3847,E,1,00,00018.335,M 
$GPGGA,223108.000,3101.4525,N,12126.3843,E,1,00,00019.176,M 
$GPGGA,223109.000,3101.4524,N,12126.3839,E,1,00,00018.843,M 
$GPGGA,223109.000,3101.4521,N,12126.3835,E,1,00,00018.843,M 
$GPGGA,223110.000,3101.4520,N,12126.3831,E,1,00,00021.714,M 
$GPGGA,223110.000,3101.4518,N,12126.3828,E,1,00,00021.714,M 
$GPGGA,223111.000,3101.4516,N,12126.3824,E,1,00,00020.066,M 
$GPGGA,223111.000,3101.4514,N,12126.3820,E,1,00,00020.066,M 
$GPGGA,223112.000,3101.4512,N,12126.3816,E,1,00,00020.685,M 
$GPGGA,223113.000,3101.4510,N,12126.3812,E,1,00,00019.534,M 
$GPGGA,223113.000,3101.4508,N,12126.3808,E,1,00,00019.534,M 
$GPGGA,223114.000,3101.4506,N,12126.3805,E,1,00,00019.775,M 
$GPGGA,223114.000,3101.4505,N,12126.3801,E,1,00,00019.775,M 
$GPGGA,223115.000,3101.4503,N,12126.3798,E,1,00,00017.554,M 
$GPGGA,223116.000,3101.4503,N,12126.3797,E,1,00,00016.789,M 
$GPGGA,223142.000,3101.4501,N,12126.3793,E,1,00,00016.942,M 
$GPGGA,223143.000,3101.4499,N,12126.3789,E,1,00,00019.555,M 
$GPGGA,223144.000,3101.4497,N,12126.3785,E,1,00,00020.790,M 
$GPGGA,223144.000,3101.4495,N,12126.3781,E,1,00,00020.790,M 
$GPGGA,223145.000,3101.4493,N,12126.3778,E,1,00,00020.371,M 
$GPGGA,223145.000,3101.4491,N,12126.3774,E,1,00,00020.371,M 
$GPGGA,223146.000,3101.4489,N,12126.3770,E,1,00,00021.367,M 
$GPGGA,223146.000,3101.4487,N,12126.3766,E,1,00,00021.367,M 
$GPGGA,223147.000,3101.4485,N,12126.3761,E,1,00,00022.585,M 
$GPGGA,223147.000,3101.4484,N,12126.3758,E,1,00,00022.585,M 
$GPGGA,223148.000,3101.4482,N,12126.3754,E,1,00,00022.880,M 
$GPGGA,223149.000,3101.4480,N,12126.3750,E,1,00,00023.097,M 
$GPGGA,223149.000,3101.4478,N,12126.3746,E,1,00,00023.097,M 
$GPGGA,223150.000,3101.4476,N,12126.3742,E,1,00,00021.421,M 
$GPGGA,223150.000,3101.4474,N,12126.3738,E,1,00,00021.421,M 
$GPGGA,223151.000,3101.4472,N,12126.3734,E,1,00,00021.107,M 
$GPGGA,223151.000,3101.4470,N,12126.3730,E,1,00,00021.107,M 
$GPGGA,223152.000,3101.4468,N,12126.3726,E,1,00,00019.344,M 
$GPGGA,223152.000,3101.4466,N,12126.3722,E,1,00,00019.344,M 
$GPGGA,223153.000,3101.4463,N,12126.3718,E,1,00,00018.394,M 
$GPGGA,223153.000,3101.4462,N,12126.3714,E,1,00,00018.394,M 
$GPGGA,223154.000,3101.4459,N,12126.3710,E,1,00,00017.816,M 
$GPGGA,223155.000,3101.4458,N,12126.3707,E,1,00,00018.236,M 
$GPGGA,223155.000,3101.4455,N,12126.3703,E,1,00,00018.236,M 
$GPGGA,223156.000,3101.4454,N,12126.3699,E,1,00,00017.890,M 
$GPGGA,223156.000,3101.4452,N,12126.3695,E,1,00,00017.890,M 
$GPGGA,223157.000,3101.4449,N,12126.3691,E,1,00,00017.772,M 
$GPGGA,223157.000,3101.4447,N,12126.3687,E,1,00,00017.772,M 
$GPGGA,223158.000,3101.4446,N,12126.3683,E,1,00,00018.320,M 
$GPGGA,223158.000,3101.4443,N,12126.3679,E,1,00,00018.320,M 
$GPGGA,223159.000,3101.4442,N,12126.3676,E,1,00,00018.441,M 
$GPGGA,223200.000,3101.4440,N,12126.3672,E,1,00,00016.933,M 
$GPGGA,223200.000,3101.4438,N,12126.3668,E,1,00,00016.933,M 
$GPGGA,223201.000,3101.4436,N,12126.3664,E,1,00,00015.954,M 
$GPGGA,223201.000,3101.4434,N,12126.3660,E,1,00,00015.954,M 
$GPGGA,223202.000,3101.4432,N,12126.3656,E,1,00,00015.467,M 
$GPGGA,223202.000,3101.4430,N,12126.3653,E,1,00,00015.467,M 
$GPGGA,223203.000,3101.4428,N,12126.3649,E,1,00,00013.628,M 
$GPGGA,223203.000,3101.4426,N,12126.3645,E,1,00,00013.628,M 
$GPGGA,223204.000,3101.4424,N,12126.3641,E,1,00,00015.528,M 
$GPGGA,223205.000,3101.4422,N,12126.3637,E,1,00,00016.217,M 
$GPGGA,223205.000,3101.4420,N,12126.3633,E,1,00,00016.217,M 
$GPGGA,223206.000,3101.4418,N,12126.3629,E,1,00,00016.140,M 
$GPGGA,223206.000,3101.4416,N,12126.3626,E,1,00,00016.140,M 
$GPGGA,223207.000,3101.4415,N,12126.3622,E,1,00,00015.282,M 
$GPGGA,223207.000,3101.4413,N,12126.3618,E,1,00,00015.282,M 
$GPGGA,223208.000,3101.4411,N,12126.3614,E,1,00,00014.181,M 
$GPGGA,223209.000,3101.4409,N,12126.3610,E,1,00,00014.249,M 
$GPGGA,223209.000,3101.4407,N,12126.3607,E,1,00,00014.249,M 
$GPGGA,223210.000,3101.4404,N,12126.3603,E,1,00,00017.556,M 
$GPGGA,223210.000,3101.4403,N,12126.3599,E,1,00,00017.556,M 
$GPGGA,223211.000,3101.4401,N,12126.3595,E,1,00,00018.581,M 
$GPGGA,223211.000,3101.4399,N,12126.3591,E,1,00,00018.581,M 
$GPGGA,223212.000,3101.4397,N,12126.3587,E,1,00,00018.756,M 
$GPGGA,223213.000,3101.4395,N,12126.3584,E,1,00,00017.641,M 
$GPGGA,223213.000,3101.4393,N,12126.3580,E,1,00,00017.641,M 
$GPGGA,223214.000,3101.4391,N,12126.3576,E,1,00,00019.268,M 
$GPGGA,223214.000,3101.4389,N,12126.3572,E,1,00,00019.268,M 
$GPGGA,223215.000,3101.4388,N,12126.3568,E,1,00,00018.486,M 
$GPGGA,223215.000,3101.4386,N,12126.3564,E,1,00,00018.486,M 
$GPGGA,223216.000,3101.4384,N,12126.3561,E,1,00,00019.330,M 
$GPGGA,223217.000,3101.4382,N,12126.3557,E,1,00,00018.755,M 
$GPGGA,223217.000,3101.4380,N,12126.3553,E,1,00,00018.755,M 
$GPGGA,223218.000,3101.4378,N,12126.3549,E,1,00,00018.085,M 
$GPGGA,223218.000,3101.4376,N,12126.3546,E,1,00,00018.085,M 
$GPGGA,223219.000,3101.4374,N,12126.3542,E,1,00,00017.543,M 
$GPGGA,223219.000,3101.4372,N,12126.3538,E,1,00,00017.543,M 
$GPGGA,223220.000,3101.4370,N,12126.3534,E,1,00,00018.335,M 
$GPGGA,223221.000,3101.4368,N,12126.3530,E,1,00,00017.800,M 
$GPGGA,223221.000,3101.4366,N,12126.3527,E,1,00,00017.800,M 
$GPGGA,223222.000,3101.4364,N,12126.3523,E,1,00,00016.574,M 
$GPGGA,223222.000,3101.4362,N,12126.3519,E,1,00,00016.574,M 
$GPGGA,223223.000,3101.4360,N,12126.3515,E,1,00,00016.123,M 
$GPGGA,223223.000,3101.4358,N,12126.3512,E,1,00,00016.123,M 
$GPGGA,223224.000,3101.4356,N,12126.3508,E,1,00,00016.703,M 
$GPGGA,223225.000,3101.4354,N,12126.3504,E,1,00,00015.199,M 
$GPGGA,223225.000,3101.4352,N,12126.3501,E,1,00,00015.199,M 
$GPGGA,223226.000,3101.4350,N,12126.3497,E,1,00,00012.585,M 
$GPGGA,223226.000,3101.4348,N,12126.3493,E,1,00,00012.585,M 
$GPGGA,223227.000,3101.4346,N,12126.3490,E,1,00,00014.076,M 
$GPGGA,223228.000,3101.4344,N,12126.3486,E,1,00,00012.899,M 
$GPGGA,223228.000,3101.4342,N,12126.3482,E,1,00,00012.899,M 
$GPGGA,223229.000,3101.4340,N,12126.3478,E,1,00,00011.342,M 
$GPGGA,223229.000,3101.4338,N,12126.3475,E,1,00,00011.342,M 
$GPGGA,223230.000,3101.4336,N,12126.3471,E,1,00,00011.966,M 
$GPGGA,223230.000,3101.4334,N,12126.3467,E,1,00,00011.966,M 
$GPGGA,223231.000,3101.4333,N,12126.3463,E,1,00,00011.046,M 
$GPGGA,223232.000,3101.4330,N,12126.3459,E,1,00,00010.220,M 
$GPGGA,223232.000,3101.4329,N,12126.3456,E,1,00,00010.220,M 
$GPGGA,223233.000,3101.4327,N,12126.3452,E,1,00,00010.773,M 
$GPGGA,223233.000,3101.4325,N,12126.3448,E,1,00,00010.773,M 
$GPGGA,223234.000,3101.4322,N,12126.3444,E,1,00,00010.168,M 
$GPGGA,223234.000,3101.4320,N,12126.3440,E,1,00,00010.168,M 
$GPGGA,223235.000,3101.4318,N,12126.3437,E,1,00,00010.973,M 
$GPGGA,223236.000,3101.4316,N,12126.3433,E,1,00,00012.089,M 
$GPGGA,223236.000,3101.4314,N,12126.3429,E,1,00,00012.089,M 
$GPGGA,223237.000,3101.4312,N,12126.3425,E,1,00,00012.583,M 
$GPGGA,223237.000,3101.4310,N,12126.3422,E,1,00,00012.583,M 
$GPGGA,223238.000,3101.4308,N,12126.3418,E,1,00,00012.796,M 
$GPGGA,223238.000,3101.4306,N,12126.3414,E,1,00,00012.796,M 
$GPGGA,223239.000,3101.4304,N,12126.3411,E,1,00,00014.441,M 
$GPGGA,223240.000,3101.4302,N,12126.3407,E,1,00,00016.124,M 
$GPGGA,223240.000,3101.4300,N,12126.3403,E,1,00,00016.124,M 
$GPGGA,223241.000,3101.4298,N,12126.3399,E,1,00,00016.504,M 
$GPGGA,223241.000,3101.4297,N,12126.3396,E,1,00,00016.504,M 
$GPGGA,223242.000,3101.4294,N,12126.3392,E,1,00,00015.834,M 
$GPGGA,223242.000,3101.4292,N,12126.3388,E,1,00,00015.834,M 
$GPGGA,223243.000,3101.4290,N,12126.3384,E,1,00,00017.475,M 
$GPGGA,223244.000,3101.4288,N,12126.3381,E,1,00,00015.231,M 
$GPGGA,223244.000,3101.4286,N,12126.3377,E,1,00,00015.231,M 
$GPGGA,223245.000,3101.4284,N,12126.3373,E,1,00,00016.727,M 
$GPGGA,223245.000,3101.4282,N,12126.3370,E,1,00,00016.727,M 
$GPGGA,223246.000,3101.4281,N,12126.3366,E,1,00,00016.075,M 
$GPGGA,223247.000,3101.4278,N,12126.3362,E,1,00,00014.488,M 
$GPGGA,223247.000,3101.4276,N,12126.3358,E,1,00,00014.488,M 
$GPGGA,223248.000,3101.4274,N,12126.3354,E,1,00,00012.994,M 
$GPGGA,223248.000,3101.4273,N,12126.3351,E,1,00,00012.994,M 
$GPGGA,223249.000,3101.4271,N,12126.3347,E,1,00,00012.872,M 
$GPGGA,223249.000,3101.4269,N,12126.3343,E,1,00,00012.872,M 
$GPGGA,223250.000,3101.4267,N,12126.3339,E,1,00,00013.449,M 
$GPGGA,223251.000,3101.4266,N,12126.3335,E,1,00,00012.165,M 
$GPGGA,223251.000,3101.4264,N,12126.3331,E,1,00,00012.165,M 
$GPGGA,223252.000,3101.4262,N,12126.3328,E,1,00,00011.367,M 
$GPGGA,223252.000,3101.4260,N,12126.3324,E,1,00,00011.367,M 
$GPGGA,223253.000,3101.4258,N,12126.3320,E,1,00,00011.808,M 
$GPGGA,223253.000,3101.4256,N,12126.3316,E,1,00,00011.808,M 
$GPGGA,223254.000,3101.4255,N,12126.3312,E,1,00,00012.010,M 
$GPGGA,223255.000,3101.4253,N,12126.3309,E,1,00,00012.351,M 
$GPGGA,223255.000,3101.4251,N,12126.3305,E,1,00,00012.351,M 
$GPGGA,223256.000,3101.4249,N,12126.3301,E,1,00,00012.539,M 
$GPGGA,223256.000,3101.4247,N,12126.3297,E,1,00,00012.539,M 
$GPGGA,223257.000,3101.4245,N,12126.3294,E,1,00,00013.302,M 
$GPGGA,223258.000,3101.4243,N,12126.3290,E,1,00,00013.980,M 
$GPGGA,223258.000,3101.4241,N,12126.3286,E,1,00,00013.979,M 
$GPGGA,223259.000,3101.4239,N,12126.3282,E,1,00,00014.057,M 
$GPGGA,223259.000,3101.4237,N,12126.3279,E,1,00,00014.057,M 
$GPGGA,223300.000,3101.4236,N,12126.3275,E,1,00,00015.336,M 
$GPGGA,223300.000,3101.4234,N,12126.3271,E,1,00,00015.336,M 
$GPGGA,223301.000,3101.4232,N,12126.3267,E,1,00,00015.739,M 
$GPGGA,223302.000,3101.4230,N,12126.3263,E,1,00,00014.624,M 
$GPGGA,223302.000,3101.4228,N,12126.3260,E,1,00,00014.624,M 
$GPGGA,223303.000,3101.4226,N,12126.3256,E,1,00,00013.977,M 
$GPGGA,223303.000,3101.4224,N,12126.3252,E,1,00,00013.977,M 
$GPGGA,223304.000,3101.4222,N,12126.3248,E,1,00,00013.802,M 
$GPGGA,223304.000,3101.4220,N,12126.3244,E,1,00,00013.802,M 
$GPGGA,223305.000,3101.4218,N,12126.3241,E,1,00,00015.466,M 
$GPGGA,223306.000,3101.4216,N,12126.3237,E,1,00,00016.778,M 
$GPGGA,223306.000,3101.4214,N,12126.3233,E,1,00,00016.778,M 
$GPGGA,223307.000,3101.4212,N,12126.3230,E,1,00,00015.640,M 
$GPGGA,223307.000,3101.4210,N,12126.3226,E,1,00,00015.640,M 
$GPGGA,223308.000,3101.4208,N,12126.3222,E,1,00,00017.107,M 
$GPGGA,223309.000,3101.4206,N,12126.3219,E,1,00,00016.277,M 
$GPGGA,223309.000,3101.4204,N,12126.3215,E,1,00,00016.277,M 
$GPGGA,223310.000,3101.4202,N,12126.3211,E,1,00,00015.721,M 
$GPGGA,223310.000,3101.4200,N,12126.3208,E,1,00,00015.721,M 
$GPGGA,223311.000,3101.4198,N,12126.3204,E,1,00,00016.078,M 
$GPGGA,223311.000,3101.4196,N,12126.3200,E,1,00,00016.078,M 
$GPGGA,223312.000,3101.4194,N,12126.3197,E,1,00,00014.736,M 
$GPGGA,223313.000,3101.4192,N,12126.3193,E,1,00,00015.557,M 
$GPGGA,223313.000,3101.4190,N,12126.3189,E,1,00,00015.557,M 
$GPGGA,223314.000,3101.4188,N,12126.3186,E,1,00,00015.549,M 
$GPGGA,223314.000,3101.4186,N,12126.3182,E,1,00,00015.549,M 
$GPGGA,223315.000,3101.4184,N,12126.3178,E,1,00,00016.651,M 
$GPGGA,223316.000,3101.4182,N,12126.3174,E,1,00,00017.324,M 
$GPGGA,223316.000,3101.4180,N,12126.3171,E,1,00,00017.324,M 
$GPGGA,223317.000,3101.4178,N,12126.3167,E,1,00,00016.131,M 
$GPGGA,223317.000,3101.4176,N,12126.3164,E,1,00,00016.131,M 
$GPGGA,223318.000,3101.4174,N,12126.3160,E,1,00,00016.711,M 
$GPGGA,223318.000,3101.4172,N,12126.3156,E,1,00,00016.711,M 
$GPGGA,223319.000,3101.4170,N,12126.3153,E,1,00,00018.697,M 
$GPGGA,223320.000,3101.4168,N,12126.3149,E,1,00,00018.848,M 
$GPGGA,223320.000,3101.4166,N,12126.3145,E,1,00,00018.848,M 
$GPGGA,223321.000,3101.4164,N,12126.3141,E,1,00,00018.515,M 
$GPGGA,223321.000,3101.4162,N,12126.3138,E,1,00,00018.515,M 
$GPGGA,223322.000,3101.4159,N,12126.3134,E,1,00,00018.805,M 
$GPGGA,223322.000,3101.4157,N,12126.3130,E,1,00,00018.805,M 
$GPGGA,223323.000,3101.4155,N,12126.3127,E,1,00,00020.226,M 
$GPGGA,223324.000,3101.4153,N,12126.3123,E,1,00,00018.513,M 
$GPGGA,223324.000,3101.4151,N,12126.3119,E,1,00,00018.513,M 
$GPGGA,223325.000,3101.4149,N,12126.3116,E,1,00,00018.122,M 
$GPGGA,223325.000,3101.4147,N,12126.3112,E,1,00,00018.122,M 
$GPGGA,223326.000,3101.4145,N,12126.3108,E,1,00,00020.191,M 
$GPGGA,223327.000,3101.4143,N,12126.3105,E,1,00,00020.484,M 
$GPGGA,223327.000,3101.4141,N,12126.3101,E,1,00,00020.484,M 
$GPGGA,223328.000,3101.4139,N,12126.3098,E,1,00,00018.356,M 
$GPGGA,223328.000,3101.4136,N,12126.3094,E,1,00,00018.356,M 
$GPGGA,223329.000,3101.4134,N,12126.3090,E,1,00,00019.269,M 
$GPGGA,223329.000,3101.4132,N,12126.3086,E,1,00,00019.269,M 
$GPGGA,223330.000,3101.4130,N,12126.3083,E,1,00,00019.808,M 
$GPGGA,223331.000,3101.4128,N,12126.3079,E,1,00,00017.700,M 
$GPGGA,223331.000,3101.4126,N,12126.3075,E,1,00,00017.700,M 
$GPGGA,223332.000,3101.4124,N,12126.3072,E,1,00,00017.760,M 
$GPGGA,223332.000,3101.4122,N,12126.3068,E,1,00,00017.760,M 
$GPGGA,223333.000,3101.4120,N,12126.3064,E,1,00,00017.485,M 
$GPGGA,223333.000,3101.4118,N,12126.3061,E,1,00,00017.485,M 
$GPGGA,223334.000,3101.4116,N,12126.3057,E,1,00,00018.790,M 
$GPGGA,223335.000,3101.4114,N,12126.3053,E,1,00,00018.906,M 
$GPGGA,223335.000,3101.4112,N,12126.3050,E,1,00,00018.906,M 
$GPGGA,223336.000,3101.4110,N,12126.3046,E,1,00,00020.346,M 
$GPGGA,223336.000,3101.4108,N,12126.3042,E,1,00,00020.346,M 
$GPGGA,223337.000,3101.4106,N,12126.3039,E,1,00,00021.063,M 
$GPGGA,223338.000,3101.4104,N,12126.3035,E,1,00,00020.055,M 
$GPGGA,223338.000,3101.4102,N,12126.3031,E,1,00,00020.055,M 
$GPGGA,223339.000,3101.4100,N,12126.3028,E,1,00,00020.947,M 
$GPGGA,223339.000,3101.4098,N,12126.3024,E,1,00,00020.947,M 
$GPGGA,223340.000,3101.4096,N,12126.3020,E,1,00,00020.350,M 
$GPGGA,223340.000,3101.4094,N,12126.3017,E,1,00,00020.350,M 
$GPGGA,223341.000,3101.4092,N,12126.3013,E,1,00,00019.105,M 
$GPGGA,223342.000,3101.4090,N,12126.3009,E,1,00,00019.522,M 
$GPGGA,223342.000,3101.4088,N,12126.3006,E,1,00,00019.522,M 
$GPGGA,223343.000,3101.4086,N,12126.3002,E,1,00,00017.679,M 
$GPGGA,223343.000,3101.4084,N,12126.2998,E,1,00,00017.679,M 
$GPGGA,223344.000,3101.4082,N,12126.2995,E,1,00,00016.961,M 
$GPGGA,223345.000,3101.4080,N,12126.2991,E,1,00,00016.565,M 
$GPGGA,223345.000,3101.4078,N,12126.2987,E,1,00,00016.565,M 
$GPGGA,223346.000,3101.4076,N,12126.2984,E,1,00,00017.874,M 
$GPGGA,223346.000,3101.4074,N,12126.2980,E,1,00,00017.874,M 
$GPGGA,223347.000,3101.4072,N,12126.2977,E,1,00,00017.185,M 
$GPGGA,223347.000,3101.4069,N,12126.2973,E,1,00,00017.185,M 
$GPGGA,223348.000,3101.4067,N,12126.2970,E,1,00,00018.276,M 
$GPGGA,223349.000,3101.4065,N,12126.2966,E,1,00,00019.102,M 
$GPGGA,223349.000,3101.4063,N,12126.2962,E,1,00,00019.102,M 
