$GPGGA,223536.000,3101.5084,N,12126.4354,E,1,00,00010.324,M 
$GPGGA,223601.000,3101.5084,N,12126.4358,E,1,00,00010.324,M 
$GPGGA,223602.000,3101.5084,N,12126.4362,E,1,00,00010.324,M 
$GPGGA,223602.000,3101.5083,N,12126.4367,E,1,00,00010.324,M 
$GPGGA,223603.000,3101.5083,N,12126.4371,E,1,00,00010.324,M 
$GPGGA,223603.000,3101.5083,N,12126.4376,E,1,00,00010.324,M 
$GPGGA,223604.000,3101.5082,N,12126.4380,E,1,00,00010.324,M 
$GPGGA,223604.000,3101.5082,N,12126.4385,E,1,00,00010.324,M 
$GPGGA,223605.000,3101.5082,N,12126.4389,E,1,00,00010.324,M 
$GPGGA,223606.000,3101.5081,N,12126.4394,E,1,00,00010.324,M 
$GPGGA,223606.000,3101.5081,N,12126.4398,E,1,00,00010.324,M 
$GPGGA,223607.000,3101.5081,N,12126.4402,E,1,00,00010.324,M 
$GPGGA,223607.000,3101.5080,N,12126.4407,E,1,00,00010.324,M 
$GPGGA,223608.000,3101.5080,N,12126.4411,E,1,00,00010.324,M 
$GPGGA,223608.000,3101.5080,N,12126.4416,E,1,00,00010.324,M 
$GPGGA,223609.000,3101.5079,N,12126.4420,E,1,00,00010.325,M 
$GPGGA,223610.000,3101.5079,N,12126.4425,E,1,00,00010.325,M 
$GPGGA,223610.000,3101.5079,N,12126.4429,E,1,00,00010.325,M 
$GPGGA,223611.000,3101.5078,N,12126.4433,E,1,00,00010.325,M 
$GPGGA,223611.000,3101.5078,N,12126.4438,E,1,00,00010.325,M 
$GPGGA,223612.000,3101.5078,N,12126.4442,E,1,00,00010.325,M 
$GPGGA,223612.000,3101.5078,N,12126.4447,E,1,00,00010.325,M 
$GPGGA,223613.000,3101.5077,N,12126.4451,E,1,00,00010.325,M 
$GPGGA,223613.000,3101.5077,N,12126.4456,E,1,00,00010.325,M 
$GPGGA,223614.000,3101.5077,N,12126.4460,E,1,00,00010.325,M 
$GPGGA,223615.000,3101.5076,N,12126.4465,E,1,00,00010.325,M 
$GPGGA,223615.000,3101.5076,N,12126.4469,E,1,00,00010.325,M 
$GPGGA,223616.000,3101.5076,N,12126.4474,E,1,00,00010.325,M 
$GPGGA,223616.000,3101.5075,N,12126.4478,E,1,00,00010.325,M 
$GPGGA,223617.000,3101.5075,N,12126.4483,E,1,00,00010.325,M 
$GPGGA,223617.000,3101.5074,N,12126.4487,E,1,00,00010.325,M 
$GPGGA,223618.000,3101.5074,N,12126.4492,E,1,00,00010.325,M 
$GPGGA,223618.000,3101.5074,N,12126.4496,E,1,00,00010.325,M 
$GPGGA,223619.000,3101.5073,N,12126.4501,E,1,00,00010.325,M 
$GPGGA,223620.000,3101.5073,N,12126.4505,E,1,00,00010.325,M 
$GPGGA,223620.000,3101.5072,N,12126.4510,E,1,00,00010.325,M 
$GPGGA,223621.000,3101.5072,N,12126.4514,E,1,00,00010.325,M 
$GPGGA,223621.000,3101.5072,N,12126.4518,E,1,00,00010.325,M 
$GPGGA,223622.000,3101.5071,N,12126.4523,E,1,00,00010.325,M 
$GPGGA,223622.000,3101.5071,N,12126.4527,E,1,00,00010.325,M 
$GPGGA,223623.000,3101.5070,N,12126.4532,E,1,00,00010.325,M 
$GPGGA,223624.000,3101.5070,N,12126.4536,E,1,00,00010.325,M 
$GPGGA,223624.000,3101.5069,N,12126.4541,E,1,00,00010.325,M 
$GPGGA,223625.000,3101.5069,N,12126.4545,E,1,00,00010.326,M 
$GPGGA,223625.000,3101.5068,N,12126.4550,E,1,00,00010.326,M 
$GPGGA,223626.000,3101.5068,N,12126.4554,E,1,00,00010.326,M 
$GPGGA,223626.000,3101.5067,N,12126.4559,E,1,00,00010.326,M 
$GPGGA,223627.000,3101.5067,N,12126.4563,E,1,00,00010.326,M 
$GPGGA,223627.000,3101.5066,N,12126.4567,E,1,00,00010.326,M 
$GPGGA,223628.000,3101.5066,N,12126.4572,E,1,00,00010.326,M 
$GPGGA,223629.000,3101.5066,N,12126.4576,E,1,00,00010.326,M 
$GPGGA,223629.000,3101.5065,N,12126.4581,E,1,00,00010.326,M 
$GPGGA,223630.000,3101.5065,N,12126.4585,E,1,00,00010.326,M 
$GPGGA,223630.000,3101.5064,N,12126.4590,E,1,00,00010.326,M 
$GPGGA,223631.000,3101.5064,N,12126.4594,E,1,00,00010.326,M 
$GPGGA,223631.000,3101.5063,N,12126.4599,E,1,00,00010.326,M 
$GPGGA,223632.000,3101.5063,N,12126.4603,E,1,00,00010.326,M 
$GPGGA,223633.000,3101.5062,N,12126.4608,E,1,00,00010.326,M 
$GPGGA,223633.000,3101.5062,N,12126.4612,E,1,00,00010.326,M 
$GPGGA,223634.000,3101.5061,N,12126.4616,E,1,00,00010.326,M 
$GPGGA,223634.000,3101.5061,N,12126.4621,E,1,00,00010.326,M 
$GPGGA,223635.000,3101.5060,N,12126.4625,E,1,00,00010.326,M 
$GPGGA,223635.000,3101.5060,N,12126.4630,E,1,00,00010.326,M 
$GPGGA,223636.000,3101.5059,N,12126.4634,E,1,00,00010.326,M 
$GPGGA,223636.000,3101.5059,N,12126.4639,E,1,00,00010.326,M 
$GPGGA,223637.000,3101.5058,N,12126.4643,E,1,00,00010.326,M 
$GPGGA,223638.000,3101.5057,N,12126.4648,E,1,00,00010.326,M 
$GPGGA,223638.000,3101.5057,N,12126.4652,E,1,00,00010.326,M 
$GPGGA,223639.000,3101.5056,N,12126.4657,E,1,00,00010.326,M 
$GPGGA,223639.000,3101.5056,N,12126.4661,E,1,00,00010.327,M 
$GPGGA,223640.000,3101.5055,N,12126.4665,E,1,00,00010.327,M 
$GPGGA,223640.000,3101.5055,N,12126.4670,E,1,00,00010.327,M 
$GPGGA,223641.000,3101.5054,N,12126.4674,E,1,00,00010.327,M 
$GPGGA,223641.000,3101.5054,N,12126.4679,E,1,00,00010.327,M 
$GPGGA,223642.000,3101.5053,N,12126.4683,E,1,00,00010.327,M 
$GPGGA,223643.000,3101.5053,N,12126.4688,E,1,00,00010.327,M 
$GPGGA,223643.000,3101.5052,N,12126.4692,E,1,00,00010.327,M 
$GPGGA,223644.000,3101.5052,N,12126.4697,E,1,00,00010.327,M 
$GPGGA,223644.000,3101.5051,N,12126.4701,E,1,00,00010.327,M 
$GPGGA,223645.000,3101.5051,N,12126.4706,E,1,00,00010.327,M 
$GPGGA,223645.000,3101.5050,N,12126.4710,E,1,00,00010.327,M 
$GPGGA,223646.000,3101.5050,N,12126.4715,E,1,00,00010.327,M 
$GPGGA,223646.000,3101.5049,N,12126.4719,E,1,00,00010.327,M 
$GPGGA,223647.000,3101.5049,N,12126.4724,E,1,00,00010.327,M 
$GPGGA,223648.000,3101.5048,N,12126.4728,E,1,00,00010.327,M 
$GPGGA,223648.000,3101.5048,N,12126.4732,E,1,00,00010.327,M 
$GPGGA,223649.000,3101.5047,N,12126.4737,E,1,00,00010.327,M 
$GPGGA,223649.000,3101.5047,N,12126.4741,E,1,00,00010.327,M 
$GPGGA,223650.000,3101.5046,N,12126.4746,E,1,00,00010.327,M 
$GPGGA,223650.000,3101.5046,N,12126.4750,E,1,00,00010.327,M 
$GPGGA,223651.000,3101.5045,N,12126.4755,E,1,00,00010.327,M 
$GPGGA,223651.000,3101.5045,N,12126.4759,E,1,00,00010.327,M 
$GPGGA,223652.000,3101.5045,N,12126.4764,E,1,00,00010.327,M 
$GPGGA,223653.000,3101.5044,N,12126.4768,E,1,00,00010.327,M 
$GPGGA,223653.000,3101.5044,N,12126.4773,E,1,00,00010.327,M 
$GPGGA,223654.000,3101.5043,N,12126.4777,E,1,00,00010.328,M 
$GPGGA,223654.000,3101.5043,N,12126.4782,E,1,00,00010.328,M 
$GPGGA,223655.000,3101.5042,N,12126.4786,E,1,00,00010.328,M 
$GPGGA,223655.000,3101.5042,N,12126.4791,E,1,00,00010.328,M 
$GPGGA,223656.000,3101.5041,N,12126.4795,E,1,00,00010.328,M 
$GPGGA,223656.000,3101.5041,N,12126.4800,E,1,00,00010.328,M 
$GPGGA,223657.000,3101.5040,N,12126.4804,E,1,00,00010.328,M 
$GPGGA,223658.000,3101.5040,N,12126.4808,E,1,00,00010.328,M 
$GPGGA,223658.000,3101.5040,N,12126.4813,E,1,00,00010.328,M 
$GPGGA,223659.000,3101.5039,N,12126.4817,E,1,00,00010.328,M 
$GPGGA,223659.000,3101.5039,N,12126.4822,E,1,00,00010.328,M 
$GPGGA,223700.000,3101.5038,N,12126.4826,E,1,00,00010.328,M 
$GPGGA,223700.000,3101.5038,N,12126.4831,E,1,00,00010.328,M 
$GPGGA,223701.000,3101.5037,N,12126.4835,E,1,00,00010.328,M 
$GPGGA,223702.000,3101.5037,N,12126.4840,E,1,00,00010.328,M 
$GPGGA,223702.000,3101.5037,N,12126.4844,E,1,00,00010.328,M 
$GPGGA,223703.000,3101.5036,N,12126.4849,E,1,00,00010.328,M 
$GPGGA,223703.000,3101.5036,N,12126.4853,E,1,00,00010.328,M 
$GPGGA,223704.000,3101.5036,N,12126.4858,E,1,00,00010.328,M 
$GPGGA,223704.000,3101.5035,N,12126.4862,E,1,00,00010.328,M 
$GPGGA,223705.000,3101.5035,N,12126.4867,E,1,00,00010.328,M 
$GPGGA,223705.000,3101.5034,N,12126.4871,E,1,00,00010.328,M 
$GPGGA,223706.000,3101.5034,N,12126.4876,E,1,00,00010.328,M 
$GPGGA,223706.000,3101.5033,N,12126.4880,E,1,00,00010.328,M 
$GPGGA,223707.000,3101.5033,N,12126.4885,E,1,00,00010.329,M 
$GPGGA,223708.000,3101.5032,N,12126.4889,E,1,00,00010.329,M 
$GPGGA,223708.000,3101.5032,N,12126.4894,E,1,00,00010.329,M 
$GPGGA,223709.000,3101.5031,N,12126.4898,E,1,00,00010.329,M 
$GPGGA,223709.000,3101.5031,N,12126.4902,E,1,00,00010.329,M 
$GPGGA,223710.000,3101.5030,N,12126.4907,E,1,00,00010.329,M 
$GPGGA,223710.000,3101.5030,N,12126.4911,E,1,00,00010.329,M 
$GPGGA,223711.000,3101.5029,N,12126.4916,E,1,00,00010.329,M 
$GPGGA,223712.000,3101.5029,N,12126.4920,E,1,00,00010.329,M 
$GPGGA,223712.000,3101.5028,N,12126.4925,E,1,00,00010.329,M 
$GPGGA,223713.000,3101.5028,N,12126.4929,E,1,00,00010.329,M 
$GPGGA,223713.000,3101.5027,N,12126.4933,E,1,00,00010.329,M 
$GPGGA,223714.000,3101.5026,N,12126.4938,E,1,00,00010.329,M 
$GPGGA,223714.000,3101.5026,N,12126.4942,E,1,00,00010.329,M 
$GPGGA,223715.000,3101.5025,N,12126.4947,E,1,00,00010.329,M 
$GPGGA,223715.000,3101.5025,N,12126.4951,E,1,00,00010.329,M 
$GPGGA,223716.000,3101.5024,N,12126.4956,E,1,00,00010.329,M 
$GPGGA,223717.000,3101.5024,N,12126.4960,E,1,00,00010.329,M 
$GPGGA,223717.000,3101.5023,N,12126.4964,E,1,00,00010.329,M 
$GPGGA,223718.000,3101.5022,N,12126.4969,E,1,00,00010.329,M 
$GPGGA,223718.000,3101.5022,N,12126.4973,E,1,00,00010.329,M 
$GPGGA,223719.000,3101.5021,N,12126.4978,E,1,00,00010.329,M 
$GPGGA,223719.000,3101.5021,N,12126.4982,E,1,00,00010.329,M 
$GPGGA,223720.000,3101.5020,N,12126.4986,E,1,00,00010.330,M 
$GPGGA,223721.000,3101.5020,N,12126.4991,E,1,00,00010.330,M 
$GPGGA,223721.000,3101.5020,N,12126.4995,E,1,00,00010.330,M 
$GPGGA,223722.000,3101.5019,N,12126.5000,E,1,00,00010.330,M 
$GPGGA,223722.000,3101.5019,N,12126.5004,E,1,00,00010.330,M 
$GPGGA,223723.000,3101.5019,N,12126.5009,E,1,00,00010.330,M 
$GPGGA,223723.000,3101.5018,N,12126.5013,E,1,00,00010.330,M 
$GPGGA,223724.000,3101.5018,N,12126.5017,E,1,00,00010.330,M 
$GPGGA,223725.000,3101.5017,N,12126.5022,E,1,00,00010.330,M 
$GPGGA,223725.000,3101.5017,N,12126.5026,E,1,00,00010.330,M 
$GPGGA,223726.000,3101.5016,N,12126.5031,E,1,00,00010.330,M 
$GPGGA,223726.000,3101.5016,N,12126.5035,E,1,00,00010.330,M 
$GPGGA,223727.000,3101.5015,N,12126.5039,E,1,00,00010.330,M 
$GPGGA,223727.000,3101.5015,N,12126.5044,E,1,00,00010.330,M 
$GPGGA,223728.000,3101.5015,N,12126.5048,E,1,00,00010.330,M 
$GPGGA,223728.000,3101.5014,N,12126.5053,E,1,00,00010.330,M 
$GPGGA,223729.000,3101.5014,N,12126.5057,E,1,00,00010.330,M 
$GPGGA,223730.000,3101.5013,N,12126.5062,E,1,00,00010.330,M 
$GPGGA,223730.000,3101.5013,N,12126.5066,E,1,00,00010.330,M 
$GPGGA,223731.000,3101.5012,N,12126.5070,E,1,00,00010.330,M 
$GPGGA,223731.000,3101.5012,N,12126.5075,E,1,00,00010.330,M 
$GPGGA,223732.000,3101.5011,N,12126.5079,E,1,00,00010.330,M 
$GPGGA,223732.000,3101.5010,N,12126.5084,E,1,00,00010.331,M 
$GPGGA,223733.000,3101.5010,N,12126.5088,E,1,00,00010.331,M 
$GPGGA,223734.000,3101.5009,N,12126.5092,E,1,00,00010.331,M 
$GPGGA,223734.000,3101.5009,N,12126.5097,E,1,00,00010.331,M 
$GPGGA,223735.000,3101.5008,N,12126.5101,E,1,00,00010.331,M 
$GPGGA,223735.000,3101.5008,N,12126.5106,E,1,00,00010.331,M 
$GPGGA,223736.000,3101.5007,N,12126.5110,E,1,00,00010.331,M 
$GPGGA,223736.000,3101.5007,N,12126.5114,E,1,00,00010.331,M 
$GPGGA,223737.000,3101.5006,N,12126.5119,E,1,00,00010.331,M 
$GPGGA,223738.000,3101.5006,N,12126.5123,E,1,00,00010.331,M 
$GPGGA,223738.000,3101.5005,N,12126.5128,E,1,00,00010.331,M 
$GPGGA,223739.000,3101.5005,N,12126.5132,E,1,00,00010.331,M 
$GPGGA,223739.000,3101.5004,N,12126.5137,E,1,00,00010.331,M 
$GPGGA,223740.000,3101.5004,N,12126.5141,E,1,00,00010.331,M 
$GPGGA,223740.000,3101.5003,N,12126.5145,E,1,00,00010.331,M 
$GPGGA,223741.000,3101.5003,N,12126.5150,E,1,00,00010.331,M 
$GPGGA,223742.000,3101.5002,N,12126.5154,E,1,00,00010.331,M 
$GPGGA,223742.000,3101.5002,N,12126.5159,E,1,00,00010.331,M 
$GPGGA,223743.000,3101.5001,N,12126.5163,E,1,00,00010.331,M 
$GPGGA,223743.000,3101.5001,N,12126.5168,E,1,00,00010.331,M 
$GPGGA,223744.000,3101.5000,N,12126.5172,E,1,00,00010.331,M 
$GPGGA,223744.000,3101.5000,N,12126.5176,E,1,00,00010.331,M 
$GPGGA,223745.000,3101.4999,N,12126.5181,E,1,00,00010.332,M 
$GPGGA,223745.000,3101.4999,N,12126.5185,E,1,00,00010.332,M 
$GPGGA,223746.000,3101.4999,N,12126.5189,E,1,00,00010.332,M 
$GPGGA,223747.000,3101.4998,N,12126.5194,E,1,00,00010.332,M 
$GPGGA,223747.000,3101.4998,N,12126.5198,E,1,00,00010.332,M 
$GPGGA,223748.000,3101.4997,N,12126.5203,E,1,00,00010.332,M 
$GPGGA,223748.000,3101.4997,N,12126.5207,E,1,00,00010.332,M 
$GPGGA,223749.000,3101.4996,N,12126.5212,E,1,00,00010.332,M 
$GPGGA,223749.000,3101.4996,N,12126.5216,E,1,00,00010.332,M 
$GPGGA,223750.000,3101.4995,N,12126.5221,E,1,00,00010.332,M 
$GPGGA,223751.000,3101.4995,N,12126.5225,E,1,00,00010.332,M 
$GPGGA,223751.000,3101.4994,N,12126.5229,E,1,00,00010.332,M 
$GPGGA,223752.000,3101.4994,N,12126.5233,E,1,00,00010.332,M 
$GPGGA,223752.000,3101.4993,N,12126.5238,E,1,00,00010.332,M 
$GPGGA,223753.000,3101.4993,N,12126.5242,E,1,00,00010.332,M 
$GPGGA,223753.000,3101.4992,N,12126.5247,E,1,00,00010.332,M 
$GPGGA,223754.000,3101.4991,N,12126.5251,E,1,00,00010.332,M 
$GPGGA,223755.000,3101.4991,N,12126.5255,E,1,00,00010.332,M 
$GPGGA,223755.000,3101.4991,N,12126.5260,E,1,00,00010.332,M 
$GPGGA,223756.000,3101.4990,N,12126.5264,E,1,00,00010.332,M 
$GPGGA,223756.000,3101.4990,N,12126.5269,E,1,00,00010.332,M 
$GPGGA,223757.000,3101.4989,N,12126.5273,E,1,00,00010.333,M 
$GPGGA,223757.000,3101.4989,N,12126.5277,E,1,00,00010.333,M 
$GPGGA,223758.000,3101.4989,N,12126.5282,E,1,00,00010.333,M 
$GPGGA,223759.000,3101.4988,N,12126.5286,E,1,00,00010.333,M 
$GPGGA,223759.000,3101.4988,N,12126.5291,E,1,00,00010.333,M 
$GPGGA,223800.000,3101.4987,N,12126.5295,E,1,00,00010.333,M 
$GPGGA,223800.000,3101.4987,N,12126.5300,E,1,00,00010.333,M 
$GPGGA,223801.000,3101.4987,N,12126.5304,E,1,00,00010.333,M 
$GPGGA,223801.000,3101.4986,N,12126.5308,E,1,00,00010.333,M 
$GPGGA,223802.000,3101.4986,N,12126.5312,E,1,00,00010.333,M 
$GPGGA,223803.000,3101.4986,N,12126.5316,E,1,00,00010.333,M 
$GPGGA,223803.000,3101.4986,N,12126.5317,E,1,00,00010.333,M 
$GPGGA,223839.000,3101.4985,N,12126.5321,E,1,00,00010.333,M 
$GPGGA,223840.000,3101.4985,N,12126.5326,E,1,00,00010.333,M 
$GPGGA,223840.000,3101.4984,N,12126.5330,E,1,00,00010.333,M 
$GPGGA,223841.000,3101.4984,N,12126.5335,E,1,00,00010.333,M 
$GPGGA,223841.000,3101.4983,N,12126.5339,E,1,00,00010.333,M 
$GPGGA,223842.000,3101.4983,N,12126.5344,E,1,00,00010.333,M 
$GPGGA,223842.000,3101.4982,N,12126.5348,E,1,00,00010.333,M 
$GPGGA,223843.000,3101.4982,N,12126.5353,E,1,00,00010.333,M 
$GPGGA,223843.000,3101.4982,N,12126.5357,E,1,00,00010.333,M 
$GPGGA,223844.000,3101.4981,N,12126.5362,E,1,00,00010.334,M 
$GPGGA,223845.000,3101.4981,N,12126.5366,E,1,00,00010.334,M 
$GPGGA,223845.000,3101.4980,N,12126.5371,E,1,00,00010.334,M 
$GPGGA,223846.000,3101.4980,N,12126.5375,E,1,00,00010.334,M 
$GPGGA,223846.000,3101.4979,N,12126.5380,E,1,00,00010.334,M 
$GPGGA,223847.000,3101.4978,N,12126.5384,E,1,00,00010.334,M 
$GPGGA,223847.000,3101.4978,N,12126.5389,E,1,00,00010.334,M 
$GPGGA,223848.000,3101.4978,N,12126.5393,E,1,00,00010.334,M 
$GPGGA,223848.000,3101.4977,N,12126.5398,E,1,00,00010.334,M 
$GPGGA,223849.000,3101.4977,N,12126.5402,E,1,00,00010.334,M 
$GPGGA,223850.000,3101.4976,N,12126.5407,E,1,00,00010.334,M 
$GPGGA,223850.000,3101.4976,N,12126.5411,E,1,00,00010.334,M 
$GPGGA,223851.000,3101.4975,N,12126.5416,E,1,00,00010.334,M 
$GPGGA,223851.000,3101.4975,N,12126.5420,E,1,00,00010.334,M 
$GPGGA,223852.000,3101.4974,N,12126.5425,E,1,00,00010.334,M 
$GPGGA,223852.000,3101.4974,N,12126.5429,E,1,00,00010.334,M 
$GPGGA,223853.000,3101.4973,N,12126.5433,E,1,00,00010.334,M 
$GPGGA,223853.000,3101.4973,N,12126.5438,E,1,00,00010.334,M 
$GPGGA,223854.000,3101.4972,N,12126.5443,E,1,00,00010.334,M 
$GPGGA,223855.000,3101.4972,N,12126.5447,E,1,00,00010.335,M 
$GPGGA,223855.000,3101.4971,N,12126.5452,E,1,00,00010.335,M 
$GPGGA,223856.000,3101.4971,N,12126.5456,E,1,00,00010.335,M 
$GPGGA,223856.000,3101.4971,N,12126.5460,E,1,00,00010.335,M 
$GPGGA,223857.000,3101.4970,N,12126.5465,E,1,00,00010.335,M 
$GPGGA,223857.000,3101.4970,N,12126.5469,E,1,00,00010.335,M 
$GPGGA,223858.000,3101.4969,N,12126.5474,E,1,00,00010.335,M 
$GPGGA,223858.000,3101.4969,N,12126.5478,E,1,00,00010.335,M 
$GPGGA,223859.000,3101.4969,N,12126.5483,E,1,00,00010.335,M 
$GPGGA,223900.000,3101.4968,N,12126.5487,E,1,00,00010.335,M 
$GPGGA,223900.000,3101.4968,N,12126.5492,E,1,00,00010.335,M 
$GPGGA,223901.000,3101.4967,N,12126.5497,E,1,00,00010.335,M 
$GPGGA,223901.000,3101.4967,N,12126.5501,E,1,00,00010.335,M 
$GPGGA,223902.000,3101.4967,N,12126.5505,E,1,00,00010.335,M 
$GPGGA,223902.000,3101.4966,N,12126.5510,E,1,00,00010.335,M 
$GPGGA,223903.000,3101.4966,N,12126.5514,E,1,00,00010.335,M 
$GPGGA,223903.000,3101.4965,N,12126.5519,E,1,00,00010.335,M 
$GPGGA,223904.000,3101.4965,N,12126.5523,E,1,00,00010.335,M 
$GPGGA,223905.000,3101.4964,N,12126.5528,E,1,00,00010.335,M 
$GPGGA,223905.000,3101.4964,N,12126.5532,E,1,00,00010.336,M 
$GPGGA,223906.000,3101.4963,N,12126.5537,E,1,00,00010.336,M 
$GPGGA,223906.000,3101.4963,N,12126.5541,E,1,00,00010.336,M 
$GPGGA,223907.000,3101.4962,N,12126.5546,E,1,00,00010.336,M 
$GPGGA,223907.000,3101.4962,N,12126.5550,E,1,00,00010.336,M 
$GPGGA,223908.000,3101.4961,N,12126.5554,E,1,00,00010.336,M 
$GPGGA,223908.000,3101.4961,N,12126.5559,E,1,00,00010.336,M 
$GPGGA,223909.000,3101.4960,N,12126.5563,E,1,00,00010.336,M 
$GPGGA,223910.000,3101.4960,N,12126.5568,E,1,00,00010.336,M 
$GPGGA,223910.000,3101.4959,N,12126.5572,E,1,00,00010.336,M 
$GPGGA,223911.000,3101.4959,N,12126.5577,E,1,00,00010.336,M 
$GPGGA,223911.000,3101.4958,N,12126.5581,E,1,00,00010.336,M 
$GPGGA,223912.000,3101.4958,N,12126.5586,E,1,00,00010.336,M 
$GPGGA,223912.000,3101.4958,N,12126.5590,E,1,00,00010.336,M 
$GPGGA,223913.000,3101.4957,N,12126.5594,E,1,00,00010.336,M 
$GPGGA,223914.000,3101.4957,N,12126.5599,E,1,00,00010.336,M 
$GPGGA,223914.000,3101.4956,N,12126.5603,E,1,00,00010.336,M 
$GPGGA,223915.000,3101.4956,N,12126.5608,E,1,00,00010.336,M 
$GPGGA,223915.000,3101.4955,N,12126.5613,E,1,00,00010.337,M 
$GPGGA,223916.000,3101.4955,N,12126.5617,E,1,00,00010.337,M 
$GPGGA,223916.000,3101.4954,N,12126.5621,E,1,00,00010.337,M 
$GPGGA,223917.000,3101.4954,N,12126.5626,E,1,00,00010.337,M 
$GPGGA,223917.000,3101.4953,N,12126.5630,E,1,00,00010.337,M 
$GPGGA,223918.000,3101.4953,N,12126.5635,E,1,00,00010.337,M 
$GPGGA,223919.000,3101.4952,N,12126.5639,E,1,00,00010.337,M 
$GPGGA,223919.000,3101.4952,N,12126.5644,E,1,00,00010.337,M 
$GPGGA,223920.000,3101.4951,N,12126.5648,E,1,00,00010.337,M 
$GPGGA,223920.000,3101.4951,N,12126.5653,E,1,00,00010.337,M 
$GPGGA,223921.000,3101.4950,N,12126.5657,E,1,00,00010.337,M 
$GPGGA,223921.000,3101.4950,N,12126.5661,E,1,00,00010.337,M 
$GPGGA,223922.000,3101.4949,N,12126.5666,E,1,00,00010.337,M 
$GPGGA,223922.000,3101.4949,N,12126.5670,E,1,00,00010.337,M 
$GPGGA,223923.000,3101.4948,N,12126.5675,E,1,00,00010.337,M 
$GPGGA,223924.000,3101.4948,N,12126.5679,E,1,00,00010.337,M 
$GPGGA,223924.000,3101.4947,N,12126.5684,E,1,00,00010.337,M 
$GPGGA,223925.000,3101.4947,N,12126.5688,E,1,00,00010.337,M 
$GPGGA,223925.000,3101.4946,N,12126.5693,E,1,00,00010.338,M 
$GPGGA,223926.000,3101.4946,N,12126.5697,E,1,00,00010.338,M 
$GPGGA,223926.000,3101.4945,N,12126.5702,E,1,00,00010.338,M 
$GPGGA,223927.000,3101.4945,N,12126.5706,E,1,00,00010.338,M 
$GPGGA,223927.000,3101.4945,N,12126.5711,E,1,00,00010.338,M 
$GPGGA,223928.000,3101.4944,N,12126.5715,E,1,00,00010.338,M 
$GPGGA,223929.000,3101.4943,N,12126.5720,E,1,00,00010.338,M 
$GPGGA,223929.000,3101.4943,N,12126.5724,E,1,00,00010.338,M 
$GPGGA,223930.000,3101.4942,N,12126.5729,E,1,00,00010.338,M 
$GPGGA,223930.000,3101.4942,N,12126.5733,E,1,00,00010.338,M 
$GPGGA,223931.000,3101.4941,N,12126.5738,E,1,00,00010.338,M 
$GPGGA,223931.000,3101.4941,N,12126.5742,E,1,00,00010.338,M 
$GPGGA,223932.000,3101.4940,N,12126.5746,E,1,00,00010.338,M 
$GPGGA,223932.000,3101.4940,N,12126.5751,E,1,00,00010.338,M 
$GPGGA,223933.000,3101.4939,N,12126.5755,E,1,00,00010.338,M 
$GPGGA,223934.000,3101.4938,N,12126.5760,E,1,00,00010.338,M 
$GPGGA,223934.000,3101.4938,N,12126.5764,E,1,00,00010.338,M 
$GPGGA,223935.000,3101.4937,N,12126.5769,E,1,00,00010.339,M 
$GPGGA,223935.000,3101.4936,N,12126.5773,E,1,00,00010.339,M 
$GPGGA,223936.000,3101.4936,N,12126.5778,E,1,00,00010.339,M 
$GPGGA,223936.000,3101.4935,N,12126.5782,E,1,00,00010.339,M 
$GPGGA,223937.000,3101.4934,N,12126.5786,E,1,00,00010.339,M 
$GPGGA,223938.000,3101.4934,N,12126.5791,E,1,00,00010.339,M 
$GPGGA,223938.000,3101.4933,N,12126.5795,E,1,00,00010.339,M 
$GPGGA,223939.000,3101.4932,N,12126.5799,E,1,00,00010.339,M 
$GPGGA,223939.000,3101.4932,N,12126.5804,E,1,00,00010.339,M 
$GPGGA,223940.000,3101.4931,N,12126.5808,E,1,00,00010.339,M 
$GPGGA,223940.000,3101.4931,N,12126.5813,E,1,00,00010.339,M 
$GPGGA,223941.000,3101.4930,N,12126.5817,E,1,00,00010.339,M 
$GPGGA,223941.000,3101.4930,N,12126.5821,E,1,00,00010.339,M 
$GPGGA,223942.000,3101.4929,N,12126.5826,E,1,00,00010.339,M 
$GPGGA,223943.000,3101.4929,N,12126.5830,E,1,00,00010.339,M 
$GPGGA,223943.000,3101.4928,N,12126.5835,E,1,00,00010.339,M 
$GPGGA,223944.000,3101.4928,N,12126.5839,E,1,00,00010.339,M 
$GPGGA,223944.000,3101.4927,N,12126.5844,E,1,00,00010.340,M 
$GPGGA,223945.000,3101.4927,N,12126.5848,E,1,00,00010.340,M 
$GPGGA,223945.000,3101.4926,N,12126.5852,E,1,00,00010.340,M 
$GPGGA,223946.000,3101.4926,N,12126.5857,E,1,00,00010.340,M 
$GPGGA,223947.000,3101.4926,N,12126.5861,E,1,00,00010.340,M 
$GPGGA,223947.000,3101.4925,N,12126.5866,E,1,00,00010.340,M 
$GPGGA,223948.000,3101.4925,N,12126.5870,E,1,00,00010.340,M 
$GPGGA,223948.000,3101.4924,N,12126.5875,E,1,00,00010.340,M 
$GPGGA,223949.000,3101.4924,N,12126.5879,E,1,00,00010.340,M 
$GPGGA,223949.000,3101.4923,N,12126.5883,E,1,00,00010.340,M 
$GPGGA,223950.000,3101.4923,N,12126.5888,E,1,00,00010.340,M 
$GPGGA,223950.000,3101.4922,N,12126.5892,E,1,00,00010.340,M 
$GPGGA,223951.000,3101.4922,N,12126.5897,E,1,00,00010.340,M 
$GPGGA,223952.000,3101.4921,N,12126.5901,E,1,00,00010.340,M 
$GPGGA,223952.000,3101.4921,N,12126.5905,E,1,00,00010.340,M 
$GPGGA,223953.000,3101.4920,N,12126.5910,E,1,00,00010.340,M 
$GPGGA,223953.000,3101.4920,N,12126.5914,E,1,00,00010.340,M 
$GPGGA,223954.000,3101.4919,N,12126.5919,E,1,00,00010.341,M 
$GPGGA,223954.000,3101.4919,N,12126.5923,E,1,00,00010.341,M 
$GPGGA,223955.000,3101.4918,N,12126.5928,E,1,00,00010.341,M 
$GPGGA,223956.000,3101.4918,N,12126.5932,E,1,00,00010.341,M 
$GPGGA,223956.000,3101.4917,N,12126.5936,E,1,00,00010.341,M 
$GPGGA,223957.000,3101.4917,N,12126.5941,E,1,00,00010.341,M 
$GPGGA,223957.000,3101.4916,N,12126.5945,E,1,00,00010.341,M 
$GPGGA,223958.000,3101.4916,N,12126.5949,E,1,00,00010.341,M 
$GPGGA,223958.000,3101.4915,N,12126.5954,E,1,00,00010.341,M 
$GPGGA,223959.000,3101.4915,N,12126.5958,E,1,00,00010.341,M 
$GPGGA,224000.000,3101.4914,N,12126.5963,E,1,00,00010.341,M 
$GPGGA,224000.000,3101.4914,N,12126.5967,E,1,00,00010.341,M 
$GPGGA,224001.000,3101.4913,N,12126.5971,E,1,00,00010.341,M 
$GPGGA,224001.000,3101.4913,N,12126.5976,E,1,00,00010.341,M 
$GPGGA,224002.000,3101.4912,N,12126.5980,E,1,00,00010.341,M 
$GPGGA,224002.000,3101.4912,N,12126.5985,E,1,00,00010.341,M 
$GPGGA,224003.000,3101.4912,N,12126.5989,E,1,00,00010.342,M 
$GPGGA,224004.000,3101.4911,N,12126.5994,E,1,00,00010.342,M 
$GPGGA,224004.000,3101.4911,N,12126.5998,E,1,00,00010.342,M 
$GPGGA,224005.000,3101.4910,N,12126.6002,E,1,00,00010.342,M 
$GPGGA,224005.000,3101.4910,N,12126.6007,E,1,00,00010.342,M 
$GPGGA,224006.000,3101.4909,N,12126.6011,E,1,00,00010.342,M 
$GPGGA,224006.000,3101.4909,N,12126.6015,E,1,00,00010.342,M 
$GPGGA,224007.000,3101.4908,N,12126.6020,E,1,00,00010.342,M 
$GPGGA,224008.000,3101.4908,N,12126.6024,E,1,00,00010.342,M 
$GPGGA,224008.000,3101.4907,N,12126.6029,E,1,00,00010.342,M 
$GPGGA,224009.000,3101.4907,N,12126.6033,E,1,00,00010.342,M 
$GPGGA,224009.000,3101.4906,N,12126.6037,E,1,00,00010.342,M 
$GPGGA,224010.000,3101.4906,N,12126.6042,E,1,00,00010.342,M 
$GPGGA,224010.000,3101.4905,N,12126.6046,E,1,00,00010.342,M 
$GPGGA,224011.000,3101.4905,N,12126.6050,E,1,00,00010.342,M 
$GPGGA,224012.000,3101.4904,N,12126.6055,E,1,00,00010.342,M 
$GPGGA,224012.000,3101.4904,N,12126.6059,E,1,00,00010.342,M 
$GPGGA,224013.000,3101.4903,N,12126.6064,E,1,00,00010.343,M 
$GPGGA,224013.000,3101.4903,N,12126.6068,E,1,00,00010.343,M 
$GPGGA,224014.000,3101.4902,N,12126.6073,E,1,00,00010.343,M 
$GPGGA,224014.000,3101.4902,N,12126.6077,E,1,00,00010.343,M 
$GPGGA,224015.000,3101.4901,N,12126.6082,E,1,00,00010.343,M 
$GPGGA,224015.000,3101.4901,N,12126.6086,E,1,00,00010.343,M 
$GPGGA,224016.000,3101.4900,N,12126.6090,E,1,00,00010.343,M 
$GPGGA,224017.000,3101.4900,N,12126.6095,E,1,00,00010.343,M 
$GPGGA,224017.000,3101.4899,N,12126.6099,E,1,00,00010.343,M 
$GPGGA,224018.000,3101.4899,N,12126.6104,E,1,00,00010.343,M 
$GPGGA,224018.000,3101.4898,N,12126.6108,E,1,00,00010.343,M 
$GPGGA,224019.000,3101.4898,N,12126.6112,E,1,00,00010.343,M 
$GPGGA,224019.000,3101.4897,N,12126.6117,E,1,00,00010.343,M 
$GPGGA,224020.000,3101.4897,N,12126.6121,E,1,00,00010.343,M 
$GPGGA,224021.000,3101.4896,N,12126.6126,E,1,00,00010.343,M 
$GPGGA,224021.000,3101.4896,N,12126.6130,E,1,00,00010.344,M 
$GPGGA,224022.000,3101.4895,N,12126.6135,E,1,00,00010.344,M 
$GPGGA,224022.000,3101.4895,N,12126.6139,E,1,00,00010.344,M 
$GPGGA,224023.000,3101.4894,N,12126.6144,E,1,00,00010.344,M 
$GPGGA,224023.000,3101.4893,N,12126.6148,E,1,00,00010.344,M 
$GPGGA,224024.000,3101.4893,N,12126.6153,E,1,00,00010.344,M 
$GPGGA,224024.000,3101.4892,N,12126.6157,E,1,00,00010.344,M 
$GPGGA,224025.000,3101.4892,N,12126.6161,E,1,00,00010.344,M 
$GPGGA,224026.000,3101.4891,N,12126.6166,E,1,00,00010.344,M 
$GPGGA,224026.000,3101.4891,N,12126.6170,E,1,00,00010.344,M 
$GPGGA,224027.000,3101.4890,N,12126.6175,E,1,00,00010.344,M 
$GPGGA,224027.000,3101.4890,N,12126.6179,E,1,00,00010.344,M 
$GPGGA,224028.000,3101.4889,N,12126.6184,E,1,00,00010.344,M 
$GPGGA,224028.000,3101.4888,N,12126.6188,E,1,00,00010.344,M 
$GPGGA,224029.000,3101.4888,N,12126.6193,E,1,00,00010.344,M 
$GPGGA,224029.000,3101.4887,N,12126.6197,E,1,00,00010.344,M 
$GPGGA,224030.000,3101.4887,N,12126.6202,E,1,00,00010.345,M 
$GPGGA,224031.000,3101.4886,N,12126.6206,E,1,00,00010.345,M 
$GPGGA,224031.000,3101.4886,N,12126.6211,E,1,00,00010.345,M 
$GPGGA,224032.000,3101.4885,N,12126.6215,E,1,00,00010.345,M 
$GPGGA,224032.000,3101.4884,N,12126.6219,E,1,00,00010.345,M 
$GPGGA,224033.000,3101.4884,N,12126.6224,E,1,00,00010.345,M 
$GPGGA,224033.000,3101.4883,N,12126.6228,E,1,00,00010.345,M 
$GPGGA,224034.000,3101.4883,N,12126.6233,E,1,00,00010.345,M 
$GPGGA,224035.000,3101.4882,N,12126.6237,E,1,00,00010.345,M 
$GPGGA,224035.000,3101.4882,N,12126.6242,E,1,00,00010.345,M 
$GPGGA,224036.000,3101.4881,N,12126.6246,E,1,00,00010.345,M 
$GPGGA,224036.000,3101.4881,N,12126.6250,E,1,00,00010.345,M 
$GPGGA,224037.000,3101.4881,N,12126.6255,E,1,00,00010.345,M 
$GPGGA,224037.000,3101.4880,N,12126.6259,E,1,00,00010.345,M 
$GPGGA,224038.000,3101.4880,N,12126.6264,E,1,00,00010.345,M 
$GPGGA,224039.000,3101.4879,N,12126.6268,E,1,00,00010.346,M 
$GPGGA,224039.000,3101.4879,N,12126.6272,E,1,00,00010.346,M 
$GPGGA,224040.000,3101.4878,N,12126.6277,E,1,00,00010.346,M 
$GPGGA,224040.000,3101.4878,N,12126.6281,E,1,00,00010.346,M 
$GPGGA,224041.000,3101.4877,N,12126.6286,E,1,00,00010.346,M 
$GPGGA,224041.000,3101.4877,N,12126.6290,E,1,00,00010.346,M 
$GPGGA,224042.000,3101.4876,N,12126.6294,E,1,00,00010.346,M 
$GPGGA,224042.000,3101.4876,N,12126.6299,E,1,00,00010.346,M 
$GPGGA,224043.000,3101.4875,N,12126.6303,E,1,00,00010.346,M 
$GPGGA,224044.000,3101.4875,N,12126.6308,E,1,00,00010.346,M 
$GPGGA,224044.000,3101.4874,N,12126.6312,E,1,00,00010.346,M 
$GPGGA,224045.000,3101.4874,N,12126.6316,E,1,00,00010.346,M 
$GPGGA,224045.000,3101.4873,N,12126.6321,E,1,00,00010.346,M 
$GPGGA,224046.000,3101.4873,N,12126.6325,E,1,00,00010.346,M 
$GPGGA,224046.000,3101.4872,N,12126.6329,E,1,00,00010.346,M 
$GPGGA,224047.000,3101.4871,N,12126.6334,E,1,00,00010.347,M 
$GPGGA,224048.000,3101.4871,N,12126.6338,E,1,00,00010.347,M 
$GPGGA,224048.000,3101.4870,N,12126.6342,E,1,00,00010.347,M 
$GPGGA,224049.000,3101.4869,N,12126.6347,E,1,00,00010.347,M 
$GPGGA,224049.000,3101.4869,N,12126.6351,E,1,00,00010.347,M 
$GPGGA,224050.000,3101.4868,N,12126.6356,E,1,00,00010.347,M 
$GPGGA,224050.000,3101.4867,N,12126.6360,E,1,00,00010.347,M 
$GPGGA,224051.000,3101.4867,N,12126.6364,E,1,00,00010.347,M 
$GPGGA,224052.000,3101.4866,N,12126.6368,E,1,00,00010.347,M 
$GPGGA,224052.000,3101.4866,N,12126.6372,E,1,00,00010.347,M 
$GPGGA,224053.000,3101.4866,N,12126.6373,E,1,00,00010.347,M 
$GPGGA,224143.000,3101.4865,N,12126.6378,E,1,00,00010.347,M 
$GPGGA,224143.000,3101.4864,N,12126.6382,E,1,00,00010.347,M 
$GPGGA,224144.000,3101.4864,N,12126.6387,E,1,00,00010.347,M 
$GPGGA,224145.000,3101.4863,N,12126.6391,E,1,00,00010.347,M 
$GPGGA,224145.000,3101.4863,N,12126.6396,E,1,00,00010.348,M 
$GPGGA,224146.000,3101.4862,N,12126.6400,E,1,00,00010.348,M 
$GPGGA,224146.000,3101.4861,N,12126.6405,E,1,00,00010.348,M 
$GPGGA,224147.000,3101.4860,N,12126.6409,E,1,00,00010.348,M 
$GPGGA,224147.000,3101.4860,N,12126.6414,E,1,00,00010.348,M 
$GPGGA,224148.000,3101.4859,N,12126.6419,E,1,00,00010.348,M 
$GPGGA,224148.000,3101.4858,N,12126.6423,E,1,00,00010.348,M 
$GPGGA,224149.000,3101.4857,N,12126.6428,E,1,00,00010.348,M 
$GPGGA,224149.000,3101.4857,N,12126.6432,E,1,00,00010.348,M 
$GPGGA,224150.000,3101.4856,N,12126.6437,E,1,00,00010.348,M 
$GPGGA,224150.000,3101.4855,N,12126.6441,E,1,00,00010.348,M 
$GPGGA,224151.000,3101.4855,N,12126.6446,E,1,00,00010.348,M 
$GPGGA,224152.000,3101.4854,N,12126.6450,E,1,00,00010.348,M 
$GPGGA,224152.000,3101.4853,N,12126.6455,E,1,00,00010.348,M 
$GPGGA,224153.000,3101.4853,N,12126.6459,E,1,00,00010.348,M 
$GPGGA,224153.000,3101.4852,N,12126.6464,E,1,00,00010.349,M 
$GPGGA,224154.000,3101.4851,N,12126.6468,E,1,00,00010.349,M 
$GPGGA,224154.000,3101.4851,N,12126.6473,E,1,00,00010.349,M 
$GPGGA,224155.000,3101.4850,N,12126.6477,E,1,00,00010.349,M 
$GPGGA,224155.000,3101.4849,N,12126.6481,E,1,00,00010.349,M 
$GPGGA,224156.000,3101.4849,N,12126.6486,E,1,00,00010.349,M 
$GPGGA,224157.000,3101.4848,N,12126.6490,E,1,00,00010.349,M 
$GPGGA,224157.000,3101.4847,N,12126.6495,E,1,00,00010.349,M 
$GPGGA,224158.000,3101.4847,N,12126.6500,E,1,00,00010.349,M 
$GPGGA,224158.000,3101.4846,N,12126.6504,E,1,00,00010.349,M 
$GPGGA,224159.000,3101.4845,N,12126.6509,E,1,00,00010.349,M 
$GPGGA,224159.000,3101.4845,N,12126.6513,E,1,00,00010.349,M 
$GPGGA,224200.000,3101.4844,N,12126.6518,E,1,00,00010.349,M 
$GPGGA,224200.000,3101.4843,N,12126.6522,E,1,00,00010.349,M 
$GPGGA,224201.000,3101.4842,N,12126.6527,E,1,00,00010.350,M 
$GPGGA,224201.000,3101.4842,N,12126.6531,E,1,00,00010.350,M 
$GPGGA,224202.000,3101.4841,N,12126.6536,E,1,00,00010.350,M 
$GPGGA,224203.000,3101.4840,N,12126.6540,E,1,00,00010.350,M 
$GPGGA,224203.000,3101.4840,N,12126.6545,E,1,00,00010.350,M 
$GPGGA,224204.000,3101.4839,N,12126.6549,E,1,00,00010.350,M 
$GPGGA,224204.000,3101.4838,N,12126.6553,E,1,00,00010.350,M 
$GPGGA,224205.000,3101.4837,N,12126.6558,E,1,00,00010.350,M 
$GPGGA,224205.000,3101.4837,N,12126.6562,E,1,00,00010.350,M 
$GPGGA,224206.000,3101.4836,N,12126.6567,E,1,00,00010.350,M 
$GPGGA,224206.000,3101.4835,N,12126.6571,E,1,00,00010.350,M 
$GPGGA,224207.000,3101.4834,N,12126.6576,E,1,00,00010.350,M 
$GPGGA,224207.000,3101.4834,N,12126.6580,E,1,00,00010.350,M 
$GPGGA,224208.000,3101.4833,N,12126.6585,E,1,00,00010.351,M 
$GPGGA,224209.000,3101.4832,N,12126.6589,E,1,00,00010.351,M 
$GPGGA,224209.000,3101.4831,N,12126.6594,E,1,00,00010.351,M 
$GPGGA,224210.000,3101.4831,N,12126.6598,E,1,00,00010.351,M 
$GPGGA,224210.000,3101.4830,N,12126.6602,E,1,00,00010.351,M 
$GPGGA,224211.000,3101.4829,N,12126.6607,E,1,00,00010.351,M 
$GPGGA,224211.000,3101.4829,N,12126.6612,E,1,00,00010.351,M 
$GPGGA,224212.000,3101.4828,N,12126.6616,E,1,00,00010.351,M 
$GPGGA,224212.000,3101.4827,N,12126.6620,E,1,00,00010.351,M 
$GPGGA,224213.000,3101.4826,N,12126.6625,E,1,00,00010.351,M 
$GPGGA,224214.000,3101.4826,N,12126.6629,E,1,00,00010.351,M 
$GPGGA,224214.000,3101.4825,N,12126.6634,E,1,00,00010.351,M 
$GPGGA,224215.000,3101.4824,N,12126.6638,E,1,00,00010.351,M 
$GPGGA,224215.000,3101.4823,N,12126.6643,E,1,00,00010.351,M 
$GPGGA,224216.000,3101.4823,N,12126.6647,E,1,00,00010.352,M 
$GPGGA,224216.000,3101.4822,N,12126.6652,E,1,00,00010.352,M 
$GPGGA,224217.000,3101.4821,N,12126.6656,E,1,00,00010.352,M 
$GPGGA,224217.000,3101.4820,N,12126.6661,E,1,00,00010.352,M 
$GPGGA,224218.000,3101.4820,N,12126.6665,E,1,00,00010.352,M 
$GPGGA,224219.000,3101.4819,N,12126.6669,E,1,00,00010.352,M 
$GPGGA,224219.000,3101.4819,N,12126.6674,E,1,00,00010.352,M 
$GPGGA,224220.000,3101.4818,N,12126.6678,E,1,00,00010.352,M 
$GPGGA,224220.000,3101.4817,N,12126.6682,E,1,00,00010.352,M 
$GPGGA,224221.000,3101.4817,N,12126.6687,E,1,00,00010.352,M 
$GPGGA,224221.000,3101.4816,N,12126.6691,E,1,00,00010.352,M 
$GPGGA,224222.000,3101.4815,N,12126.6696,E,1,00,00010.352,M 
$GPGGA,224222.000,3101.4815,N,12126.6700,E,1,00,00010.352,M 
$GPGGA,224223.000,3101.4814,N,12126.6705,E,1,00,00010.352,M 
$GPGGA,224224.000,3101.4814,N,12126.6709,E,1,00,00010.353,M 
$GPGGA,224224.000,3101.4813,N,12126.6714,E,1,00,00010.353,M 
$GPGGA,224225.000,3101.4812,N,12126.6718,E,1,00,00010.353,M 
$GPGGA,224225.000,3101.4812,N,12126.6722,E,1,00,00010.353,M 
$GPGGA,224226.000,3101.4811,N,12126.6727,E,1,00,00010.353,M 
$GPGGA,224226.000,3101.4811,N,12126.6732,E,1,00,00010.353,M 
$GPGGA,224227.000,3101.4810,N,12126.6736,E,1,00,00010.353,M 
$GPGGA,224227.000,3101.4810,N,12126.6740,E,1,00,00010.353,M 
$GPGGA,224228.000,3101.4809,N,12126.6745,E,1,00,00010.353,M 
$GPGGA,224229.000,3101.4809,N,12126.6749,E,1,00,00010.353,M 
$GPGGA,224229.000,3101.4808,N,12126.6754,E,1,00,00010.353,M 
$GPGGA,224230.000,3101.4808,N,12126.6758,E,1,00,00010.353,M 
$GPGGA,224230.000,3101.4807,N,12126.6763,E,1,00,00010.353,M 
$GPGGA,224231.000,3101.4806,N,12126.6768,E,1,00,00010.354,M 
$GPGGA,224231.000,3101.4806,N,12126.6772,E,1,00,00010.354,M 
$GPGGA,224232.000,3101.4806,N,12126.6776,E,1,00,00010.354,M 
$GPGGA,224232.000,3101.4805,N,12126.6781,E,1,00,00010.354,M 
$GPGGA,224233.000,3101.4804,N,12126.6785,E,1,00,00010.354,M 
$GPGGA,224234.000,3101.4804,N,12126.6790,E,1,00,00010.354,M 
$GPGGA,224234.000,3101.4803,N,12126.6794,E,1,00,00010.354,M 
$GPGGA,224235.000,3101.4803,N,12126.6799,E,1,00,00010.354,M 
$GPGGA,224235.000,3101.4802,N,12126.6803,E,1,00,00010.354,M 
$GPGGA,224236.000,3101.4801,N,12126.6808,E,1,00,00010.354,M 
$GPGGA,224236.000,3101.4801,N,12126.6812,E,1,00,00010.354,M 
$GPGGA,224237.000,3101.4800,N,12126.6816,E,1,00,00010.354,M 
$GPGGA,224237.000,3101.4800,N,12126.6821,E,1,00,00010.354,M 
$GPGGA,224238.000,3101.4799,N,12126.6826,E,1,00,00010.355,M 
$GPGGA,224239.000,3101.4798,N,12126.6830,E,1,00,00010.355,M 
$GPGGA,224239.000,3101.4798,N,12126.6834,E,1,00,00010.355,M 
$GPGGA,224240.000,3101.4797,N,12126.6839,E,1,00,00010.355,M 
$GPGGA,224240.000,3101.4797,N,12126.6843,E,1,00,00010.355,M 
$GPGGA,224241.000,3101.4796,N,12126.6848,E,1,00,00010.355,M 
$GPGGA,224241.000,3101.4795,N,12126.6852,E,1,00,00010.355,M 
$GPGGA,224242.000,3101.4795,N,12126.6856,E,1,00,00010.355,M 
$GPGGA,224242.000,3101.4794,N,12126.6861,E,1,00,00010.355,M 
$GPGGA,224243.000,3101.4794,N,12126.6865,E,1,00,00010.355,M 
$GPGGA,224244.000,3101.4793,N,12126.6870,E,1,00,00010.355,M 
$GPGGA,224244.000,3101.4793,N,12126.6874,E,1,00,00010.355,M 
$GPGGA,224245.000,3101.4792,N,12126.6879,E,1,00,00010.355,M 
$GPGGA,224245.000,3101.4791,N,12126.6883,E,1,00,00010.356,M 
$GPGGA,224246.000,3101.4791,N,12126.6887,E,1,00,00010.356,M 
$GPGGA,224246.000,3101.4790,N,12126.6892,E,1,00,00010.356,M 
$GPGGA,224247.000,3101.4790,N,12126.6896,E,1,00,00010.356,M 
$GPGGA,224248.000,3101.4789,N,12126.6901,E,1,00,00010.356,M 
$GPGGA,224248.000,3101.4789,N,12126.6905,E,1,00,00010.356,M 
$GPGGA,224249.000,3101.4788,N,12126.6910,E,1,00,00010.356,M 
$GPGGA,224249.000,3101.4787,N,12126.6914,E,1,00,00010.356,M 
$GPGGA,224250.000,3101.4787,N,12126.6919,E,1,00,00010.356,M 
$GPGGA,224250.000,3101.4786,N,12126.6923,E,1,00,00010.356,M 
$GPGGA,224251.000,3101.4785,N,12126.6928,E,1,00,00010.356,M 
$GPGGA,224251.000,3101.4785,N,12126.6932,E,1,00,00010.356,M 
$GPGGA,224252.000,3101.4784,N,12126.6936,E,1,00,00010.356,M 
$GPGGA,224253.000,3101.4783,N,12126.6941,E,1,00,00010.357,M 
$GPGGA,224253.000,3101.4783,N,12126.6945,E,1,00,00010.357,M 
$GPGGA,224254.000,3101.4782,N,12126.6950,E,1,00,00010.357,M 
$GPGGA,224254.000,3101.4781,N,12126.6954,E,1,00,00010.357,M 
$GPGGA,224255.000,3101.4780,N,12126.6959,E,1,00,00010.357,M 
$GPGGA,224255.000,3101.4780,N,12126.6963,E,1,00,00010.357,M 
$GPGGA,224256.000,3101.4779,N,12126.6967,E,1,00,00010.357,M 
$GPGGA,224256.000,3101.4778,N,12126.6972,E,1,00,00010.357,M 
$GPGGA,224257.000,3101.4778,N,12126.6973,E,1,00,00010.357,M 
$GPGGA,224324.000,3101.4777,N,12126.6977,E,1,00,00010.357,M 
$GPGGA,224324.000,3101.4777,N,12126.6982,E,1,00,00010.357,M 
$GPGGA,224325.000,3101.4776,N,12126.6986,E,1,00,00010.357,M 
$GPGGA,224325.000,3101.4775,N,12126.6990,E,1,00,00010.357,M 
$GPGGA,224326.000,3101.4774,N,12126.6995,E,1,00,00010.358,M 
$GPGGA,224326.000,3101.4773,N,12126.6999,E,1,00,00010.358,M 
$GPGGA,224327.000,3101.4773,N,12126.7004,E,1,00,00010.358,M 
$GPGGA,224328.000,3101.4772,N,12126.7008,E,1,00,00010.358,M 
$GPGGA,224328.000,3101.4771,N,12126.7013,E,1,00,00010.358,M 
$GPGGA,224329.000,3101.4771,N,12126.7017,E,1,00,00010.358,M 
$GPGGA,224329.000,3101.4770,N,12126.7022,E,1,00,00010.358,M 
$GPGGA,224330.000,3101.4769,N,12126.7026,E,1,00,00010.358,M 
$GPGGA,224330.000,3101.4768,N,12126.7030,E,1,00,00010.358,M 
$GPGGA,224331.000,3101.4767,N,12126.7035,E,1,00,00010.358,M 
$GPGGA,224331.000,3101.4767,N,12126.7040,E,1,00,00010.358,M 
$GPGGA,224332.000,3101.4766,N,12126.7044,E,1,00,00010.358,M 
$GPGGA,224332.000,3101.4765,N,12126.7049,E,1,00,00010.358,M 
$GPGGA,224333.000,3101.4765,N,12126.7053,E,1,00,00010.359,M 
$GPGGA,224334.000,3101.4764,N,12126.7058,E,1,00,00010.359,M 
$GPGGA,224334.000,3101.4763,N,12126.7062,E,1,00,00010.359,M 
$GPGGA,224335.000,3101.4763,N,12126.7067,E,1,00,00010.359,M 
$GPGGA,224335.000,3101.4762,N,12126.7071,E,1,00,00010.359,M 
$GPGGA,224336.000,3101.4761,N,12126.7076,E,1,00,00010.359,M 
$GPGGA,224336.000,3101.4761,N,12126.7080,E,1,00,00010.359,M 
$GPGGA,224337.000,3101.4760,N,12126.7085,E,1,00,00010.359,M 
$GPGGA,224337.000,3101.4759,N,12126.7089,E,1,00,00010.359,M 
$GPGGA,224338.000,3101.4759,N,12126.7094,E,1,00,00010.359,M 
$GPGGA,224338.000,3101.4758,N,12126.7098,E,1,00,00010.359,M 
$GPGGA,224339.000,3101.4757,N,12126.7103,E,1,00,00010.359,M 
$GPGGA,224340.000,3101.4756,N,12126.7107,E,1,00,00010.360,M 
$GPGGA,224340.000,3101.4755,N,12126.7111,E,1,00,00010.360,M 
$GPGGA,224341.000,3101.4755,N,12126.7116,E,1,00,00010.360,M 
$GPGGA,224341.000,3101.4754,N,12126.7120,E,1,00,00010.360,M 
$GPGGA,224342.000,3101.4753,N,12126.7125,E,1,00,00010.360,M 
$GPGGA,224342.000,3101.4752,N,12126.7129,E,1,00,00010.360,M 
$GPGGA,224343.000,3101.4752,N,12126.7134,E,1,00,00010.360,M 
$GPGGA,224343.000,3101.4751,N,12126.7138,E,1,00,00010.360,M 
$GPGGA,224344.000,3101.4750,N,12126.7143,E,1,00,00010.360,M 
$GPGGA,224345.000,3101.4749,N,12126.7147,E,1,00,00010.360,M 
$GPGGA,224345.000,3101.4749,N,12126.7152,E,1,00,00010.360,M 
$GPGGA,224346.000,3101.4748,N,12126.7156,E,1,00,00010.360,M 
$GPGGA,224346.000,3101.4747,N,12126.7161,E,1,00,00010.361,M 
$GPGGA,224347.000,3101.4746,N,12126.7165,E,1,00,00010.361,M 
$GPGGA,224347.000,3101.4745,N,12126.7169,E,1,00,00010.361,M 
$GPGGA,224348.000,3101.4744,N,12126.7174,E,1,00,00010.361,M 
$GPGGA,224348.000,3101.4743,N,12126.7178,E,1,00,00010.361,M 
$GPGGA,224349.000,3101.4743,N,12126.7183,E,1,00,00010.361,M 
$GPGGA,224349.000,3101.4742,N,12126.7187,E,1,00,00010.361,M 
$GPGGA,224350.000,3101.4741,N,12126.7191,E,1,00,00010.361,M 
$GPGGA,224351.000,3101.4740,N,12126.7196,E,1,00,00010.361,M 
$GPGGA,224351.000,3101.4739,N,12126.7200,E,1,00,00010.361,M 
$GPGGA,224352.000,3101.4739,N,12126.7205,E,1,00,00010.361,M 
$GPGGA,224352.000,3101.4738,N,12126.7209,E,1,00,00010.361,M 
$GPGGA,224353.000,3101.4737,N,12126.7214,E,1,00,00010.362,M 
$GPGGA,224353.000,3101.4736,N,12126.7218,E,1,00,00010.362,M 
$GPGGA,224354.000,3101.4735,N,12126.7222,E,1,00,00010.362,M 
$GPGGA,224354.000,3101.4735,N,12126.7227,E,1,00,00010.362,M 
$GPGGA,224355.000,3101.4734,N,12126.7231,E,1,00,00010.362,M 
$GPGGA,224356.000,3101.4733,N,12126.7236,E,1,00,00010.362,M 
$GPGGA,224356.000,3101.4732,N,12126.7240,E,1,00,00010.362,M 
$GPGGA,224357.000,3101.4732,N,12126.7244,E,1,00,00010.362,M 
$GPGGA,224357.000,3101.4731,N,12126.7249,E,1,00,00010.362,M 
$GPGGA,224358.000,3101.4730,N,12126.7253,E,1,00,00010.362,M 
$GPGGA,224358.000,3101.4729,N,12126.7258,E,1,00,00010.362,M 
$GPGGA,224359.000,3101.4728,N,12126.7262,E,1,00,00010.362,M 
$GPGGA,224359.000,3101.4727,N,12126.7267,E,1,00,00010.363,M 
$GPGGA,224400.000,3101.4727,N,12126.7271,E,1,00,00010.363,M 
$GPGGA,224401.000,3101.4726,N,12126.7275,E,1,00,00010.363,M 
$GPGGA,224401.000,3101.4725,N,12126.7280,E,1,00,00010.363,M 
$GPGGA,224402.000,3101.4724,N,12126.7284,E,1,00,00010.363,M 
$GPGGA,224402.000,3101.4723,N,12126.7289,E,1,00,00010.363,M 
$GPGGA,224403.000,3101.4722,N,12126.7293,E,1,00,00010.363,M 
$GPGGA,224403.000,3101.4721,N,12126.7297,E,1,00,00010.363,M 
$GPGGA,224404.000,3101.4720,N,12126.7302,E,1,00,00010.363,M 
$GPGGA,224404.000,3101.4719,N,12126.7306,E,1,00,00010.363,M 
$GPGGA,224405.000,3101.4718,N,12126.7311,E,1,00,00010.363,M 
$GPGGA,224406.000,3101.4717,N,12126.7315,E,1,00,00010.363,M 
$GPGGA,224406.000,3101.4717,N,12126.7319,E,1,00,00010.364,M 
$GPGGA,224407.000,3101.4716,N,12126.7324,E,1,00,00010.364,M 
$GPGGA,224407.000,3101.4715,N,12126.7328,E,1,00,00010.364,M 
$GPGGA,224408.000,3101.4714,N,12126.7332,E,1,00,00010.364,M 
$GPGGA,224408.000,3101.4713,N,12126.7337,E,1,00,00010.364,M 
$GPGGA,224409.000,3101.4712,N,12126.7341,E,1,00,00010.364,M 
$GPGGA,224410.000,3101.4711,N,12126.7345,E,1,00,00010.364,M 
$GPGGA,224410.000,3101.4710,N,12126.7350,E,1,00,00010.364,M 
$GPGGA,224411.000,3101.4709,N,12126.7354,E,1,00,00010.364,M 
$GPGGA,224411.000,3101.4708,N,12126.7358,E,1,00,00010.364,M 
$GPGGA,224412.000,3101.4707,N,12126.7363,E,1,00,00010.364,M 
$GPGGA,224412.000,3101.4706,N,12126.7367,E,1,00,00010.364,M 
$GPGGA,224413.000,3101.4705,N,12126.7371,E,1,00,00010.365,M 
$GPGGA,224413.000,3101.4704,N,12126.7376,E,1,00,00010.365,M 
$GPGGA,224414.000,3101.4703,N,12126.7380,E,1,00,00010.365,M 
$GPGGA,224415.000,3101.4703,N,12126.7384,E,1,00,00010.365,M 
$GPGGA,224415.000,3101.4702,N,12126.7389,E,1,00,00010.365,M 
$GPGGA,224416.000,3101.4701,N,12126.7393,E,1,00,00010.365,M 
$GPGGA,224416.000,3101.4700,N,12126.7397,E,1,00,00010.365,M 
$GPGGA,224417.000,3101.4699,N,12126.7402,E,1,00,00010.365,M 
$GPGGA,224417.000,3101.4698,N,12126.7406,E,1,00,00010.365,M 
$GPGGA,224418.000,3101.4697,N,12126.7410,E,1,00,00010.365,M 
$GPGGA,224419.000,3101.4696,N,12126.7415,E,1,00,00010.365,M 
$GPGGA,224419.000,3101.4695,N,12126.7419,E,1,00,00010.365,M 
$GPGGA,224420.000,3101.4694,N,12126.7423,E,1,00,00010.366,M 
$GPGGA,224420.000,3101.4693,N,12126.7428,E,1,00,00010.366,M 
$GPGGA,224421.000,3101.4692,N,12126.7432,E,1,00,00010.366,M 
$GPGGA,224421.000,3101.4691,N,12126.7436,E,1,00,00010.366,M 
$GPGGA,224422.000,3101.4690,N,12126.7441,E,1,00,00010.366,M 
$GPGGA,224422.000,3101.4688,N,12126.7445,E,1,00,00010.366,M 
$GPGGA,224423.000,3101.4687,N,12126.7449,E,1,00,00010.366,M 
$GPGGA,224424.000,3101.4686,N,12126.7454,E,1,00,00010.366,M 
$GPGGA,224424.000,3101.4685,N,12126.7458,E,1,00,00010.366,M 
$GPGGA,224425.000,3101.4684,N,12126.7462,E,1,00,00010.366,M 
$GPGGA,224425.000,3101.4683,N,12126.7467,E,1,00,00010.366,M 
$GPGGA,224426.000,3101.4682,N,12126.7471,E,1,00,00010.366,M 
$GPGGA,224426.000,3101.4681,N,12126.7475,E,1,00,00010.367,M 
$GPGGA,224427.000,3101.4680,N,12126.7480,E,1,00,00010.367,M 
$GPGGA,224427.000,3101.4679,N,12126.7484,E,1,00,00010.367,M 
$GPGGA,224428.000,3101.4677,N,12126.7489,E,1,00,00010.367,M 
$GPGGA,224428.000,3101.4676,N,12126.7493,E,1,00,00010.367,M 
$GPGGA,224429.000,3101.4675,N,12126.7497,E,1,00,00010.367,M 
$GPGGA,224430.000,3101.4674,N,12126.7502,E,1,00,00010.367,M 
$GPGGA,224430.000,3101.4673,N,12126.7506,E,1,00,00010.367,M 
$GPGGA,224431.000,3101.4672,N,12126.7511,E,1,00,00010.367,M 
$GPGGA,224431.000,3101.4671,N,12126.7515,E,1,00,00010.367,M 
$GPGGA,224432.000,3101.4670,N,12126.7519,E,1,00,00010.367,M 
$GPGGA,224432.000,3101.4669,N,12126.7524,E,1,00,00010.368,M 
$GPGGA,224433.000,3101.4668,N,12126.7528,E,1,00,00010.368,M 
$GPGGA,224433.000,3101.4667,N,12126.7532,E,1,00,00010.368,M 
$GPGGA,224434.000,3101.4666,N,12126.7537,E,1,00,00010.368,M 
$GPGGA,224435.000,3101.4665,N,12126.7541,E,1,00,00010.368,M 
$GPGGA,224435.000,3101.4664,N,12126.7546,E,1,00,00010.368,M 
$GPGGA,224436.000,3101.4663,N,12126.7550,E,1,00,00010.368,M 
$GPGGA,224436.000,3101.4662,N,12126.7554,E,1,00,00010.368,M 
$GPGGA,224437.000,3101.4661,N,12126.7559,E,1,00,00010.368,M 
$GPGGA,224437.000,3101.4660,N,12126.7563,E,1,00,00010.368,M 
$GPGGA,224438.000,3101.4659,N,12126.7568,E,1,00,00010.368,M 
$GPGGA,224438.000,3101.4658,N,12126.7572,E,1,00,00010.368,M 
$GPGGA,224439.000,3101.4657,N,12126.7576,E,1,00,00010.369,M 
$GPGGA,224440.000,3101.4656,N,12126.7580,E,1,00,00010.369,M 
$GPGGA,224440.000,3101.4655,N,12126.7585,E,1,00,00010.369,M 
$GPGGA,224441.000,3101.4654,N,12126.7589,E,1,00,00010.369,M 
$GPGGA,224441.000,3101.4653,N,12126.7594,E,1,00,00010.369,M 
$GPGGA,224442.000,3101.4652,N,12126.7598,E,1,00,00010.369,M 
$GPGGA,224442.000,3101.4651,N,12126.7602,E,1,00,00010.369,M 
$GPGGA,224443.000,3101.4650,N,12126.7607,E,1,00,00010.369,M 
$GPGGA,224443.000,3101.4649,N,12126.7611,E,1,00,00010.369,M 
$GPGGA,224444.000,3101.4648,N,12126.7615,E,1,00,00010.369,M 
$GPGGA,224445.000,3101.4647,N,12126.7620,E,1,00,00010.369,M 
$GPGGA,224445.000,3101.4646,N,12126.7624,E,1,00,00010.370,M 
$GPGGA,224446.000,3101.4645,N,12126.7628,E,1,00,00010.370,M 
$GPGGA,224446.000,3101.4644,N,12126.7633,E,1,00,00010.370,M 
$GPGGA,224447.000,3101.4643,N,12126.7637,E,1,00,00010.370,M 
$GPGGA,224447.000,3101.4642,N,12126.7641,E,1,00,00010.370,M 
$GPGGA,224448.000,3101.4641,N,12126.7645,E,1,00,00010.370,M 
$GPGGA,224448.000,3101.4640,N,12126.7650,E,1,00,00010.370,M 
$GPGGA,224449.000,3101.4639,N,12126.7654,E,1,00,00010.370,M 
$GPGGA,224450.000,3101.4638,N,12126.7658,E,1,00,00010.370,M 
$GPGGA,224450.000,3101.4637,N,12126.7662,E,1,00,00010.370,M 
$GPGGA,224451.000,3101.4636,N,12126.7667,E,1,00,00010.370,M 
$GPGGA,224451.000,3101.4635,N,12126.7671,E,1,00,00010.371,M 
$GPGGA,224452.000,3101.4634,N,12126.7675,E,1,00,00010.371,M 
$GPGGA,224452.000,3101.4633,N,12126.7680,E,1,00,00010.371,M 
$GPGGA,224453.000,3101.4632,N,12126.7684,E,1,00,00010.371,M 
$GPGGA,224454.000,3101.4631,N,12126.7688,E,1,00,00010.371,M 
$GPGGA,223536.000,3101.5084,N,12126.4354,E,1,00,00010.324,M 
$GPGGA,223601.000,3101.5084,N,12126.4358,E,1,00,00010.324,M 
$GPGGA,223602.000,3101.5084,N,12126.4362,E,1,00,00010.324,M 
$GPGGA,223602.000,3101.5083,N,12126.4367,E,1,00,00010.324,M 
$GPGGA,223603.000,3101.5083,N,12126.4371,E,1,00,00010.324,M 
$GPGGA,223603.000,3101.5083,N,12126.4376,E,1,00,00010.324,M 
$GPGGA,223604.000,3101.5082,N,12126.4380,E,1,00,00010.324,M 
$GPGGA,223604.000,3101.5082,N,12126.4385,E,1,00,00010.324,M 
$GPGGA,223605.000,3101.5082,N,12126.4389,E,1,00,00010.324,M 
$GPGGA,223606.000,3101.5081,N,12126.4394,E,1,00,00010.324,M 
$GPGGA,223606.000,3101.5081,N,12126.4398,E,1,00,00010.324,M 
$GPGGA,223607.000,3101.5081,N,12126.4402,E,1,00,00010.324,M 
$GPGGA,223607.000,3101.5080,N,12126.4407,E,1,00,00010.324,M 
$GPGGA,223608.000,3101.5080,N,12126.4411,E,1,00,00010.324,M 
$GPGGA,223608.000,3101.5080,N,12126.4416,E,1,00,00010.324,M 
$GPGGA,223609.000,3101.5079,N,12126.4420,E,1,00,00010.325,M 
$GPGGA,223610.000,3101.5079,N,12126.4425,E,1,00,00010.325,M 
$GPGGA,223610.000,3101.5079,N,12126.4429,E,1,00,00010.325,M 
$GPGGA,223611.000,3101.5078,N,12126.4433,E,1,00,00010.325,M 
$GPGGA,223611.000,3101.5078,N,12126.4438,E,1,00,00010.325,M 
$GPGGA,223612.000,3101.5078,N,12126.4442,E,1,00,00010.325,M 
$GPGGA,223612.000,3101.5078,N,12126.4447,E,1,00,00010.325,M 
$GPGGA,223613.000,3101.5077,N,12126.4451,E,1,00,00010.325,M 
$GPGGA,223613.000,3101.5077,N,12126.4456,E,1,00,00010.325,M 
$GPGGA,223614.000,3101.5077,N,12126.4460,E,1,00,00010.325,M 
$GPGGA,223615.000,3101.5076,N,12126.4465,E,1,00,00010.325,M 
$GPGGA,223615.000,3101.5076,N,12126.4469,E,1,00,00010.325,M 
$GPGGA,223616.000,3101.5076,N,12126.4474,E,1,00,00010.325,M 
$GPGGA,223616.000,3101.5075,N,12126.4478,E,1,00,00010.325,M 
$GPGGA,223617.000,3101.5075,N,12126.4483,E,1,00,00010.325,M 
$GPGGA,223617.000,3101.5074,N,12126.4487,E,1,00,00010.325,M 
$GPGGA,223618.000,3101.5074,N,12126.4492,E,1,00,00010.325,M 
$GPGGA,223618.000,3101.5074,N,12126.4496,E,1,00,00010.325,M 
$GPGGA,223619.000,3101.5073,N,12126.4501,E,1,00,00010.325,M 
$GPGGA,223620.000,3101.5073,N,12126.4505,E,1,00,00010.325,M 
$GPGGA,223620.000,3101.5072,N,12126.4510,E,1,00,00010.325,M 
$GPGGA,223621.000,3101.5072,N,12126.4514,E,1,00,00010.325,M 
$GPGGA,223621.000,3101.5072,N,12126.4518,E,1,00,00010.325,M 
$GPGGA,223622.000,3101.5071,N,12126.4523,E,1,00,00010.325,M 
$GPGGA,223622.000,3101.5071,N,12126.4527,E,1,00,00010.325,M 
$GPGGA,223623.000,3101.5070,N,12126.4532,E,1,00,00010.325,M 
$GPGGA,223624.000,3101.5070,N,12126.4536,E,1,00,00010.325,M 
$GPGGA,223624.000,3101.5069,N,12126.4541,E,1,00,00010.325,M 
$GPGGA,223625.000,3101.5069,N,12126.4545,E,1,00,00010.326,M 
$GPGGA,223625.000,3101.5068,N,12126.4550,E,1,00,00010.326,M 
$GPGGA,223626.000,3101.5068,N,12126.4554,E,1,00,00010.326,M 
$GPGGA,223626.000,3101.5067,N,12126.4559,E,1,00,00010.326,M 
$GPGGA,223627.000,3101.5067,N,12126.4563,E,1,00,00010.326,M 
$GPGGA,223627.000,3101.5066,N,12126.4567,E,1,00,00010.326,M 
$GPGGA,223628.000,3101.5066,N,12126.4572,E,1,00,00010.326,M 
$GPGGA,223629.000,3101.5066,N,12126.4576,E,1,00,00010.326,M 
$GPGGA,223629.000,3101.5065,N,12126.4581,E,1,00,00010.326,M 
$GPGGA,223630.000,3101.5065,N,12126.4585,E,1,00,00010.326,M 
$GPGGA,223630.000,3101.5064,N,12126.4590,E,1,00,00010.326,M 
$GPGGA,223631.000,3101.5064,N,12126.4594,E,1,00,00010.326,M 
$GPGGA,223631.000,3101.5063,N,12126.4599,E,1,00,00010.326,M 
$GPGGA,223632.000,3101.5063,N,12126.4603,E,1,00,00010.326,M 
$GPGGA,223633.000,3101.5062,N,12126.4608,E,1,00,00010.326,M 
$GPGGA,223633.000,3101.5062,N,12126.4612,E,1,00,00010.326,M 
$GPGGA,223634.000,3101.5061,N,12126.4616,E,1,00,00010.326,M 
$GPGGA,223634.000,3101.5061,N,12126.4621,E,1,00,00010.326,M 
$GPGGA,223635.000,3101.5060,N,12126.4625,E,1,00,00010.326,M 
$GPGGA,223635.000,3101.5060,N,12126.4630,E,1,00,00010.326,M 
$GPGGA,223636.000,3101.5059,N,12126.4634,E,1,00,00010.326,M 
$GPGGA,223636.000,3101.5059,N,12126.4639,E,1,00,00010.326,M 
$GPGGA,223637.000,3101.5058,N,12126.4643,E,1,00,00010.326,M 
$GPGGA,223638.000,3101.5057,N,12126.4648,E,1,00,00010.326,M 
$GPGGA,223638.000,3101.5057,N,12126.4652,E,1,00,00010.326,M 
$GPGGA,223639.000,3101.5056,N,12126.4657,E,1,00,00010.326,M 
$GPGGA,223639.000,3101.5056,N,12126.4661,E,1,00,00010.327,M 
$GPGGA,223640.000,3101.5055,N,12126.4665,E,1,00,00010.327,M 
$GPGGA,223640.000,3101.5055,N,12126.4670,E,1,00,00010.327,M 
$GPGGA,223641.000,3101.5054,N,12126.4674,E,1,00,00010.327,M 
$GPGGA,223641.000,3101.5054,N,12126.4679,E,1,00,00010.327,M 
$GPGGA,223642.000,3101.5053,N,12126.4683,E,1,00,00010.327,M 
$GPGGA,223643.000,3101.5053,N,12126.4688,E,1,00,00010.327,M 
$GPGGA,223643.000,3101.5052,N,12126.4692,E,1,00,00010.327,M 
$GPGGA,223644.000,3101.5052,N,12126.4697,E,1,00,00010.327,M 
$GPGGA,223644.000,3101.5051,N,12126.4701,E,1,00,00010.327,M 
$GPGGA,223645.000,3101.5051,N,12126.4706,E,1,00,00010.327,M 
$GPGGA,223645.000,3101.5050,N,12126.4710,E,1,00,00010.327,M 
$GPGGA,223646.000,3101.5050,N,12126.4715,E,1,00,00010.327,M 
$GPGGA,223646.000,3101.5049,N,12126.4719,E,1,00,00010.327,M 
$GPGGA,223647.000,3101.5049,N,12126.4724,E,1,00,00010.327,M 
$GPGGA,223648.000,3101.5048,N,12126.4728,E,1,00,00010.327,M 
$GPGGA,223648.000,3101.5048,N,12126.4732,E,1,00,00010.327,M 
$GPGGA,223649.000,3101.5047,N,12126.4737,E,1,00,00010.327,M 
$GPGGA,223649.000,3101.5047,N,12126.4741,E,1,00,00010.327,M 
$GPGGA,223650.000,3101.5046,N,12126.4746,E,1,00,00010.327,M 
$GPGGA,223650.000,3101.5046,N,12126.4750,E,1,00,00010.327,M 
$GPGGA,223651.000,3101.5045,N,12126.4755,E,1,00,00010.327,M 
$GPGGA,223651.000,3101.5045,N,12126.4759,E,1,00,00010.327,M 
$GPGGA,223652.000,3101.5045,N,12126.4764,E,1,00,00010.327,M 
$GPGGA,223653.000,3101.5044,N,12126.4768,E,1,00,00010.327,M 
$GPGGA,223653.000,3101.5044,N,12126.4773,E,1,00,00010.327,M 
$GPGGA,223654.000,3101.5043,N,12126.4777,E,1,00,00010.328,M 
$GPGGA,223654.000,3101.5043,N,12126.4782,E,1,00,00010.328,M 
$GPGGA,223655.000,3101.5042,N,12126.4786,E,1,00,00010.328,M 
$GPGGA,223655.000,3101.5042,N,12126.4791,E,1,00,00010.328,M 
$GPGGA,223656.000,3101.5041,N,12126.4795,E,1,00,00010.328,M 
$GPGGA,223656.000,3101.5041,N,12126.4800,E,1,00,00010.328,M 
$GPGGA,223657.000,3101.5040,N,12126.4804,E,1,00,00010.328,M 
$GPGGA,223658.000,3101.5040,N,12126.4808,E,1,00,00010.328,M 
$GPGGA,223658.000,3101.5040,N,12126.4813,E,1,00,00010.328,M 
$GPGGA,223659.000,3101.5039,N,12126.4817,E,1,00,00010.328,M 
$GPGGA,223659.000,3101.5039,N,12126.4822,E,1,00,00010.328,M 
$GPGGA,223700.000,3101.5038,N,12126.4826,E,1,00,00010.328,M 
$GPGGA,223700.000,3101.5038,N,12126.4831,E,1,00,00010.328,M 
$GPGGA,223701.000,3101.5037,N,12126.4835,E,1,00,00010.328,M 
$GPGGA,223702.000,3101.5037,N,12126.4840,E,1,00,00010.328,M 
$GPGGA,223702.000,3101.5037,N,12126.4844,E,1,00,00010.328,M 
$GPGGA,223703.000,3101.5036,N,12126.4849,E,1,00,00010.328,M 
$GPGGA,223703.000,3101.5036,N,12126.4853,E,1,00,00010.328,M 
$GPGGA,223704.000,3101.5036,N,12126.4858,E,1,00,00010.328,M 
$GPGGA,223704.000,3101.5035,N,12126.4862,E,1,00,00010.328,M 
$GPGGA,223705.000,3101.5035,N,12126.4867,E,1,00,00010.328,M 
$GPGGA,223705.000,3101.5034,N,12126.4871,E,1,00,00010.328,M 
$GPGGA,223706.000,3101.5034,N,12126.4876,E,1,00,00010.328,M 
$GPGGA,223706.000,3101.5033,N,12126.4880,E,1,00,00010.328,M 
$GPGGA,223707.000,3101.5033,N,12126.4885,E,1,00,00010.329,M 
$GPGGA,223708.000,3101.5032,N,12126.4889,E,1,00,00010.329,M 
$GPGGA,223708.000,3101.5032,N,12126.4894,E,1,00,00010.329,M 
$GPGGA,223709.000,3101.5031,N,12126.4898,E,1,00,00010.329,M 
$GPGGA,223709.000,3101.5031,N,12126.4902,E,1,00,00010.329,M 
$GPGGA,223710.000,3101.5030,N,12126.4907,E,1,00,00010.329,M 
$GPGGA,223710.000,3101.5030,N,12126.4911,E,1,00,00010.329,M 
$GPGGA,223711.000,3101.5029,N,12126.4916,E,1,00,00010.329,M 
$GPGGA,223712.000,3101.5029,N,12126.4920,E,1,00,00010.329,M 
$GPGGA,223712.000,3101.5028,N,12126.4925,E,1,00,00010.329,M 
$GPGGA,223713.000,3101.5028,N,12126.4929,E,1,00,00010.329,M 
$GPGGA,223713.000,3101.5027,N,12126.4933,E,1,00,00010.329,M 
$GPGGA,223714.000,3101.5026,N,12126.4938,E,1,00,00010.329,M 
$GPGGA,223714.000,3101.5026,N,12126.4942,E,1,00,00010.329,M 
$GPGGA,223715.000,3101.5025,N,12126.4947,E,1,00,00010.329,M 
$GPGGA,223715.000,3101.5025,N,12126.4951,E,1,00,00010.329,M 
$GPGGA,223716.000,3101.5024,N,12126.4956,E,1,00,00010.329,M 
$GPGGA,223717.000,3101.5024,N,12126.4960,E,1,00,00010.329,M 
$GPGGA,223717.000,3101.5023,N,12126.4964,E,1,00,00010.329,M 
$GPGGA,223718.000,3101.5022,N,12126.4969,E,1,00,00010.329,M 
$GPGGA,223718.000,3101.5022,N,12126.4973,E,1,00,00010.329,M 
$GPGGA,223719.000,3101.5021,N,12126.4978,E,1,00,00010.329,M 
$GPGGA,223719.000,3101.5021,N,12126.4982,E,1,00,00010.329,M 
$GPGGA,223720.000,3101.5020,N,12126.4986,E,1,00,00010.330,M 
$GPGGA,223721.000,3101.5020,N,12126.4991,E,1,00,00010.330,M 
$GPGGA,223721.000,3101.5020,N,12126.4995,E,1,00,00010.330,M 
$GPGGA,223722.000,3101.5019,N,12126.5000,E,1,00,00010.330,M 
$GPGGA,223722.000,3101.5019,N,12126.5004,E,1,00,00010.330,M 
$GPGGA,223723.000,3101.5019,N,12126.5009,E,1,00,00010.330,M 
$GPGGA,223723.000,3101.5018,N,12126.5013,E,1,00,00010.330,M 
$GPGGA,223724.000,3101.5018,N,12126.5017,E,1,00,00010.330,M 
$GPGGA,223725.000,3101.5017,N,12126.5022,E,1,00,00010.330,M 
$GPGGA,223725.000,3101.5017,N,12126.5026,E,1,00,00010.330,M 
$GPGGA,223726.000,3101.5016,N,12126.5031,E,1,00,00010.330,M 
$GPGGA,223726.000,3101.5016,N,12126.5035,E,1,00,00010.330,M 
$GPGGA,223727.000,3101.5015,N,12126.5039,E,1,00,00010.330,M 
$GPGGA,223727.000,3101.5015,N,12126.5044,E,1,00,00010.330,M 
$GPGGA,223728.000,3101.5015,N,12126.5048,E,1,00,00010.330,M 
$GPGGA,223728.000,3101.5014,N,12126.5053,E,1,00,00010.330,M 
$GPGGA,223729.000,3101.5014,N,12126.5057,E,1,00,00010.330,M 
$GPGGA,223730.000,3101.5013,N,12126.5062,E,1,00,00010.330,M 
$GPGGA,223730.000,3101.5013,N,12126.5066,E,1,00,00010.330,M 
$GPGGA,223731.000,3101.5012,N,12126.5070,E,1,00,00010.330,M 
$GPGGA,223731.000,3101.5012,N,12126.5075,E,1,00,00010.330,M 
$GPGGA,223732.000,3101.5011,N,12126.5079,E,1,00,00010.330,M 
$GPGGA,223732.000,3101.5010,N,12126.5084,E,1,00,00010.331,M 
$GPGGA,223733.000,3101.5010,N,12126.5088,E,1,00,00010.331,M 
$GPGGA,223734.000,3101.5009,N,12126.5092,E,1,00,00010.331,M 
$GPGGA,223734.000,3101.5009,N,12126.5097,E,1,00,00010.331,M 
$GPGGA,223735.000,3101.5008,N,12126.5101,E,1,00,00010.331,M 
$GPGGA,223735.000,3101.5008,N,12126.5106,E,1,00,00010.331,M 
$GPGGA,223736.000,3101.5007,N,12126.5110,E,1,00,00010.331,M 
$GPGGA,223736.000,3101.5007,N,12126.5114,E,1,00,00010.331,M 
$GPGGA,223737.000,3101.5006,N,12126.5119,E,1,00,00010.331,M 
$GPGGA,223738.000,3101.5006,N,12126.5123,E,1,00,00010.331,M 
$GPGGA,223738.000,3101.5005,N,12126.5128,E,1,00,00010.331,M 
$GPGGA,223739.000,3101.5005,N,12126.5132,E,1,00,00010.331,M 
$GPGGA,223739.000,3101.5004,N,12126.5137,E,1,00,00010.331,M 
$GPGGA,223740.000,3101.5004,N,12126.5141,E,1,00,00010.331,M 
$GPGGA,223740.000,3101.5003,N,12126.5145,E,1,00,00010.331,M 
$GPGGA,223741.000,3101.5003,N,12126.5150,E,1,00,00010.331,M 
$GPGGA,223742.000,3101.5002,N,12126.5154,E,1,00,00010.331,M 
$GPGGA,223742.000,3101.5002,N,12126.5159,E,1,00,00010.331,M 
$GPGGA,223743.000,3101.5001,N,12126.5163,E,1,00,00010.331,M 
$GPGGA,223743.000,3101.5001,N,12126.5168,E,1,00,00010.331,M 
$GPGGA,223744.000,3101.5000,N,12126.5172,E,1,00,00010.331,M 
$GPGGA,223744.000,3101.5000,N,12126.5176,E,1,00,00010.331,M 
$GPGGA,223745.000,3101.4999,N,12126.5181,E,1,00,00010.332,M 
$GPGGA,223745.000,3101.4999,N,12126.5185,E,1,00,00010.332,M 
$GPGGA,223746.000,3101.4999,N,12126.5189,E,1,00,00010.332,M 
$GPGGA,223747.000,3101.4998,N,12126.5194,E,1,00,00010.332,M 
$GPGGA,223747.000,3101.4998,N,12126.5198,E,1,00,00010.332,M 
$GPGGA,223748.000,3101.4997,N,12126.5203,E,1,00,00010.332,M 
$GPGGA,223748.000,3101.4997,N,12126.5207,E,1,00,00010.332,M 
$GPGGA,223749.000,3101.4996,N,12126.5212,E,1,00,00010.332,M 
$GPGGA,223749.000,3101.4996,N,12126.5216,E,1,00,00010.332,M 
$GPGGA,223750.000,3101.4995,N,12126.5221,E,1,00,00010.332,M 
$GPGGA,223751.000,3101.4995,N,12126.5225,E,1,00,00010.332,M 
$GPGGA,223751.000,3101.4994,N,12126.5229,E,1,00,00010.332,M 
$GPGGA,223752.000,3101.4994,N,12126.5233,E,1,00,00010.332,M 
$GPGGA,223752.000,3101.4993,N,12126.5238,E,1,00,00010.332,M 
$GPGGA,223753.000,3101.4993,N,12126.5242,E,1,00,00010.332,M 
$GPGGA,223753.000,3101.4992,N,12126.5247,E,1,00,00010.332,M 
$GPGGA,223754.000,3101.4991,N,12126.5251,E,1,00,00010.332,M 
$GPGGA,223755.000,3101.4991,N,12126.5255,E,1,00,00010.332,M 
$GPGGA,223755.000,3101.4991,N,12126.5260,E,1,00,00010.332,M 
$GPGGA,223756.000,3101.4990,N,12126.5264,E,1,00,00010.332,M 
$GPGGA,223756.000,3101.4990,N,12126.5269,E,1,00,00010.332,M 
$GPGGA,223757.000,3101.4989,N,12126.5273,E,1,00,00010.333,M 
$GPGGA,223757.000,3101.4989,N,12126.5277,E,1,00,00010.333,M 
$GPGGA,223758.000,3101.4989,N,12126.5282,E,1,00,00010.333,M 
$GPGGA,223759.000,3101.4988,N,12126.5286,E,1,00,00010.333,M 
