$GPGGA,225635.000,3101.6781,N,12125.7522,E,1,00,00028.744,M 
$GPGGA,225636.000,3101.6780,N,12125.7518,E,1,00,00028.744,M 
$GPGGA,225636.000,3101.6779,N,12125.7513,E,1,00,00028.744,M 
$GPGGA,225638.000,3101.6778,N,12125.7509,E,1,00,00012.720,M 
$GPGGA,225638.000,3101.6777,N,12125.7505,E,1,00,00012.720,M 
$GPGGA,225639.000,3101.6776,N,12125.7500,E,1,00,00008.943,M 
$GPGGA,225639.000,3101.6775,N,12125.7496,E,1,00,00008.943,M 
$GPGGA,225640.000,3101.6774,N,12125.7491,E,1,00,00006.073,M 
$GPGGA,225640.000,3101.6773,N,12125.7487,E,1,00,00006.073,M 
$GPGGA,225640.000,3101.6772,N,12125.7483,E,1,00,00006.073,M 
$GPGGA,225642.000,3101.6770,N,12125.7478,E,1,00,-0000.518,M 
$GPGGA,225642.000,3101.6769,N,12125.7474,E,1,00,-0000.518,M 
$GPGGA,225643.000,3101.6768,N,12125.7470,E,1,00,00002.168,M 
$GPGGA,225643.000,3101.6767,N,12125.7465,E,1,00,00002.168,M 
$GPGGA,225644.000,3101.6766,N,12125.7461,E,1,00,00003.392,M 
$GPGGA,225644.000,3101.6765,N,12125.7456,E,1,00,00003.392,M 
$GPGGA,225645.000,3101.6764,N,12125.7452,E,1,00,00005.552,M 
$GPGGA,225645.000,3101.6763,N,12125.7448,E,1,00,00005.552,M 
$GPGGA,225646.000,3101.6762,N,12125.7443,E,1,00,00005.575,M 
$GPGGA,225647.000,3101.6761,N,12125.7439,E,1,00,00006.497,M 
$GPGGA,225647.000,3101.6760,N,12125.7435,E,1,00,00006.497,M 
$GPGGA,225648.000,3101.6759,N,12125.7430,E,1,00,00006.289,M 
$GPGGA,225648.000,3101.6758,N,12125.7426,E,1,00,00006.289,M 
$GPGGA,225648.000,3101.6757,N,12125.7422,E,1,00,00006.289,M 
$GPGGA,225648.000,3101.6756,N,12125.7417,E,1,00,00006.289,M 
$GPGGA,225649.000,3101.6755,N,12125.7413,E,1,00,00007.362,M 
$GPGGA,225649.000,3101.6754,N,12125.7409,E,1,00,00007.362,M 
$GPGGA,225651.000,3101.6753,N,12125.7404,E,1,00,00008.848,M 
$GPGGA,225651.000,3101.6752,N,12125.7400,E,1,00,00008.848,M 
$GPGGA,225651.000,3101.6751,N,12125.7395,E,1,00,00008.848,M 
$GPGGA,225653.000,3101.6750,N,12125.7391,E,1,00,00008.082,M 
$GPGGA,225653.000,3101.6749,N,12125.7387,E,1,00,00008.082,M 
$GPGGA,225654.000,3101.6748,N,12125.7382,E,1,00,00009.275,M 
$GPGGA,225654.000,3101.6747,N,12125.7378,E,1,00,00009.275,M 
$GPGGA,225654.000,3101.6746,N,12125.7373,E,1,00,00009.275,M 
$GPGGA,225654.000,3101.6745,N,12125.7369,E,1,00,00009.275,M 
$GPGGA,225656.000,3101.6744,N,12125.7365,E,1,00,00008.865,M 
$GPGGA,225657.000,3101.6743,N,12125.7361,E,1,00,00008.730,M 
$GPGGA,225657.000,3101.6742,N,12125.7357,E,1,00,00008.730,M 
$GPGGA,225658.000,3101.6741,N,12125.7352,E,1,00,00009.497,M 
$GPGGA,225658.000,3101.6740,N,12125.7348,E,1,00,00009.497,M 
$GPGGA,225659.000,3101.6739,N,12125.7344,E,1,00,00009.363,M 
$GPGGA,225659.000,3101.6738,N,12125.7340,E,1,00,00009.364,M 
$GPGGA,225700.000,3101.6737,N,12125.7335,E,1,00,00008.713,M 
$GPGGA,225701.000,3101.6736,N,12125.7331,E,1,00,00010.833,M 
$GPGGA,225701.000,3101.6735,N,12125.7327,E,1,00,00010.833,M 
$GPGGA,225702.000,3101.6734,N,12125.7322,E,1,00,00011.330,M 
$GPGGA,225702.000,3101.6734,N,12125.7318,E,1,00,00011.330,M 
$GPGGA,225703.000,3101.6733,N,12125.7313,E,1,00,00010.005,M 
$GPGGA,225703.000,3101.6732,N,12125.7309,E,1,00,00010.005,M 
$GPGGA,225704.000,3101.6730,N,12125.7305,E,1,00,00008.479,M 
$GPGGA,225704.000,3101.6729,N,12125.7300,E,1,00,00008.479,M 
$GPGGA,225705.000,3101.6728,N,12125.7296,E,1,00,00008.611,M 
$GPGGA,225706.000,3101.6727,N,12125.7292,E,1,00,00009.793,M 
$GPGGA,225706.000,3101.6726,N,12125.7288,E,1,00,00009.794,M 
$GPGGA,225707.000,3101.6725,N,12125.7283,E,1,00,00008.665,M 
$GPGGA,225707.000,3101.6725,N,12125.7279,E,1,00,00008.665,M 
$GPGGA,225708.000,3101.6724,N,12125.7274,E,1,00,00007.899,M 
$GPGGA,225708.000,3101.6723,N,12125.7270,E,1,00,00007.899,M 
$GPGGA,225709.000,3101.6722,N,12125.7266,E,1,00,00007.606,M 
$GPGGA,225710.000,3101.6721,N,12125.7261,E,1,00,00006.987,M 
$GPGGA,225710.000,3101.6720,N,12125.7257,E,1,00,00006.988,M 
$GPGGA,225711.000,3101.6719,N,12125.7253,E,1,00,00007.535,M 
$GPGGA,225711.000,3101.6719,N,12125.7248,E,1,00,00007.535,M 
$GPGGA,225712.000,3101.6718,N,12125.7244,E,1,00,00007.651,M 
$GPGGA,225712.000,3101.6717,N,12125.7239,E,1,00,00007.651,M 
$GPGGA,225713.000,3101.6716,N,12125.7235,E,1,00,00007.909,M 
$GPGGA,225713.000,3101.6715,N,12125.7230,E,1,00,00007.909,M 
$GPGGA,225714.000,3101.6714,N,12125.7226,E,1,00,00007.435,M 
$GPGGA,225715.000,3101.6713,N,12125.7222,E,1,00,00008.899,M 
$GPGGA,225715.000,3101.6712,N,12125.7217,E,1,00,00008.900,M 
$GPGGA,225716.000,3101.6711,N,12125.7213,E,1,00,00009.601,M 
$GPGGA,225716.000,3101.6710,N,12125.7208,E,1,00,00009.601,M 
$GPGGA,225717.000,3101.6709,N,12125.7204,E,1,00,00008.778,M 
$GPGGA,225717.000,3101.6708,N,12125.7199,E,1,00,00008.778,M 
$GPGGA,225718.000,3101.6707,N,12125.7195,E,1,00,00008.474,M 
$GPGGA,225718.000,3101.6706,N,12125.7191,E,1,00,00008.475,M 
$GPGGA,225719.000,3101.6705,N,12125.7186,E,1,00,00008.371,M 
$GPGGA,225719.000,3101.6704,N,12125.7182,E,1,00,00008.371,M 
$GPGGA,225720.000,3101.6703,N,12125.7177,E,1,00,00007.604,M 
$GPGGA,225721.000,3101.6702,N,12125.7173,E,1,00,00007.385,M 
$GPGGA,225721.000,3101.6701,N,12125.7169,E,1,00,00007.385,M 
$GPGGA,225722.000,3101.6700,N,12125.7164,E,1,00,00007.064,M 
$GPGGA,225722.000,3101.6699,N,12125.7160,E,1,00,00007.064,M 
$GPGGA,225723.000,3101.6698,N,12125.7156,E,1,00,00006.668,M 
$GPGGA,225723.000,3101.6697,N,12125.7151,E,1,00,00006.668,M 
$GPGGA,225724.000,3101.6696,N,12125.7147,E,1,00,00007.850,M 
$GPGGA,225724.000,3101.6695,N,12125.7143,E,1,00,00007.850,M 
$GPGGA,225725.000,3101.6694,N,12125.7138,E,1,00,00009.553,M 
$GPGGA,225726.000,3101.6693,N,12125.7134,E,1,00,00009.262,M 
$GPGGA,225726.000,3101.6692,N,12125.7130,E,1,00,00009.262,M 
$GPGGA,225727.000,3101.6691,N,12125.7125,E,1,00,00009.074,M 
$GPGGA,225727.000,3101.6690,N,12125.7121,E,1,00,00009.074,M 
$GPGGA,225728.000,3101.6689,N,12125.7116,E,1,00,00008.963,M 
$GPGGA,225728.000,3101.6688,N,12125.7112,E,1,00,00008.963,M 
$GPGGA,225729.000,3101.6687,N,12125.7108,E,1,00,00008.081,M 
$GPGGA,225729.000,3101.6686,N,12125.7103,E,1,00,00008.081,M 
$GPGGA,225730.000,3101.6685,N,12125.7099,E,1,00,00008.363,M 
$GPGGA,225731.000,3101.6684,N,12125.7095,E,1,00,00008.598,M 
$GPGGA,225731.000,3101.6683,N,12125.7090,E,1,00,00008.598,M 
$GPGGA,225732.000,3101.6682,N,12125.7086,E,1,00,00008.349,M 
$GPGGA,225732.000,3101.6681,N,12125.7081,E,1,00,00008.349,M 
$GPGGA,225733.000,3101.6680,N,12125.7077,E,1,00,00006.960,M 
$GPGGA,225733.000,3101.6679,N,12125.7073,E,1,00,00006.960,M 
$GPGGA,225734.000,3101.6678,N,12125.7068,E,1,00,00007.817,M 
$GPGGA,225734.000,3101.6677,N,12125.7064,E,1,00,00007.817,M 
$GPGGA,225735.000,3101.6676,N,12125.7060,E,1,00,00007.427,M 
$GPGGA,225736.000,3101.6675,N,12125.7055,E,1,00,00008.620,M 
$GPGGA,225736.000,3101.6674,N,12125.7051,E,1,00,00008.620,M 
$GPGGA,225737.000,3101.6673,N,12125.7046,E,1,00,00009.234,M 
$GPGGA,225737.000,3101.6672,N,12125.7042,E,1,00,00009.234,M 
$GPGGA,225738.000,3101.6671,N,12125.7037,E,1,00,00008.860,M 
$GPGGA,225738.000,3101.6670,N,12125.7033,E,1,00,00008.860,M 
$GPGGA,225739.000,3101.6669,N,12125.7029,E,1,00,00008.076,M 
$GPGGA,225739.000,3101.6668,N,12125.7024,E,1,00,00008.076,M 
$GPGGA,225740.000,3101.6667,N,12125.7020,E,1,00,00008.911,M 
$GPGGA,225740.000,3101.6666,N,12125.7015,E,1,00,00008.911,M 
$GPGGA,225741.000,3101.6665,N,12125.7011,E,1,00,00007.727,M 
$GPGGA,225742.000,3101.6664,N,12125.7007,E,1,00,00007.954,M 
$GPGGA,225742.000,3101.6663,N,12125.7002,E,1,00,00007.954,M 
$GPGGA,225743.000,3101.6662,N,12125.6998,E,1,00,00007.592,M 
$GPGGA,225743.000,3101.6661,N,12125.6994,E,1,00,00007.592,M 
$GPGGA,225744.000,3101.6659,N,12125.6989,E,1,00,00008.222,M 
$GPGGA,225744.000,3101.6658,N,12125.6985,E,1,00,00008.222,M 
$GPGGA,225745.000,3101.6657,N,12125.6980,E,1,00,00007.538,M 
$GPGGA,225745.000,3101.6656,N,12125.6976,E,1,00,00007.538,M 
$GPGGA,225746.000,3101.6655,N,12125.6972,E,1,00,00009.581,M 
$GPGGA,225746.000,3101.6654,N,12125.6967,E,1,00,00009.582,M 
$GPGGA,225747.000,3101.6653,N,12125.6963,E,1,00,00008.434,M 
$GPGGA,225748.000,3101.6652,N,12125.6958,E,1,00,00008.496,M 
$GPGGA,225748.000,3101.6651,N,12125.6954,E,1,00,00008.496,M 
$GPGGA,225749.000,3101.6650,N,12125.6949,E,1,00,00006.984,M 
$GPGGA,225749.000,3101.6649,N,12125.6945,E,1,00,00006.984,M 
$GPGGA,225750.000,3101.6648,N,12125.6941,E,1,00,00007.754,M 
$GPGGA,225750.000,3101.6647,N,12125.6936,E,1,00,00007.754,M 
$GPGGA,225751.000,3101.6646,N,12125.6932,E,1,00,00007.764,M 
$GPGGA,225751.000,3101.6645,N,12125.6927,E,1,00,00007.764,M 
$GPGGA,225752.000,3101.6644,N,12125.6923,E,1,00,00007.436,M 
$GPGGA,225752.000,3101.6643,N,12125.6918,E,1,00,00007.436,M 
$GPGGA,225753.000,3101.6642,N,12125.6914,E,1,00,00007.565,M 
$GPGGA,225754.000,3101.6641,N,12125.6910,E,1,00,00007.243,M 
$GPGGA,225754.000,3101.6640,N,12125.6905,E,1,00,00007.243,M 
$GPGGA,225755.000,3101.6638,N,12125.6901,E,1,00,00007.819,M 
$GPGGA,225755.000,3101.6637,N,12125.6897,E,1,00,00007.819,M 
$GPGGA,225756.000,3101.6636,N,12125.6892,E,1,00,00007.132,M 
$GPGGA,225756.000,3101.6635,N,12125.6888,E,1,00,00007.132,M 
$GPGGA,225757.000,3101.6634,N,12125.6883,E,1,00,00007.374,M 
$GPGGA,225757.000,3101.6633,N,12125.6879,E,1,00,00007.374,M 
$GPGGA,225758.000,3101.6631,N,12125.6875,E,1,00,00007.225,M 
$GPGGA,225758.000,3101.6630,N,12125.6870,E,1,00,00007.225,M 
$GPGGA,225759.000,3101.6629,N,12125.6866,E,1,00,00008.236,M 
$GPGGA,225800.000,3101.6628,N,12125.6862,E,1,00,00007.949,M 
$GPGGA,225800.000,3101.6627,N,12125.6858,E,1,00,00007.949,M 
$GPGGA,225801.000,3101.6626,N,12125.6853,E,1,00,00007.458,M 
$GPGGA,225801.000,3101.6624,N,12125.6849,E,1,00,00007.458,M 
$GPGGA,225802.000,3101.6623,N,12125.6844,E,1,00,00007.588,M 
$GPGGA,225802.000,3101.6622,N,12125.6840,E,1,00,00007.588,M 
$GPGGA,225803.000,3101.6621,N,12125.6836,E,1,00,00007.637,M 
$GPGGA,225803.000,3101.6619,N,12125.6832,E,1,00,00007.637,M 
$GPGGA,225804.000,3101.6618,N,12125.6827,E,1,00,00007.456,M 
$GPGGA,225805.000,3101.6617,N,12125.6823,E,1,00,00007.550,M 
$GPGGA,225805.000,3101.6615,N,12125.6819,E,1,00,00007.551,M 
$GPGGA,225806.000,3101.6614,N,12125.6815,E,1,00,00006.814,M 
$GPGGA,225806.000,3101.6613,N,12125.6810,E,1,00,00006.814,M 
$GPGGA,225807.000,3101.6612,N,12125.6806,E,1,00,00006.307,M 
$GPGGA,225807.000,3101.6610,N,12125.6802,E,1,00,00006.307,M 
$GPGGA,225808.000,3101.6609,N,12125.6798,E,1,00,00007.515,M 
$GPGGA,225809.000,3101.6608,N,12125.6794,E,1,00,00007.276,M 
$GPGGA,225809.000,3101.6607,N,12125.6790,E,1,00,00007.276,M 
$GPGGA,225810.000,3101.6606,N,12125.6785,E,1,00,00008.192,M 
$GPGGA,225810.000,3101.6604,N,12125.6781,E,1,00,00008.192,M 
$GPGGA,225811.000,3101.6603,N,12125.6777,E,1,00,00008.575,M 
$GPGGA,225811.000,3101.6602,N,12125.6773,E,1,00,00008.575,M 
$GPGGA,225812.000,3101.6601,N,12125.6768,E,1,00,00008.735,M 
$GPGGA,225812.000,3101.6600,N,12125.6764,E,1,00,00008.735,M 
$GPGGA,225813.000,3101.6599,N,12125.6760,E,1,00,00008.685,M 
$GPGGA,225814.000,3101.6599,N,12125.6759,E,1,00,00008.043,M 
$GPGGA,225821.000,3101.6597,N,12125.6754,E,1,00,00006.300,M 
$GPGGA,225822.000,3101.6596,N,12125.6750,E,1,00,00006.057,M 
$GPGGA,225822.000,3101.6595,N,12125.6745,E,1,00,00006.057,M 
$GPGGA,225823.000,3101.6594,N,12125.6741,E,1,00,00006.566,M 
$GPGGA,225823.000,3101.6593,N,12125.6737,E,1,00,00006.566,M 
$GPGGA,225824.000,3101.6591,N,12125.6732,E,1,00,00007.952,M 
$GPGGA,225824.000,3101.6590,N,12125.6728,E,1,00,00007.952,M 
$GPGGA,225825.000,3101.6589,N,12125.6724,E,1,00,00006.787,M 
$GPGGA,225826.000,3101.6588,N,12125.6719,E,1,00,00008.353,M 
$GPGGA,225826.000,3101.6587,N,12125.6715,E,1,00,00008.353,M 
$GPGGA,225827.000,3101.6586,N,12125.6710,E,1,00,00006.722,M 
$GPGGA,225827.000,3101.6585,N,12125.6706,E,1,00,00006.722,M 
$GPGGA,225828.000,3101.6584,N,12125.6701,E,1,00,00004.493,M 
$GPGGA,225828.000,3101.6582,N,12125.6697,E,1,00,00004.493,M 
$GPGGA,225829.000,3101.6581,N,12125.6693,E,1,00,00006.603,M 
$GPGGA,225829.000,3101.6580,N,12125.6688,E,1,00,00006.603,M 
$GPGGA,225830.000,3101.6579,N,12125.6684,E,1,00,00008.354,M 
$GPGGA,225830.000,3101.6578,N,12125.6680,E,1,00,00008.355,M 
$GPGGA,225831.000,3101.6577,N,12125.6675,E,1,00,00010.388,M 
$GPGGA,225832.000,3101.6576,N,12125.6671,E,1,00,00012.251,M 
$GPGGA,225832.000,3101.6575,N,12125.6667,E,1,00,00012.251,M 
$GPGGA,225833.000,3101.6573,N,12125.6662,E,1,00,00014.775,M 
$GPGGA,225833.000,3101.6572,N,12125.6658,E,1,00,00014.775,M 
$GPGGA,225834.000,3101.6571,N,12125.6654,E,1,00,00016.270,M 
$GPGGA,225834.000,3101.6570,N,12125.6649,E,1,00,00016.270,M 
$GPGGA,225835.000,3101.6568,N,12125.6645,E,1,00,00015.379,M 
$GPGGA,225835.000,3101.6567,N,12125.6641,E,1,00,00015.379,M 
$GPGGA,225836.000,3101.6566,N,12125.6636,E,1,00,00015.975,M 
$GPGGA,225836.000,3101.6564,N,12125.6632,E,1,00,00015.975,M 
$GPGGA,225837.000,3101.6563,N,12125.6628,E,1,00,00014.720,M 
$GPGGA,225838.000,3101.6562,N,12125.6623,E,1,00,00014.915,M 
$GPGGA,225838.000,3101.6560,N,12125.6619,E,1,00,00014.915,M 
$GPGGA,225839.000,3101.6559,N,12125.6614,E,1,00,00015.643,M 
$GPGGA,225839.000,3101.6558,N,12125.6610,E,1,00,00015.643,M 
$GPGGA,225840.000,3101.6557,N,12125.6606,E,1,00,00016.574,M 
$GPGGA,225840.000,3101.6556,N,12125.6601,E,1,00,00016.574,M 
$GPGGA,225841.000,3101.6554,N,12125.6597,E,1,00,00017.566,M 
$GPGGA,225841.000,3101.6553,N,12125.6592,E,1,00,00017.566,M 
$GPGGA,225842.000,3101.6552,N,12125.6588,E,1,00,00018.503,M 
$GPGGA,225842.000,3101.6551,N,12125.6584,E,1,00,00018.503,M 
$GPGGA,225843.000,3101.6550,N,12125.6579,E,1,00,00019.598,M 
$GPGGA,225844.000,3101.6549,N,12125.6575,E,1,00,00020.743,M 
$GPGGA,225844.000,3101.6548,N,12125.6570,E,1,00,00020.743,M 
$GPGGA,225845.000,3101.6547,N,12125.6566,E,1,00,00021.938,M 
$GPGGA,225845.000,3101.6546,N,12125.6561,E,1,00,00021.938,M 
$GPGGA,225846.000,3101.6545,N,12125.6557,E,1,00,00023.182,M 
$GPGGA,225846.000,3101.6544,N,12125.6552,E,1,00,00023.182,M 
$GPGGA,225847.000,3101.6543,N,12125.6548,E,1,00,00024.475,M 
$GPGGA,225847.000,3101.6542,N,12125.6544,E,1,00,00024.475,M 
$GPGGA,225848.000,3101.6541,N,12125.6539,E,1,00,00025.819,M 
$GPGGA,225848.000,3101.6541,N,12125.6535,E,1,00,00025.819,M 
$GPGGA,225849.000,3101.6540,N,12125.6530,E,1,00,00026.976,M 
$GPGGA,225849.000,3101.6539,N,12125.6526,E,1,00,00026.976,M 
$GPGGA,225850.000,3101.6538,N,12125.6522,E,1,00,00027.974,M 
$GPGGA,225851.000,3101.6538,N,12125.6520,E,1,00,00029.091,M 
$GPGGA,225853.000,3101.6537,N,12125.6516,E,1,00,00017.845,M 
$GPGGA,225854.000,3101.6536,N,12125.6511,E,1,00,00012.229,M 
$GPGGA,225854.000,3101.6535,N,12125.6507,E,1,00,00012.229,M 
$GPGGA,225855.000,3101.6534,N,12125.6502,E,1,00,00008.764,M 
$GPGGA,225855.000,3101.6533,N,12125.6498,E,1,00,00008.764,M 
$GPGGA,225856.000,3101.6532,N,12125.6493,E,1,00,00007.888,M 
$GPGGA,225856.000,3101.6532,N,12125.6488,E,1,00,00007.888,M 
$GPGGA,225857.000,3101.6531,N,12125.6484,E,1,00,00006.718,M 
$GPGGA,225857.000,3101.6530,N,12125.6479,E,1,00,00006.718,M 
$GPGGA,225858.000,3101.6529,N,12125.6475,E,1,00,00013.266,M 
$GPGGA,225858.000,3101.6528,N,12125.6470,E,1,00,00013.266,M 
$GPGGA,225859.000,3101.6527,N,12125.6466,E,1,00,00012.022,M 
$GPGGA,225859.000,3101.6526,N,12125.6461,E,1,00,00012.023,M 
$GPGGA,225900.000,3101.6525,N,12125.6457,E,1,00,00010.363,M 
$GPGGA,225900.000,3101.6524,N,12125.6452,E,1,00,00010.363,M 
$GPGGA,225901.000,3101.6523,N,12125.6448,E,1,00,00010.525,M 
$GPGGA,225902.000,3101.6523,N,12125.6443,E,1,00,00009.024,M 
$GPGGA,225902.000,3101.6522,N,12125.6439,E,1,00,00009.024,M 
$GPGGA,225903.000,3101.6521,N,12125.6434,E,1,00,00008.917,M 
$GPGGA,225903.000,3101.6520,N,12125.6430,E,1,00,00008.917,M 
$GPGGA,225904.000,3101.6519,N,12125.6425,E,1,00,00007.916,M 
$GPGGA,225904.000,3101.6518,N,12125.6421,E,1,00,00007.916,M 
$GPGGA,225905.000,3101.6517,N,12125.6417,E,1,00,00009.520,M 
$GPGGA,225905.000,3101.6517,N,12125.6412,E,1,00,00009.520,M 
$GPGGA,225906.000,3101.6516,N,12125.6408,E,1,00,00010.150,M 
$GPGGA,225906.000,3101.6515,N,12125.6403,E,1,00,00010.150,M 
$GPGGA,225907.000,3101.6514,N,12125.6399,E,1,00,00010.352,M 
$GPGGA,225908.000,3101.6513,N,12125.6394,E,1,00,00009.365,M 
$GPGGA,225908.000,3101.6512,N,12125.6390,E,1,00,00009.365,M 
$GPGGA,225909.000,3101.6511,N,12125.6385,E,1,00,00010.455,M 
$GPGGA,225909.000,3101.6511,N,12125.6381,E,1,00,00010.455,M 
$GPGGA,225910.000,3101.6510,N,12125.6376,E,1,00,00010.402,M 
$GPGGA,225910.000,3101.6509,N,12125.6372,E,1,00,00010.402,M 
$GPGGA,225911.000,3101.6508,N,12125.6367,E,1,00,00009.756,M 
$GPGGA,225911.000,3101.6507,N,12125.6363,E,1,00,00009.756,M 
$GPGGA,225912.000,3101.6506,N,12125.6359,E,1,00,00009.765,M 
$GPGGA,225912.000,3101.6505,N,12125.6354,E,1,00,00009.766,M 
$GPGGA,225913.000,3101.6504,N,12125.6350,E,1,00,00008.626,M 
$GPGGA,225914.000,3101.6504,N,12125.6345,E,1,00,00009.412,M 
$GPGGA,225914.000,3101.6503,N,12125.6341,E,1,00,00009.412,M 
$GPGGA,225915.000,3101.6502,N,12125.6337,E,1,00,00008.662,M 
$GPGGA,225915.000,3101.6501,N,12125.6332,E,1,00,00008.662,M 
$GPGGA,225916.000,3101.6501,N,12125.6328,E,1,00,00009.220,M 
$GPGGA,225916.000,3101.6500,N,12125.6323,E,1,00,00009.220,M 
$GPGGA,225917.000,3101.6499,N,12125.6319,E,1,00,00008.857,M 
$GPGGA,225917.000,3101.6498,N,12125.6314,E,1,00,00008.857,M 
$GPGGA,225918.000,3101.6497,N,12125.6310,E,1,00,00008.180,M 
$GPGGA,225919.000,3101.6496,N,12125.6305,E,1,00,00009.277,M 
$GPGGA,225919.000,3101.6496,N,12125.6301,E,1,00,00009.277,M 
$GPGGA,225920.000,3101.6495,N,12125.6296,E,1,00,00009.729,M 
$GPGGA,225920.000,3101.6494,N,12125.6292,E,1,00,00009.729,M 
$GPGGA,225921.000,3101.6493,N,12125.6288,E,1,00,00008.232,M 
$GPGGA,225921.000,3101.6493,N,12125.6283,E,1,00,00008.232,M 
$GPGGA,225922.000,3101.6492,N,12125.6279,E,1,00,00008.692,M 
$GPGGA,225922.000,3101.6491,N,12125.6274,E,1,00,00008.692,M 
$GPGGA,225923.000,3101.6490,N,12125.6270,E,1,00,00008.404,M 
$GPGGA,225924.000,3101.6490,N,12125.6265,E,1,00,00008.262,M 
$GPGGA,225924.000,3101.6489,N,12125.6261,E,1,00,00008.262,M 
$GPGGA,225925.000,3101.6488,N,12125.6256,E,1,00,00007.356,M 
$GPGGA,225925.000,3101.6487,N,12125.6252,E,1,00,00007.356,M 
$GPGGA,225926.000,3101.6486,N,12125.6248,E,1,00,00007.122,M 
$GPGGA,225926.000,3101.6485,N,12125.6243,E,1,00,00007.122,M 
$GPGGA,225927.000,3101.6484,N,12125.6239,E,1,00,00006.510,M 
$GPGGA,225927.000,3101.6484,N,12125.6234,E,1,00,00006.510,M 
$GPGGA,225928.000,3101.6483,N,12125.6230,E,1,00,00007.440,M 
$GPGGA,225928.000,3101.6482,N,12125.6225,E,1,00,00007.440,M 
$GPGGA,225929.000,3101.6481,N,12125.6221,E,1,00,00007.387,M 
$GPGGA,225930.000,3101.6480,N,12125.6217,E,1,00,00006.283,M 
$GPGGA,225930.000,3101.6479,N,12125.6212,E,1,00,00006.283,M 
$GPGGA,225931.000,3101.6478,N,12125.6208,E,1,00,00006.389,M 
$GPGGA,225931.000,3101.6478,N,12125.6203,E,1,00,00006.389,M 
$GPGGA,225932.000,3101.6477,N,12125.6199,E,1,00,00006.328,M 
$GPGGA,225932.000,3101.6476,N,12125.6195,E,1,00,00006.328,M 
$GPGGA,225933.000,3101.6476,N,12125.6190,E,1,00,00005.943,M 
$GPGGA,225934.000,3101.6475,N,12125.6186,E,1,00,00007.135,M 
$GPGGA,225934.000,3101.6474,N,12125.6182,E,1,00,00007.135,M 
$GPGGA,225935.000,3101.6473,N,12125.6177,E,1,00,00006.493,M 
$GPGGA,225935.000,3101.6473,N,12125.6173,E,1,00,00006.493,M 
$GPGGA,225936.000,3101.6472,N,12125.6168,E,1,00,00006.427,M 
$GPGGA,225936.000,3101.6471,N,12125.6164,E,1,00,00006.427,M 
$GPGGA,225937.000,3101.6470,N,12125.6159,E,1,00,00008.220,M 
$GPGGA,225937.000,3101.6469,N,12125.6155,E,1,00,00008.220,M 
$GPGGA,225938.000,3101.6469,N,12125.6151,E,1,00,00007.495,M 
$GPGGA,225939.000,3101.6468,N,12125.6146,E,1,00,00009.209,M 
$GPGGA,225939.000,3101.6467,N,12125.6142,E,1,00,00009.209,M 
$GPGGA,225940.000,3101.6467,N,12125.6137,E,1,00,00008.483,M 
$GPGGA,225940.000,3101.6466,N,12125.6133,E,1,00,00008.483,M 
$GPGGA,225941.000,3101.6465,N,12125.6128,E,1,00,00008.765,M 
$GPGGA,225941.000,3101.6464,N,12125.6124,E,1,00,00008.765,M 
$GPGGA,225942.000,3101.6463,N,12125.6119,E,1,00,00007.672,M 
$GPGGA,225942.000,3101.6462,N,12125.6115,E,1,00,00007.672,M 
$GPGGA,225943.000,3101.6462,N,12125.6111,E,1,00,00009.744,M 
$GPGGA,225943.000,3101.6461,N,12125.6106,E,1,00,00009.744,M 
$GPGGA,225944.000,3101.6460,N,12125.6102,E,1,00,00010.154,M 
$GPGGA,225945.000,3101.6459,N,12125.6097,E,1,00,00008.819,M 
$GPGGA,225945.000,3101.6458,N,12125.6093,E,1,00,00008.819,M 
$GPGGA,225946.000,3101.6457,N,12125.6088,E,1,00,00009.251,M 
$GPGGA,225946.000,3101.6456,N,12125.6084,E,1,00,00009.251,M 
$GPGGA,225947.000,3101.6456,N,12125.6080,E,1,00,00008.341,M 
$GPGGA,225947.000,3101.6455,N,12125.6075,E,1,00,00008.341,M 
$GPGGA,225948.000,3101.6454,N,12125.6071,E,1,00,00009.421,M 
$GPGGA,225948.000,3101.6453,N,12125.6067,E,1,00,00009.422,M 
$GPGGA,225949.000,3101.6452,N,12125.6062,E,1,00,00009.224,M 
$GPGGA,225950.000,3101.6452,N,12125.6058,E,1,00,00008.446,M 
$GPGGA,225950.000,3101.6451,N,12125.6053,E,1,00,00008.446,M 
$GPGGA,225951.000,3101.6450,N,12125.6049,E,1,00,00009.285,M 
$GPGGA,225951.000,3101.6449,N,12125.6044,E,1,00,00009.285,M 
$GPGGA,225952.000,3101.6448,N,12125.6040,E,1,00,00009.589,M 
$GPGGA,225952.000,3101.6447,N,12125.6036,E,1,00,00009.589,M 
$GPGGA,225953.000,3101.6447,N,12125.6032,E,1,00,00010.949,M 
$GPGGA,225954.000,3101.6446,N,12125.6028,E,1,00,00010.309,M 
$GPGGA,225954.000,3101.6446,N,12125.6026,E,1,00,00010.309,M 
$GPGGA,225958.000,3101.6445,N,12125.6022,E,1,00,00012.342,M 
$GPGGA,225959.000,3101.6445,N,12125.6021,E,1,00,00012.577,M 
$GPGGA,230004.000,3101.6449,N,12125.6020,E,1,00,00012.462,M 
$GPGGA,230004.000,3101.6452,N,12125.6019,E,1,00,00012.462,M 
$GPGGA,230005.000,3101.6456,N,12125.6018,E,1,00,00014.392,M 
$GPGGA,230005.000,3101.6460,N,12125.6017,E,1,00,00014.392,M 
$GPGGA,230006.000,3101.6464,N,12125.6016,E,1,00,00014.695,M 
$GPGGA,230007.000,3101.6468,N,12125.6016,E,1,00,00015.810,M 
$GPGGA,230007.000,3101.6472,N,12125.6015,E,1,00,00015.810,M 
$GPGGA,230008.000,3101.6476,N,12125.6014,E,1,00,00015.624,M 
$GPGGA,230008.000,3101.6480,N,12125.6013,E,1,00,00015.624,M 
$GPGGA,230009.000,3101.6484,N,12125.6013,E,1,00,00016.639,M 
$GPGGA,230009.000,3101.6488,N,12125.6012,E,1,00,00016.639,M 
$GPGGA,230010.000,3101.6491,N,12125.6011,E,1,00,00017.381,M 
$GPGGA,230010.000,3101.6495,N,12125.6011,E,1,00,00017.381,M 
$GPGGA,230011.000,3101.6499,N,12125.6010,E,1,00,00016.874,M 
$GPGGA,230011.000,3101.6503,N,12125.6009,E,1,00,00016.875,M 
$GPGGA,230012.000,3101.6507,N,12125.6008,E,1,00,00018.460,M 
$GPGGA,230012.000,3101.6511,N,12125.6007,E,1,00,00018.460,M 
$GPGGA,230013.000,3101.6515,N,12125.6007,E,1,00,00016.299,M 
$GPGGA,230014.000,3101.6519,N,12125.6006,E,1,00,00015.804,M 
$GPGGA,230014.000,3101.6523,N,12125.6006,E,1,00,00015.804,M 
$GPGGA,230015.000,3101.6527,N,12125.6005,E,1,00,00014.410,M 
$GPGGA,230015.000,3101.6531,N,12125.6004,E,1,00,00014.410,M 
$GPGGA,230016.000,3101.6535,N,12125.6004,E,1,00,00014.350,M 
$GPGGA,230016.000,3101.6538,N,12125.6003,E,1,00,00014.350,M 
$GPGGA,230017.000,3101.6542,N,12125.6002,E,1,00,00013.165,M 
$GPGGA,230017.000,3101.6546,N,12125.6001,E,1,00,00013.165,M 
$GPGGA,230018.000,3101.6550,N,12125.6001,E,1,00,00014.457,M 
$GPGGA,230018.000,3101.6554,N,12125.6000,E,1,00,00014.457,M 
$GPGGA,230019.000,3101.6558,N,12125.5999,E,1,00,00014.832,M 
$GPGGA,230020.000,3101.6562,N,12125.5999,E,1,00,00012.645,M 
$GPGGA,230020.000,3101.6566,N,12125.5998,E,1,00,00012.645,M 
$GPGGA,230021.000,3101.6569,N,12125.5997,E,1,00,00010.836,M 
$GPGGA,230021.000,3101.6573,N,12125.5997,E,1,00,00010.836,M 
$GPGGA,230022.000,3101.6577,N,12125.5996,E,1,00,00009.851,M 
$GPGGA,230022.000,3101.6581,N,12125.5995,E,1,00,00009.851,M 
$GPGGA,230023.000,3101.6585,N,12125.5995,E,1,00,00010.518,M 
$GPGGA,230023.000,3101.6589,N,12125.5994,E,1,00,00010.518,M 
$GPGGA,230024.000,3101.6593,N,12125.5993,E,1,00,00008.603,M 
$GPGGA,230024.000,3101.6597,N,12125.5993,E,1,00,00008.603,M 
$GPGGA,230025.000,3101.6601,N,12125.5992,E,1,00,00009.283,M 
$GPGGA,230026.000,3101.6605,N,12125.5991,E,1,00,00009.040,M 
$GPGGA,230026.000,3101.6609,N,12125.5991,E,1,00,00009.040,M 
$GPGGA,230027.000,3101.6613,N,12125.5990,E,1,00,00011.227,M 
$GPGGA,230027.000,3101.6617,N,12125.5989,E,1,00,00011.227,M 
$GPGGA,230028.000,3101.6621,N,12125.5989,E,1,00,00011.728,M 
$GPGGA,230028.000,3101.6625,N,12125.5988,E,1,00,00011.728,M 
$GPGGA,230029.000,3101.6628,N,12125.5987,E,1,00,00012.872,M 
$GPGGA,230029.000,3101.6632,N,12125.5986,E,1,00,00012.872,M 
$GPGGA,230030.000,3101.6636,N,12125.5986,E,1,00,00011.084,M 
$GPGGA,230030.000,3101.6640,N,12125.5985,E,1,00,00011.085,M 
$GPGGA,230031.000,3101.6644,N,12125.5984,E,1,00,00010.467,M 
$GPGGA,230031.000,3101.6648,N,12125.5983,E,1,00,00010.467,M 
$GPGGA,230032.000,3101.6652,N,12125.5983,E,1,00,00009.503,M 
$GPGGA,230033.000,3101.6656,N,12125.5982,E,1,00,00009.039,M 
$GPGGA,230033.000,3101.6660,N,12125.5981,E,1,00,00009.039,M 
$GPGGA,230034.000,3101.6664,N,12125.5981,E,1,00,00010.038,M 
$GPGGA,230034.000,3101.6668,N,12125.5980,E,1,00,00010.038,M 
$GPGGA,230035.000,3101.6672,N,12125.5979,E,1,00,00010.089,M 
$GPGGA,230035.000,3101.6675,N,12125.5979,E,1,00,00010.089,M 
$GPGGA,230036.000,3101.6679,N,12125.5978,E,1,00,00010.550,M 
$GPGGA,230036.000,3101.6683,N,12125.5977,E,1,00,00010.551,M 
$GPGGA,230037.000,3101.6687,N,12125.5976,E,1,00,00009.654,M 
$GPGGA,230037.000,3101.6691,N,12125.5975,E,1,00,00009.654,M 
$GPGGA,230038.000,3101.6695,N,12125.5974,E,1,00,00009.893,M 
$GPGGA,230038.000,3101.6699,N,12125.5973,E,1,00,00009.893,M 
$GPGGA,230039.000,3101.6703,N,12125.5972,E,1,00,00009.033,M 
$GPGGA,230040.000,3101.6707,N,12125.5971,E,1,00,00009.255,M 
$GPGGA,230040.000,3101.6711,N,12125.5970,E,1,00,00009.255,M 
$GPGGA,230041.000,3101.6715,N,12125.5969,E,1,00,00009.373,M 
$GPGGA,230041.000,3101.6718,N,12125.5968,E,1,00,00009.374,M 
$GPGGA,230042.000,3101.6722,N,12125.5967,E,1,00,00008.703,M 
$GPGGA,230042.000,3101.6726,N,12125.5966,E,1,00,00008.703,M 
$GPGGA,230043.000,3101.6730,N,12125.5965,E,1,00,00007.801,M 
$GPGGA,230043.000,3101.6734,N,12125.5964,E,1,00,00007.801,M 
$GPGGA,230044.000,3101.6738,N,12125.5963,E,1,00,00006.855,M 
$GPGGA,230044.000,3101.6742,N,12125.5962,E,1,00,00006.855,M 
$GPGGA,230045.000,3101.6746,N,12125.5961,E,1,00,00005.795,M 
$GPGGA,230045.000,3101.6749,N,12125.5961,E,1,00,00005.795,M 
$GPGGA,230046.000,3101.6753,N,12125.5960,E,1,00,00006.873,M 
$GPGGA,230047.000,3101.6757,N,12125.5959,E,1,00,00006.395,M 
$GPGGA,230047.000,3101.6761,N,12125.5958,E,1,00,00006.395,M 
$GPGGA,230048.000,3101.6765,N,12125.5957,E,1,00,00007.770,M 
$GPGGA,230048.000,3101.6769,N,12125.5956,E,1,00,00007.770,M 
$GPGGA,230049.000,3101.6773,N,12125.5956,E,1,00,00008.078,M 
$GPGGA,230049.000,3101.6777,N,12125.5955,E,1,00,00008.078,M 
$GPGGA,230050.000,3101.6781,N,12125.5954,E,1,00,00007.296,M 
$GPGGA,230050.000,3101.6785,N,12125.5953,E,1,00,00007.296,M 
$GPGGA,230051.000,3101.6789,N,12125.5953,E,1,00,00009.203,M 
$GPGGA,230051.000,3101.6793,N,12125.5952,E,1,00,00009.203,M 
$GPGGA,230052.000,3101.6796,N,12125.5951,E,1,00,00008.958,M 
$GPGGA,230053.000,3101.6800,N,12125.5951,E,1,00,00009.096,M 
$GPGGA,230053.000,3101.6804,N,12125.5950,E,1,00,00009.096,M 
$GPGGA,230054.000,3101.6808,N,12125.5950,E,1,00,00008.149,M 
$GPGGA,230054.000,3101.6812,N,12125.5949,E,1,00,00008.149,M 
$GPGGA,230055.000,3101.6816,N,12125.5948,E,1,00,00008.219,M 
$GPGGA,230055.000,3101.6820,N,12125.5948,E,1,00,00008.219,M 
$GPGGA,230056.000,3101.6824,N,12125.5947,E,1,00,00007.823,M 
$GPGGA,230056.000,3101.6828,N,12125.5947,E,1,00,00007.823,M 
$GPGGA,230057.000,3101.6832,N,12125.5946,E,1,00,00006.884,M 
$GPGGA,230057.000,3101.6836,N,12125.5945,E,1,00,00006.884,M 
$GPGGA,230058.000,3101.6840,N,12125.5945,E,1,00,00007.795,M 
$GPGGA,230058.000,3101.6844,N,12125.5944,E,1,00,00007.795,M 
$GPGGA,230059.000,3101.6847,N,12125.5944,E,1,00,00008.286,M 
$GPGGA,230100.000,3101.6851,N,12125.5943,E,1,00,00008.829,M 
$GPGGA,230100.000,3101.6855,N,12125.5942,E,1,00,00008.829,M 
$GPGGA,230101.000,3101.6859,N,12125.5941,E,1,00,00009.158,M 
$GPGGA,230101.000,3101.6863,N,12125.5941,E,1,00,00009.158,M 
$GPGGA,230102.000,3101.6867,N,12125.5940,E,1,00,00010.827,M 
$GPGGA,230102.000,3101.6871,N,12125.5939,E,1,00,00010.827,M 
$GPGGA,230103.000,3101.6875,N,12125.5938,E,1,00,00010.182,M 
$GPGGA,230103.000,3101.6879,N,12125.5937,E,1,00,00010.182,M 
$GPGGA,230104.000,3101.6883,N,12125.5936,E,1,00,00010.636,M 
$GPGGA,230104.000,3101.6887,N,12125.5935,E,1,00,00010.636,M 
$GPGGA,230105.000,3101.6891,N,12125.5934,E,1,00,00011.388,M 
$GPGGA,230105.000,3101.6895,N,12125.5934,E,1,00,00011.389,M 
$GPGGA,230106.000,3101.6899,N,12125.5933,E,1,00,00011.171,M 
$GPGGA,230106.000,3101.6903,N,12125.5932,E,1,00,00011.171,M 
$GPGGA,230107.000,3101.6907,N,12125.5931,E,1,00,00010.068,M 
$GPGGA,230108.000,3101.6911,N,12125.5931,E,1,00,00009.662,M 
$GPGGA,230108.000,3101.6915,N,12125.5930,E,1,00,00009.662,M 
$GPGGA,230109.000,3101.6919,N,12125.5929,E,1,00,00008.836,M 
$GPGGA,230109.000,3101.6923,N,12125.5928,E,1,00,00008.836,M 
$GPGGA,230110.000,3101.6927,N,12125.5928,E,1,00,00010.821,M 
$GPGGA,230110.000,3101.6931,N,12125.5927,E,1,00,00010.821,M 
$GPGGA,230111.000,3101.6935,N,12125.5926,E,1,00,00010.817,M 
$GPGGA,230111.000,3101.6939,N,12125.5925,E,1,00,00010.817,M 
$GPGGA,230112.000,3101.6943,N,12125.5925,E,1,00,00012.197,M 
$GPGGA,230112.000,3101.6947,N,12125.5924,E,1,00,00012.197,M 
$GPGGA,230113.000,3101.6951,N,12125.5923,E,1,00,00010.266,M 
$GPGGA,230113.000,3101.6955,N,12125.5922,E,1,00,00010.266,M 
$GPGGA,230114.000,3101.6959,N,12125.5921,E,1,00,00010.125,M 
$GPGGA,230114.000,3101.6963,N,12125.5920,E,1,00,00010.125,M 
$GPGGA,230115.000,3101.6967,N,12125.5920,E,1,00,00011.832,M 
$GPGGA,230115.000,3101.6971,N,12125.5919,E,1,00,00011.833,M 
$GPGGA,230116.000,3101.6975,N,12125.5918,E,1,00,00010.388,M 
$GPGGA,230116.000,3101.6979,N,12125.5917,E,1,00,00010.388,M 
$GPGGA,230117.000,3101.6983,N,12125.5917,E,1,00,00011.107,M 
$GPGGA,230118.000,3101.6987,N,12125.5916,E,1,00,00012.094,M 
$GPGGA,230118.000,3101.6991,N,12125.5915,E,1,00,00012.094,M 
$GPGGA,230119.000,3101.6995,N,12125.5915,E,1,00,00012.921,M 
$GPGGA,230119.000,3101.6999,N,12125.5914,E,1,00,00012.921,M 
$GPGGA,230120.000,3101.7003,N,12125.5913,E,1,00,00014.068,M 
$GPGGA,230120.000,3101.7007,N,12125.5912,E,1,00,00014.068,M 
$GPGGA,230121.000,3101.7011,N,12125.5912,E,1,00,00013.535,M 
$GPGGA,230121.000,3101.7015,N,12125.5911,E,1,00,00013.535,M 
$GPGGA,230122.000,3101.7019,N,12125.5910,E,1,00,00011.215,M 
$GPGGA,230122.000,3101.7023,N,12125.5910,E,1,00,00011.215,M 
$GPGGA,230123.000,3101.7027,N,12125.5909,E,1,00,00011.550,M 
$GPGGA,230123.000,3101.7031,N,12125.5908,E,1,00,00011.550,M 
$GPGGA,230124.000,3101.7035,N,12125.5907,E,1,00,00012.271,M 
$GPGGA,230124.000,3101.7039,N,12125.5907,E,1,00,00012.271,M 
$GPGGA,230125.000,3101.7043,N,12125.5906,E,1,00,00011.636,M 
$GPGGA,230126.000,3101.7047,N,12125.5905,E,1,00,00011.834,M 
$GPGGA,230126.000,3101.7050,N,12125.5905,E,1,00,00011.834,M 
$GPGGA,230127.000,3101.7055,N,12125.5904,E,1,00,00014.150,M 
$GPGGA,230127.000,3101.7059,N,12125.5904,E,1,00,00014.150,M 
$GPGGA,230128.000,3101.7063,N,12125.5903,E,1,00,00013.886,M 
$GPGGA,230128.000,3101.7066,N,12125.5903,E,1,00,00013.886,M 
$GPGGA,230129.000,3101.7070,N,12125.5902,E,1,00,00013.776,M 
$GPGGA,230129.000,3101.7074,N,12125.5901,E,1,00,00013.776,M 
$GPGGA,230130.000,3101.7078,N,12125.5901,E,1,00,00013.356,M 
$GPGGA,230130.000,3101.7082,N,12125.5900,E,1,00,00013.356,M 
$GPGGA,230131.000,3101.7087,N,12125.5899,E,1,00,00012.072,M 
$GPGGA,230131.000,3101.7090,N,12125.5899,E,1,00,00012.072,M 
$GPGGA,230132.000,3101.7094,N,12125.5898,E,1,00,00011.291,M 
$GPGGA,230132.000,3101.7098,N,12125.5898,E,1,00,00011.291,M 
$GPGGA,230133.000,3101.7102,N,12125.5897,E,1,00,00010.577,M 
$GPGGA,230134.000,3101.7106,N,12125.5897,E,1,00,00011.589,M 
$GPGGA,230134.000,3101.7110,N,12125.5896,E,1,00,00011.589,M 
$GPGGA,230135.000,3101.7114,N,12125.5895,E,1,00,00010.831,M 
$GPGGA,230135.000,3101.7118,N,12125.5895,E,1,00,00010.831,M 
$GPGGA,230136.000,3101.7122,N,12125.5894,E,1,00,00012.213,M 
$GPGGA,230136.000,3101.7126,N,12125.5894,E,1,00,00012.213,M 
$GPGGA,230137.000,3101.7130,N,12125.5893,E,1,00,00011.573,M 
$GPGGA,230137.000,3101.7134,N,12125.5893,E,1,00,00011.573,M 
$GPGGA,230138.000,3101.7138,N,12125.5892,E,1,00,00012.053,M 
$GPGGA,230138.000,3101.7142,N,12125.5891,E,1,00,00012.053,M 
$GPGGA,230139.000,3101.7146,N,12125.5891,E,1,00,00011.248,M 
$GPGGA,230139.000,3101.7150,N,12125.5890,E,1,00,00011.248,M 
$GPGGA,230140.000,3101.7154,N,12125.5889,E,1,00,00011.616,M 
$GPGGA,230141.000,3101.7158,N,12125.5889,E,1,00,00011.535,M 
$GPGGA,230141.000,3101.7162,N,12125.5888,E,1,00,00011.535,M 
$GPGGA,230142.000,3101.7166,N,12125.5887,E,1,00,00012.040,M 
$GPGGA,230142.000,3101.7170,N,12125.5886,E,1,00,00012.040,M 
$GPGGA,230143.000,3101.7173,N,12125.5886,E,1,00,00011.382,M 
$GPGGA,230143.000,3101.7178,N,12125.5885,E,1,00,00011.382,M 
$GPGGA,230144.000,3101.7181,N,12125.5884,E,1,00,00012.550,M 
$GPGGA,230144.000,3101.7185,N,12125.5884,E,1,00,00012.550,M 
$GPGGA,230145.000,3101.7189,N,12125.5883,E,1,00,00011.039,M 
$GPGGA,230145.000,3101.7193,N,12125.5882,E,1,00,00011.039,M 
$GPGGA,230146.000,3101.7197,N,12125.5882,E,1,00,00012.073,M 
$GPGGA,230146.000,3101.7201,N,12125.5881,E,1,00,00012.073,M 
$GPGGA,230147.000,3101.7205,N,12125.5881,E,1,00,00011.703,M 
$GPGGA,230147.000,3101.7209,N,12125.5881,E,1,00,00011.703,M 
$GPGGA,230148.000,3101.7213,N,12125.5880,E,1,00,00011.963,M 
$GPGGA,230149.000,3101.7217,N,12125.5880,E,1,00,00013.282,M 
$GPGGA,230149.000,3101.7221,N,12125.5879,E,1,00,00013.282,M 
$GPGGA,230150.000,3101.7225,N,12125.5879,E,1,00,00012.141,M 
$GPGGA,230150.000,3101.7229,N,12125.5878,E,1,00,00012.141,M 
$GPGGA,230151.000,3101.7233,N,12125.5877,E,1,00,00013.530,M 
$GPGGA,230151.000,3101.7237,N,12125.5877,E,1,00,00013.530,M 
$GPGGA,230152.000,3101.7241,N,12125.5876,E,1,00,00014.698,M 
$GPGGA,230152.000,3101.7245,N,12125.5876,E,1,00,00014.698,M 
$GPGGA,230153.000,3101.7249,N,12125.5876,E,1,00,00013.363,M 
$GPGGA,230153.000,3101.7253,N,12125.5875,E,1,00,00013.364,M 
$GPGGA,230154.000,3101.7257,N,12125.5875,E,1,00,00012.051,M 
$GPGGA,230154.000,3101.7261,N,12125.5874,E,1,00,00012.051,M 
$GPGGA,230155.000,3101.7265,N,12125.5874,E,1,00,00010.831,M 
$GPGGA,230156.000,3101.7269,N,12125.5873,E,1,00,00010.420,M 
$GPGGA,230156.000,3101.7273,N,12125.5873,E,1,00,00010.421,M 
$GPGGA,230157.000,3101.7277,N,12125.5872,E,1,00,00010.334,M 
$GPGGA,230157.000,3101.7281,N,12125.5871,E,1,00,00010.334,M 
$GPGGA,230158.000,3101.7284,N,12125.5871,E,1,00,00009.642,M 
$GPGGA,230158.000,3101.7288,N,12125.5870,E,1,00,00009.643,M 
$GPGGA,230159.000,3101.7293,N,12125.5869,E,1,00,00010.137,M 
$GPGGA,230159.000,3101.7296,N,12125.5869,E,1,00,00010.137,M 
$GPGGA,230200.000,3101.7300,N,12125.5868,E,1,00,00010.093,M 
$GPGGA,230200.000,3101.7304,N,12125.5868,E,1,00,00010.093,M 
$GPGGA,230201.000,3101.7308,N,12125.5867,E,1,00,00012.292,M 
$GPGGA,230201.000,3101.7312,N,12125.5866,E,1,00,00012.293,M 
$GPGGA,230202.000,3101.7316,N,12125.5866,E,1,00,00013.163,M 
$GPGGA,230202.000,3101.7320,N,12125.5865,E,1,00,00013.163,M 
$GPGGA,230203.000,3101.7324,N,12125.5865,E,1,00,00013.039,M 
$GPGGA,230204.000,3101.7328,N,12125.5864,E,1,00,00011.786,M 
$GPGGA,230204.000,3101.7332,N,12125.5863,E,1,00,00011.786,M 
$GPGGA,230205.000,3101.7336,N,12125.5863,E,1,00,00012.188,M 
$GPGGA,230205.000,3101.7340,N,12125.5862,E,1,00,00012.188,M 
$GPGGA,230206.000,3101.7344,N,12125.5861,E,1,00,00012.857,M 
$GPGGA,230206.000,3101.7348,N,12125.5861,E,1,00,00012.857,M 
$GPGGA,230207.000,3101.7352,N,12125.5860,E,1,00,00013.642,M 
$GPGGA,230207.000,3101.7356,N,12125.5859,E,1,00,00013.642,M 
$GPGGA,230208.000,3101.7360,N,12125.5859,E,1,00,00015.131,M 
$GPGGA,230208.000,3101.7364,N,12125.5858,E,1,00,00015.131,M 
$GPGGA,230209.000,3101.7368,N,12125.5858,E,1,00,00013.994,M 
$GPGGA,230209.000,3101.7372,N,12125.5857,E,1,00,00013.994,M 
$GPGGA,230210.000,3101.7376,N,12125.5857,E,1,00,00015.642,M 
$GPGGA,230210.000,3101.7380,N,12125.5856,E,1,00,00015.642,M 
$GPGGA,230211.000,3101.7384,N,12125.5856,E,1,00,00016.086,M 
$GPGGA,230211.000,3101.7388,N,12125.5855,E,1,00,00016.086,M 
$GPGGA,230212.000,3101.7392,N,12125.5854,E,1,00,00015.084,M 
$GPGGA,230213.000,3101.7396,N,12125.5854,E,1,00,00014.736,M 
$GPGGA,230213.000,3101.7400,N,12125.5854,E,1,00,00014.736,M 
$GPGGA,230214.000,3101.7404,N,12125.5853,E,1,00,00014.828,M 
$GPGGA,230214.000,3101.7408,N,12125.5853,E,1,00,00014.829,M 
$GPGGA,230215.000,3101.7412,N,12125.5852,E,1,00,00015.856,M 
$GPGGA,230215.000,3101.7416,N,12125.5852,E,1,00,00015.856,M 
$GPGGA,230216.000,3101.7420,N,12125.5851,E,1,00,00015.655,M 
$GPGGA,230216.000,3101.7424,N,12125.5851,E,1,00,00015.655,M 
$GPGGA,230217.000,3101.7428,N,12125.5850,E,1,00,00014.590,M 
$GPGGA,230217.000,3101.7432,N,12125.5850,E,1,00,00014.590,M 
$GPGGA,230218.000,3101.7436,N,12125.5850,E,1,00,00015.132,M 
$GPGGA,230218.000,3101.7440,N,12125.5849,E,1,00,00015.132,M 
$GPGGA,230219.000,3101.7444,N,12125.5849,E,1,00,00015.575,M 
$GPGGA,230220.000,3101.7448,N,12125.5848,E,1,00,00015.903,M 
$GPGGA,230220.000,3101.7452,N,12125.5848,E,1,00,00015.904,M 
$GPGGA,230221.000,3101.7456,N,12125.5847,E,1,00,00015.146,M 
$GPGGA,230221.000,3101.7460,N,12125.5847,E,1,00,00015.146,M 
$GPGGA,230222.000,3101.7464,N,12125.5846,E,1,00,00016.036,M 
$GPGGA,230222.000,3101.7468,N,12125.5846,E,1,00,00016.036,M 
$GPGGA,230223.000,3101.7472,N,12125.5845,E,1,00,00015.910,M 
$GPGGA,230223.000,3101.7475,N,12125.5845,E,1,00,00015.910,M 
$GPGGA,230224.000,3101.7480,N,12125.5844,E,1,00,00016.455,M 
$GPGGA,230224.000,3101.7484,N,12125.5844,E,1,00,00016.455,M 
$GPGGA,230225.000,3101.7487,N,12125.5843,E,1,00,00017.327,M 
$GPGGA,230225.000,3101.7491,N,12125.5843,E,1,00,00017.327,M 
$GPGGA,230226.000,3101.7495,N,12125.5842,E,1,00,00016.158,M 
$GPGGA,230226.000,3101.7499,N,12125.5842,E,1,00,00016.159,M 
$GPGGA,230227.000,3101.7503,N,12125.5841,E,1,00,00015.148,M 
$GPGGA,230228.000,3101.7507,N,12125.5841,E,1,00,00016.010,M 
$GPGGA,230228.000,3101.7512,N,12125.5840,E,1,00,00016.011,M 
$GPGGA,230229.000,3101.7515,N,12125.5840,E,1,00,00015.176,M 
$GPGGA,230229.000,3101.7519,N,12125.5839,E,1,00,00015.176,M 
$GPGGA,230230.000,3101.7523,N,12125.5838,E,1,00,00014.176,M 
$GPGGA,230230.000,3101.7527,N,12125.5838,E,1,00,00014.176,M 
$GPGGA,230231.000,3101.7531,N,12125.5837,E,1,00,00012.886,M 
$GPGGA,230231.000,3101.7535,N,12125.5836,E,1,00,00012.886,M 
$GPGGA,230232.000,3101.7539,N,12125.5836,E,1,00,00012.374,M 
$GPGGA,230232.000,3101.7543,N,12125.5835,E,1,00,00012.374,M 
$GPGGA,230233.000,3101.7547,N,12125.5835,E,1,00,00012.296,M 
$GPGGA,230233.000,3101.7551,N,12125.5834,E,1,00,00012.296,M 
$GPGGA,230234.000,3101.7555,N,12125.5833,E,1,00,00010.763,M 
$GPGGA,230234.000,3101.7559,N,12125.5833,E,1,00,00010.763,M 
$GPGGA,230235.000,3101.7563,N,12125.5832,E,1,00,00012.044,M 
$GPGGA,230236.000,3101.7567,N,12125.5831,E,1,00,00012.588,M 
$GPGGA,230236.000,3101.7571,N,12125.5831,E,1,00,00012.588,M 
$GPGGA,230237.000,3101.7575,N,12125.5830,E,1,00,00012.915,M 
$GPGGA,230237.000,3101.7579,N,12125.5829,E,1,00,00012.915,M 
$GPGGA,230238.000,3101.7582,N,12125.5829,E,1,00,00013.347,M 
$GPGGA,230238.000,3101.7587,N,12125.5828,E,1,00,00013.347,M 
$GPGGA,230239.000,3101.7591,N,12125.5828,E,1,00,00012.329,M 
$GPGGA,230239.000,3101.7595,N,12125.5827,E,1,00,00012.329,M 
$GPGGA,230240.000,3101.7598,N,12125.5827,E,1,00,00011.835,M 
$GPGGA,230240.000,3101.7602,N,12125.5826,E,1,00,00011.835,M 
$GPGGA,230241.000,3101.7606,N,12125.5825,E,1,00,00010.845,M 
$GPGGA,230241.000,3101.7611,N,12125.5825,E,1,00,00010.845,M 
$GPGGA,230242.000,3101.7614,N,12125.5824,E,1,00,00010.593,M 
$GPGGA,230243.000,3101.7618,N,12125.5824,E,1,00,00009.672,M 
$GPGGA,230243.000,3101.7622,N,12125.5823,E,1,00,00009.672,M 
$GPGGA,230244.000,3101.7626,N,12125.5822,E,1,00,00009.197,M 
$GPGGA,230244.000,3101.7630,N,12125.5821,E,1,00,00009.197,M 
$GPGGA,230245.000,3101.7634,N,12125.5821,E,1,00,00008.954,M 
$GPGGA,230245.000,3101.7638,N,12125.5820,E,1,00,00008.954,M 
$GPGGA,230246.000,3101.7642,N,12125.5820,E,1,00,00008.711,M 
$GPGGA,230246.000,3101.7645,N,12125.5819,E,1,00,00008.711,M 
$GPGGA,230247.000,3101.7648,N,12125.5819,E,1,00,00009.664,M 
$GPGGA,230248.000,3101.7650,N,12125.5818,E,1,00,00009.461,M 
$GPGGA,230251.000,3101.7650,N,12125.5823,E,1,00,00011.027,M 
$GPGGA,230252.000,3101.7650,N,12125.5828,E,1,00,00012.050,M 
$GPGGA,230252.000,3101.7650,N,12125.5832,E,1,00,00012.050,M 
$GPGGA,230253.000,3101.7651,N,12125.5837,E,1,00,00012.470,M 
$GPGGA,230253.000,3101.7651,N,12125.5841,E,1,00,00012.470,M 
$GPGGA,230254.000,3101.7651,N,12125.5846,E,1,00,00012.849,M 
$GPGGA,230254.000,3101.7652,N,12125.5851,E,1,00,00012.849,M 
$GPGGA,230255.000,3101.7652,N,12125.5856,E,1,00,00013.659,M 
$GPGGA,230256.000,3101.7652,N,12125.5860,E,1,00,00013.875,M 
$GPGGA,230256.000,3101.7652,N,12125.5865,E,1,00,00013.875,M 
$GPGGA,230257.000,3101.7653,N,12125.5869,E,1,00,00014.044,M 
$GPGGA,230257.000,3101.7653,N,12125.5874,E,1,00,00014.044,M 
$GPGGA,230258.000,3101.7653,N,12125.5879,E,1,00,00013.038,M 
$GPGGA,230258.000,3101.7653,N,12125.5883,E,1,00,00013.038,M 
$GPGGA,230259.000,3101.7654,N,12125.5888,E,1,00,00012.387,M 
$GPGGA,230259.000,3101.7654,N,12125.5892,E,1,00,00012.387,M 
$GPGGA,230300.000,3101.7654,N,12125.5897,E,1,00,00010.846,M 
$GPGGA,230300.000,3101.7654,N,12125.5902,E,1,00,00010.846,M 
$GPGGA,230301.000,3101.7654,N,12125.5906,E,1,00,00010.472,M 
$GPGGA,230301.000,3101.7655,N,12125.5911,E,1,00,00010.472,M 
$GPGGA,230302.000,3101.7655,N,12125.5915,E,1,00,00010.325,M 
$GPGGA,230303.000,3101.7655,N,12125.5920,E,1,00,00010.059,M 
$GPGGA,230303.000,3101.7655,N,12125.5925,E,1,00,00010.059,M 
$GPGGA,230304.000,3101.7655,N,12125.5929,E,1,00,00009.360,M 
$GPGGA,230304.000,3101.7655,N,12125.5934,E,1,00,00009.360,M 
$GPGGA,230305.000,3101.7656,N,12125.5938,E,1,00,00010.235,M 
$GPGGA,230305.000,3101.7656,N,12125.5943,E,1,00,00010.235,M 
$GPGGA,230306.000,3101.7656,N,12125.5947,E,1,00,00010.067,M 
$GPGGA,230306.000,3101.7656,N,12125.5952,E,1,00,00010.067,M 
$GPGGA,230307.000,3101.7656,N,12125.5957,E,1,00,00010.672,M 
$GPGGA,230307.000,3101.7657,N,12125.5961,E,1,00,00010.671,M 
$GPGGA,230308.000,3101.7657,N,12125.5966,E,1,00,00011.756,M 
$GPGGA,230309.000,3101.7657,N,12125.5970,E,1,00,00011.705,M 
$GPGGA,230309.000,3101.7657,N,12125.5975,E,1,00,00011.705,M 
$GPGGA,230310.000,3101.7657,N,12125.5980,E,1,00,00011.937,M 
$GPGGA,230310.000,3101.7658,N,12125.5984,E,1,00,00011.937,M 
$GPGGA,230311.000,3101.7658,N,12125.5989,E,1,00,00011.951,M 
$GPGGA,230311.000,3101.7658,N,12125.5993,E,1,00,00011.950,M 
$GPGGA,230312.000,3101.7658,N,12125.5998,E,1,00,00012.304,M 
$GPGGA,230312.000,3101.7658,N,12125.6002,E,1,00,00012.304,M 
$GPGGA,230313.000,3101.7658,N,12125.6007,E,1,00,00012.861,M 
$GPGGA,230313.000,3101.7658,N,12125.6011,E,1,00,00012.860,M 
$GPGGA,230314.000,3101.7658,N,12125.6016,E,1,00,00012.944,M 
$GPGGA,230315.000,3101.7658,N,12125.6021,E,1,00,00012.574,M 
$GPGGA,230315.000,3101.7658,N,12125.6025,E,1,00,00012.574,M 
$GPGGA,230316.000,3101.7658,N,12125.6030,E,1,00,00012.712,M 
$GPGGA,230316.000,3101.7658,N,12125.6034,E,1,00,00012.712,M 
$GPGGA,230317.000,3101.7658,N,12125.6039,E,1,00,00011.978,M 
$GPGGA,230317.000,3101.7658,N,12125.6044,E,1,00,00011.978,M 
$GPGGA,230318.000,3101.7658,N,12125.6048,E,1,00,00011.766,M 
$GPGGA,230318.000,3101.7659,N,12125.6053,E,1,00,00011.766,M 
$GPGGA,230319.000,3101.7659,N,12125.6057,E,1,00,00011.423,M 
$GPGGA,230320.000,3101.7659,N,12125.6062,E,1,00,00010.903,M 
$GPGGA,230320.000,3101.7659,N,12125.6066,E,1,00,00010.903,M 
$GPGGA,230321.000,3101.7659,N,12125.6071,E,1,00,00010.839,M 
$GPGGA,230321.000,3101.7659,N,12125.6075,E,1,00,00010.839,M 
$GPGGA,230322.000,3101.7659,N,12125.6080,E,1,00,00011.859,M 
$GPGGA,230322.000,3101.7659,N,12125.6084,E,1,00,00011.859,M 
$GPGGA,230323.000,3101.7659,N,12125.6089,E,1,00,00011.390,M 
$GPGGA,230323.000,3101.7659,N,12125.6093,E,1,00,00011.390,M 
$GPGGA,230324.000,3101.7659,N,12125.6098,E,1,00,00012.197,M 
$GPGGA,230325.000,3101.7659,N,12125.6102,E,1,00,00011.549,M 
$GPGGA,230325.000,3101.7660,N,12125.6107,E,1,00,00011.549,M 
$GPGGA,230326.000,3101.7660,N,12125.6112,E,1,00,00011.931,M 
$GPGGA,230326.000,3101.7660,N,12125.6116,E,1,00,00011.931,M 
$GPGGA,230327.000,3101.7660,N,12125.6121,E,1,00,00011.222,M 
$GPGGA,230327.000,3101.7660,N,12125.6125,E,1,00,00011.222,M 
$GPGGA,230328.000,3101.7660,N,12125.6130,E,1,00,00011.238,M 
$GPGGA,230328.000,3101.7660,N,12125.6134,E,1,00,00011.238,M 
$GPGGA,230329.000,3101.7660,N,12125.6139,E,1,00,00011.328,M 
$GPGGA,230329.000,3101.7660,N,12125.6144,E,1,00,00011.328,M 
$GPGGA,230330.000,3101.7660,N,12125.6149,E,1,00,00011.163,M 
$GPGGA,230330.000,3101.7660,N,12125.6153,E,1,00,00011.162,M 
$GPGGA,230331.000,3101.7660,N,12125.6158,E,1,00,00010.827,M 
$GPGGA,230332.000,3101.7660,N,12125.6162,E,1,00,00010.767,M 
$GPGGA,230332.000,3101.7661,N,12125.6167,E,1,00,00010.767,M 
$GPGGA,230333.000,3101.7660,N,12125.6172,E,1,00,00009.781,M 
$GPGGA,230333.000,3101.7660,N,12125.6176,E,1,00,00009.781,M 
$GPGGA,230334.000,3101.7660,N,12125.6181,E,1,00,00010.883,M 
$GPGGA,230334.000,3101.7660,N,12125.6185,E,1,00,00010.883,M 
$GPGGA,230335.000,3101.7660,N,12125.6190,E,1,00,00009.933,M 
$GPGGA,230335.000,3101.7660,N,12125.6195,E,1,00,00009.933,M 
$GPGGA,230336.000,3101.7660,N,12125.6199,E,1,00,00008.451,M 
$GPGGA,230336.000,3101.7660,N,12125.6204,E,1,00,00008.451,M 
$GPGGA,230337.000,3101.7659,N,12125.6209,E,1,00,00008.934,M 
$GPGGA,230337.000,3101.7659,N,12125.6213,E,1,00,00008.934,M 
$GPGGA,230338.000,3101.7659,N,12125.6218,E,1,00,00010.948,M 
$GPGGA,230339.000,3101.7659,N,12125.6222,E,1,00,00011.590,M 
$GPGGA,230339.000,3101.7659,N,12125.6227,E,1,00,00011.589,M 
$GPGGA,230340.000,3101.7659,N,12125.6232,E,1,00,00011.366,M 
$GPGGA,230340.000,3101.7658,N,12125.6236,E,1,00,00011.366,M 
$GPGGA,230341.000,3101.7658,N,12125.6241,E,1,00,00011.338,M 
$GPGGA,230341.000,3101.7658,N,12125.6246,E,1,00,00011.338,M 
$GPGGA,230342.000,3101.7658,N,12125.6250,E,1,00,00010.745,M 
$GPGGA,230342.000,3101.7658,N,12125.6255,E,1,00,00010.745,M 
$GPGGA,230343.000,3101.7658,N,12125.6260,E,1,00,00012.253,M 
$GPGGA,230343.000,3101.7658,N,12125.6265,E,1,00,00012.253,M 
$GPGGA,230344.000,3101.7658,N,12125.6269,E,1,00,00011.262,M 
$GPGGA,230344.000,3101.7658,N,12125.6274,E,1,00,00011.261,M 
$GPGGA,230345.000,3101.7658,N,12125.6279,E,1,00,00011.961,M 
$GPGGA,230345.000,3101.7658,N,12125.6283,E,1,00,00011.961,M 
$GPGGA,230346.000,3101.7658,N,12125.6288,E,1,00,00013.215,M 
$GPGGA,230346.000,3101.7658,N,12125.6292,E,1,00,00013.215,M 
$GPGGA,230347.000,3101.7657,N,12125.6297,E,1,00,00012.954,M 
$GPGGA,230348.000,3101.7657,N,12125.6302,E,1,00,00014.099,M 
$GPGGA,230348.000,3101.7657,N,12125.6306,E,1,00,00014.099,M 
$GPGGA,230349.000,3101.7657,N,12125.6311,E,1,00,00014.693,M 
$GPGGA,230349.000,3101.7657,N,12125.6315,E,1,00,00014.693,M 
$GPGGA,230350.000,3101.7657,N,12125.6320,E,1,00,00014.132,M 
$GPGGA,230350.000,3101.7657,N,12125.6325,E,1,00,00014.132,M 
$GPGGA,230351.000,3101.7657,N,12125.6330,E,1,00,00015.070,M 
$GPGGA,230351.000,3101.7657,N,12125.6334,E,1,00,00015.070,M 
$GPGGA,230352.000,3101.7657,N,12125.6339,E,1,00,00015.932,M 
$GPGGA,230352.000,3101.7656,N,12125.6343,E,1,00,00015.932,M 
$GPGGA,230353.000,3101.7656,N,12125.6347,E,1,00,00017.404,M 
$GPGGA,230354.000,3101.7656,N,12125.6351,E,1,00,00017.550,M 
$GPGGA,230354.000,3101.7655,N,12125.6355,E,1,00,00017.550,M 
$GPGGA,230355.000,3101.7655,N,12125.6357,E,1,00,00017.815,M 
$GPGGA,230403.000,3101.7655,N,12125.6361,E,1,00,00011.764,M 
$GPGGA,230404.000,3101.7655,N,12125.6365,E,1,00,00012.078,M 
$GPGGA,230404.000,3101.7655,N,12125.6370,E,1,00,00012.077,M 
$GPGGA,230405.000,3101.7655,N,12125.6374,E,1,00,00011.178,M 
$GPGGA,230406.000,3101.7654,N,12125.6379,E,1,00,00011.222,M 
$GPGGA,230406.000,3101.7654,N,12125.6383,E,1,00,00011.222,M 
$GPGGA,230407.000,3101.7654,N,12125.6388,E,1,00,00011.067,M 
$GPGGA,230407.000,3101.7654,N,12125.6392,E,1,00,00011.067,M 
$GPGGA,230408.000,3101.7654,N,12125.6397,E,1,00,00011.227,M 
$GPGGA,230408.000,3101.7653,N,12125.6401,E,1,00,00011.227,M 
$GPGGA,230409.000,3101.7653,N,12125.6405,E,1,00,00013.014,M 
$GPGGA,230409.000,3101.7653,N,12125.6410,E,1,00,00013.014,M 
$GPGGA,230410.000,3101.7653,N,12125.6414,E,1,00,00016.261,M 
$GPGGA,230411.000,3101.7653,N,12125.6419,E,1,00,00019.785,M 
$GPGGA,230411.000,3101.7653,N,12125.6423,E,1,00,00019.785,M 
$GPGGA,230412.000,3101.7653,N,12125.6424,E,1,00,00021.485,M 
$GPGGA,230422.000,3101.7653,N,12125.6428,E,1,00,00014.760,M 
$GPGGA,230422.000,3101.7653,N,12125.6433,E,1,00,00014.760,M 
$GPGGA,230423.000,3101.7653,N,12125.6437,E,1,00,00015.312,M 
$GPGGA,230424.000,3101.7653,N,12125.6441,E,1,00,00014.810,M 
$GPGGA,230424.000,3101.7652,N,12125.6446,E,1,00,00014.810,M 
$GPGGA,230425.000,3101.7652,N,12125.6450,E,1,00,00013.781,M 
$GPGGA,230426.000,3101.7652,N,12125.6454,E,1,00,00008.665,M 
$GPGGA,230426.000,3101.7652,N,12125.6458,E,1,00,00008.664,M 
$GPGGA,230427.000,3101.7652,N,12125.6462,E,1,00,00000.608,M 
$GPGGA,230427.000,3101.7652,N,12125.6466,E,1,00,00000.608,M 
$GPGGA,230428.000,3101.7652,N,12125.6471,E,1,00,-0002.176,M 
$GPGGA,230429.000,3101.7652,N,12125.6475,E,1,00,-0002.625,M 
$GPGGA,230429.000,3101.7652,N,12125.6479,E,1,00,-0002.625,M 
$GPGGA,230430.000,3101.7652,N,12125.6483,E,1,00,-0004.122,M 
$GPGGA,230430.000,3101.7652,N,12125.6488,E,1,00,-0004.122,M 
$GPGGA,230431.000,3101.7651,N,12125.6492,E,1,00,00000.673,M 
$GPGGA,230432.000,3101.7652,N,12125.6496,E,1,00,00012.013,M 
$GPGGA,230432.000,3101.7652,N,12125.6501,E,1,00,00012.013,M 
$GPGGA,230433.000,3101.7652,N,12125.6505,E,1,00,00014.256,M 
$GPGGA,230433.000,3101.7651,N,12125.6509,E,1,00,00014.255,M 
$GPGGA,230434.000,3101.7652,N,12125.6513,E,1,00,00014.761,M 
$GPGGA,230435.000,3101.7651,N,12125.6518,E,1,00,00016.222,M 
$GPGGA,230435.000,3101.7652,N,12125.6522,E,1,00,00016.222,M 
$GPGGA,230436.000,3101.7651,N,12125.6527,E,1,00,00015.614,M 
$GPGGA,230436.000,3101.7652,N,12125.6531,E,1,00,00015.614,M 
$GPGGA,230437.000,3101.7652,N,12125.6535,E,1,00,00016.079,M 
$GPGGA,230437.000,3101.7652,N,12125.6539,E,1,00,00016.079,M 
$GPGGA,230438.000,3101.7652,N,12125.6544,E,1,00,00012.347,M 
$GPGGA,230439.000,3101.7652,N,12125.6548,E,1,00,00012.509,M 
$GPGGA,230439.000,3101.7652,N,12125.6552,E,1,00,00012.509,M 
$GPGGA,230440.000,3101.7652,N,12125.6557,E,1,00,00011.229,M 
$GPGGA,230440.000,3101.7652,N,12125.6561,E,1,00,00011.229,M 
$GPGGA,230441.000,3101.7652,N,12125.6565,E,1,00,00011.929,M 
$GPGGA,230442.000,3101.7652,N,12125.6569,E,1,00,00010.611,M 
$GPGGA,230442.000,3101.7652,N,12125.6573,E,1,00,00010.611,M 
$GPGGA,230443.000,3101.7652,N,12125.6578,E,1,00,00009.742,M 
$GPGGA,230443.000,3101.7652,N,12125.6582,E,1,00,00009.742,M 
$GPGGA,230444.000,3101.7652,N,12125.6586,E,1,00,00008.286,M 
$GPGGA,230445.000,3101.7652,N,12125.6590,E,1,00,00008.850,M 
$GPGGA,230445.000,3101.7652,N,12125.6595,E,1,00,00008.850,M 
$GPGGA,230446.000,3101.7652,N,12125.6599,E,1,00,00008.914,M 
$GPGGA,230447.000,3101.7652,N,12125.6603,E,1,00,00009.175,M 
$GPGGA,230447.000,3101.7652,N,12125.6608,E,1,00,00009.175,M 
$GPGGA,230448.000,3101.7652,N,12125.6612,E,1,00,00010.129,M 
$GPGGA,230448.000,3101.7652,N,12125.6616,E,1,00,00010.129,M 
$GPGGA,230449.000,3101.7652,N,12125.6621,E,1,00,00022.674,M 
$GPGGA,230449.000,3101.7652,N,12125.6625,E,1,00,00022.674,M 
$GPGGA,230450.000,3101.7652,N,12125.6629,E,1,00,00022.240,M 
$GPGGA,230451.000,3101.7652,N,12125.6634,E,1,00,00019.164,M 
$GPGGA,230451.000,3101.7652,N,12125.6638,E,1,00,00019.164,M 
$GPGGA,230452.000,3101.7652,N,12125.6642,E,1,00,00016.210,M 
$GPGGA,230452.000,3101.7652,N,12125.6647,E,1,00,00016.210,M 
$GPGGA,230453.000,3101.7652,N,12125.6651,E,1,00,00013.816,M 
$GPGGA,230454.000,3101.7652,N,12125.6656,E,1,00,00011.905,M 
$GPGGA,230454.000,3101.7652,N,12125.6660,E,1,00,00011.905,M 
$GPGGA,230455.000,3101.7652,N,12125.6664,E,1,00,00011.062,M 
$GPGGA,230455.000,3101.7652,N,12125.6669,E,1,00,00011.061,M 
$GPGGA,230456.000,3101.7651,N,12125.6673,E,1,00,00008.806,M 
$GPGGA,230456.000,3101.7651,N,12125.6678,E,1,00,00008.806,M 
$GPGGA,230457.000,3101.7651,N,12125.6682,E,1,00,00004.563,M 
$GPGGA,230458.000,3101.7651,N,12125.6686,E,1,00,00007.492,M 
$GPGGA,230458.000,3101.7651,N,12125.6691,E,1,00,00007.492,M 
$GPGGA,230459.000,3101.7651,N,12125.6695,E,1,00,00006.606,M 
$GPGGA,230459.000,3101.7651,N,12125.6700,E,1,00,00006.606,M 
$GPGGA,230500.000,3101.7651,N,12125.6704,E,1,00,00009.974,M 
$GPGGA,230500.000,3101.7651,N,12125.6708,E,1,00,00009.974,M 
$GPGGA,230501.000,3101.7650,N,12125.6713,E,1,00,00013.252,M 
$GPGGA,230502.000,3101.7650,N,12125.6717,E,1,00,00011.634,M 
$GPGGA,230502.000,3101.7650,N,12125.6722,E,1,00,00011.634,M 
$GPGGA,230503.000,3101.7650,N,12125.6726,E,1,00,00012.845,M 
$GPGGA,230503.000,3101.7650,N,12125.6731,E,1,00,00012.844,M 
$GPGGA,230504.000,3101.7650,N,12125.6735,E,1,00,00016.081,M 
$GPGGA,230504.000,3101.7650,N,12125.6740,E,1,00,00016.081,M 
$GPGGA,230505.000,3101.7650,N,12125.6744,E,1,00,00015.775,M 
$GPGGA,230505.000,3101.7650,N,12125.6749,E,1,00,00015.775,M 
$GPGGA,230506.000,3101.7649,N,12125.6753,E,1,00,00017.706,M 
$GPGGA,230507.000,3101.7650,N,12125.6757,E,1,00,00019.930,M 
$GPGGA,230507.000,3101.7649,N,12125.6762,E,1,00,00019.930,M 
$GPGGA,230508.000,3101.7649,N,12125.6766,E,1,00,00018.689,M 
$GPGGA,230508.000,3101.7649,N,12125.6770,E,1,00,00018.689,M 
$GPGGA,230509.000,3101.7649,N,12125.6775,E,1,00,00022.202,M 
$GPGGA,230510.000,3101.7649,N,12125.6779,E,1,00,00020.710,M 
$GPGGA,230510.000,3101.7649,N,12125.6784,E,1,00,00020.710,M 
$GPGGA,230511.000,3101.7649,N,12125.6788,E,1,00,00021.927,M 
$GPGGA,230511.000,3101.7648,N,12125.6792,E,1,00,00021.927,M 
$GPGGA,230512.000,3101.7648,N,12125.6797,E,1,00,00020.766,M 
$GPGGA,230512.000,3101.7648,N,12125.6801,E,1,00,00020.766,M 
$GPGGA,230513.000,3101.7648,N,12125.6805,E,1,00,00017.652,M 
$GPGGA,230514.000,3101.7648,N,12125.6809,E,1,00,00015.629,M 
$GPGGA,230514.000,3101.7648,N,12125.6814,E,1,00,00015.629,M 
$GPGGA,230515.000,3101.7648,N,12125.6818,E,1,00,00016.433,M 
$GPGGA,230515.000,3101.7647,N,12125.6822,E,1,00,00016.433,M 
$GPGGA,230516.000,3101.7647,N,12125.6827,E,1,00,00016.088,M 
$GPGGA,230517.000,3101.7647,N,12125.6831,E,1,00,00014.089,M 
$GPGGA,230517.000,3101.7647,N,12125.6835,E,1,00,00014.089,M 
$GPGGA,230518.000,3101.7647,N,12125.6840,E,1,00,00012.190,M 
$GPGGA,230518.000,3101.7647,N,12125.6844,E,1,00,00012.190,M 
$GPGGA,230519.000,3101.7647,N,12125.6848,E,1,00,00011.443,M 
$GPGGA,230520.000,3101.7647,N,12125.6853,E,1,00,00011.271,M 
$GPGGA,230520.000,3101.7647,N,12125.6857,E,1,00,00011.271,M 
$GPGGA,230521.000,3101.7647,N,12125.6862,E,1,00,00010.993,M 
$GPGGA,230521.000,3101.7646,N,12125.6866,E,1,00,00010.993,M 
$GPGGA,230522.000,3101.7646,N,12125.6870,E,1,00,00011.047,M 
$GPGGA,230522.000,3101.7646,N,12125.6875,E,1,00,00011.046,M 
$GPGGA,230523.000,3101.7646,N,12125.6879,E,1,00,00008.755,M 
$GPGGA,230524.000,3101.7645,N,12125.6883,E,1,00,00009.427,M 
$GPGGA,230524.000,3101.7645,N,12125.6888,E,1,00,00009.427,M 
$GPGGA,230525.000,3101.7645,N,12125.6892,E,1,00,00009.574,M 
$GPGGA,230525.000,3101.7645,N,12125.6897,E,1,00,00009.574,M 
$GPGGA,230526.000,3101.7644,N,12125.6901,E,1,00,00010.830,M 
$GPGGA,230526.000,3101.7644,N,12125.6905,E,1,00,00010.830,M 
$GPGGA,230527.000,3101.7644,N,12125.6910,E,1,00,00010.834,M 
$GPGGA,230528.000,3101.7644,N,12125.6914,E,1,00,00010.214,M 
$GPGGA,230528.000,3101.7643,N,12125.6918,E,1,00,00010.214,M 
$GPGGA,230529.000,3101.7643,N,12125.6923,E,1,00,00008.981,M 
$GPGGA,230529.000,3101.7643,N,12125.6927,E,1,00,00008.981,M 
$GPGGA,230530.000,3101.7643,N,12125.6932,E,1,00,00011.189,M 
$GPGGA,230531.000,3101.7642,N,12125.6936,E,1,00,00010.721,M 
$GPGGA,230531.000,3101.7642,N,12125.6940,E,1,00,00010.721,M 
$GPGGA,230532.000,3101.7642,N,12125.6945,E,1,00,00011.888,M 
$GPGGA,230532.000,3101.7641,N,12125.6949,E,1,00,00011.888,M 
$GPGGA,230533.000,3101.7641,N,12125.6953,E,1,00,00011.236,M 
$GPGGA,230533.000,3101.7641,N,12125.6958,E,1,00,00011.236,M 
$GPGGA,230534.000,3101.7641,N,12125.6962,E,1,00,00010.914,M 
$GPGGA,230535.000,3101.7641,N,12125.6967,E,1,00,00010.318,M 
$GPGGA,230535.000,3101.7640,N,12125.6971,E,1,00,00010.318,M 
$GPGGA,230536.000,3101.7640,N,12125.6975,E,1,00,00009.502,M 
$GPGGA,230536.000,3101.7640,N,12125.6980,E,1,00,00009.501,M 
$GPGGA,230537.000,3101.7640,N,12125.6984,E,1,00,00010.893,M 
$GPGGA,230537.000,3101.7640,N,12125.6988,E,1,00,00010.893,M 
$GPGGA,230538.000,3101.7639,N,12125.6992,E,1,00,00011.426,M 
$GPGGA,230539.000,3101.7639,N,12125.6997,E,1,00,00010.612,M 
$GPGGA,230539.000,3101.7639,N,12125.7001,E,1,00,00010.612,M 
$GPGGA,230540.000,3101.7639,N,12125.7006,E,1,00,00009.571,M 
$GPGGA,230540.000,3101.7639,N,12125.7010,E,1,00,00009.571,M 
$GPGGA,230541.000,3101.7638,N,12125.7014,E,1,00,00009.151,M 
$GPGGA,230542.000,3101.7638,N,12125.7019,E,1,00,00009.223,M 
$GPGGA,230542.000,3101.7638,N,12125.7023,E,1,00,00009.223,M 
$GPGGA,230543.000,3101.7638,N,12125.7028,E,1,00,00008.095,M 
$GPGGA,230543.000,3101.7638,N,12125.7032,E,1,00,00008.095,M 
$GPGGA,230544.000,3101.7637,N,12125.7037,E,1,00,00008.786,M 
$GPGGA,230544.000,3101.7637,N,12125.7041,E,1,00,00008.786,M 
$GPGGA,230545.000,3101.7637,N,12125.7045,E,1,00,00009.121,M 
$GPGGA,230546.000,3101.7636,N,12125.7050,E,1,00,00009.814,M 
$GPGGA,230546.000,3101.7636,N,12125.7054,E,1,00,00009.814,M 
$GPGGA,230547.000,3101.7635,N,12125.7058,E,1,00,00009.250,M 
$GPGGA,230547.000,3101.7635,N,12125.7063,E,1,00,00009.250,M 
$GPGGA,230548.000,3101.7635,N,12125.7067,E,1,00,00010.138,M 
$GPGGA,230548.000,3101.7635,N,12125.7072,E,1,00,00010.138,M 
$GPGGA,230549.000,3101.7634,N,12125.7076,E,1,00,00009.195,M 
$GPGGA,230550.000,3101.7634,N,12125.7080,E,1,00,00008.849,M 
$GPGGA,230550.000,3101.7634,N,12125.7084,E,1,00,00008.849,M 
$GPGGA,230551.000,3101.7634,N,12125.7089,E,1,00,00008.990,M 
$GPGGA,230551.000,3101.7633,N,12125.7093,E,1,00,00008.990,M 
$GPGGA,230552.000,3101.7633,N,12125.7098,E,1,00,00009.252,M 
$GPGGA,230552.000,3101.7633,N,12125.7102,E,1,00,00009.252,M 
$GPGGA,230553.000,3101.7633,N,12125.7107,E,1,00,00010.986,M 
$GPGGA,230554.000,3101.7633,N,12125.7111,E,1,00,00010.057,M 
$GPGGA,230554.000,3101.7632,N,12125.7115,E,1,00,00010.057,M 
$GPGGA,230555.000,3101.7632,N,12125.7120,E,1,00,00009.463,M 
$GPGGA,230555.000,3101.7632,N,12125.7124,E,1,00,00009.463,M 
$GPGGA,230556.000,3101.7631,N,12125.7128,E,1,00,00011.005,M 
$GPGGA,230557.000,3101.7631,N,12125.7133,E,1,00,00010.881,M 
$GPGGA,230557.000,3101.7631,N,12125.7137,E,1,00,00010.881,M 
$GPGGA,230558.000,3101.7631,N,12125.7142,E,1,00,00010.476,M 
$GPGGA,230558.000,3101.7631,N,12125.7146,E,1,00,00010.476,M 
$GPGGA,230559.000,3101.7630,N,12125.7150,E,1,00,00011.195,M 
$GPGGA,230559.000,3101.7630,N,12125.7155,E,1,00,00011.195,M 
$GPGGA,230600.000,3101.7630,N,12125.7159,E,1,00,00010.628,M 
$GPGGA,230601.000,3101.7629,N,12125.7164,E,1,00,00009.571,M 
$GPGGA,230601.000,3101.7629,N,12125.7168,E,1,00,00009.571,M 
$GPGGA,230602.000,3101.7629,N,12125.7172,E,1,00,00011.386,M 
$GPGGA,230602.000,3101.7629,N,12125.7177,E,1,00,00011.385,M 
$GPGGA,230603.000,3101.7628,N,12125.7181,E,1,00,00011.244,M 
$GPGGA,230603.000,3101.7628,N,12125.7185,E,1,00,00011.244,M 
$GPGGA,230604.000,3101.7628,N,12125.7190,E,1,00,00011.103,M 
$GPGGA,230605.000,3101.7627,N,12125.7194,E,1,00,00010.944,M 
$GPGGA,230605.000,3101.7627,N,12125.7198,E,1,00,00010.944,M 
$GPGGA,230606.000,3101.7627,N,12125.7203,E,1,00,00011.108,M 
$GPGGA,230606.000,3101.7626,N,12125.7207,E,1,00,00011.108,M 
$GPGGA,230607.000,3101.7626,N,12125.7212,E,1,00,00010.771,M 
