$GPGGA,223536.000,3101.4312,N,12126.2390,E,1,00,00013.940,M 
$GPGGA,223601.000,3101.4312,N,12126.2395,E,1,00,00015.102,M 
$GPGGA,223602.000,3101.4311,N,12126.2399,E,1,00,00021.677,M 
$GPGGA,223602.000,3101.4311,N,12126.2403,E,1,00,00021.677,M 
$GPGGA,223603.000,3101.4311,N,12126.2408,E,1,00,00018.439,M 
$GPGGA,223603.000,3101.4310,N,12126.2412,E,1,00,00018.439,M 
$GPGGA,223604.000,3101.4310,N,12126.2417,E,1,00,00021.748,M 
$GPGGA,223604.000,3101.4310,N,12126.2421,E,1,00,00021.748,M 
$GPGGA,223605.000,3101.4309,N,12126.2426,E,1,00,00018.038,M 
$GPGGA,223606.000,3101.4309,N,12126.2430,E,1,00,00020.777,M 
$GPGGA,223606.000,3101.4309,N,12126.2435,E,1,00,00020.777,M 
$GPGGA,223607.000,3101.4308,N,12126.2439,E,1,00,00019.205,M 
$GPGGA,223607.000,3101.4308,N,12126.2443,E,1,00,00019.205,M 
$GPGGA,223608.000,3101.4308,N,12126.2448,E,1,00,00015.293,M 
$GPGGA,223608.000,3101.4307,N,12126.2452,E,1,00,00015.293,M 
$GPGGA,223609.000,3101.4307,N,12126.2457,E,1,00,00014.220,M 
$GPGGA,223610.000,3101.4307,N,12126.2461,E,1,00,00013.650,M 
$GPGGA,223610.000,3101.4307,N,12126.2466,E,1,00,00013.650,M 
$GPGGA,223611.000,3101.4306,N,12126.2470,E,1,00,00013.969,M 
$GPGGA,223611.000,3101.4306,N,12126.2474,E,1,00,00013.969,M 
$GPGGA,223612.000,3101.4306,N,12126.2479,E,1,00,00012.437,M 
$GPGGA,223612.000,3101.4305,N,12126.2483,E,1,00,00012.437,M 
$GPGGA,223613.000,3101.4305,N,12126.2488,E,1,00,00012.113,M 
$GPGGA,223613.000,3101.4305,N,12126.2492,E,1,00,00012.113,M 
$GPGGA,223614.000,3101.4304,N,12126.2497,E,1,00,00013.205,M 
$GPGGA,223615.000,3101.4304,N,12126.2501,E,1,00,00012.296,M 
$GPGGA,223615.000,3101.4304,N,12126.2506,E,1,00,00012.296,M 
$GPGGA,223616.000,3101.4303,N,12126.2510,E,1,00,00012.545,M 
$GPGGA,223616.000,3101.4303,N,12126.2515,E,1,00,00012.545,M 
$GPGGA,223617.000,3101.4302,N,12126.2519,E,1,00,00012.690,M 
$GPGGA,223617.000,3101.4302,N,12126.2524,E,1,00,00012.690,M 
$GPGGA,223618.000,3101.4302,N,12126.2528,E,1,00,00013.648,M 
$GPGGA,223618.000,3101.4301,N,12126.2533,E,1,00,00013.648,M 
$GPGGA,223619.000,3101.4301,N,12126.2537,E,1,00,00014.198,M 
$GPGGA,223620.000,3101.4301,N,12126.2542,E,1,00,00015.264,M 
$GPGGA,223620.000,3101.4300,N,12126.2546,E,1,00,00015.264,M 
$GPGGA,223621.000,3101.4300,N,12126.2551,E,1,00,00015.495,M 
$GPGGA,223621.000,3101.4299,N,12126.2555,E,1,00,00015.495,M 
$GPGGA,223622.000,3101.4299,N,12126.2559,E,1,00,00016.551,M 
$GPGGA,223622.000,3101.4298,N,12126.2564,E,1,00,00016.551,M 
$GPGGA,223623.000,3101.4298,N,12126.2568,E,1,00,00016.552,M 
$GPGGA,223624.000,3101.4298,N,12126.2573,E,1,00,00015.984,M 
$GPGGA,223624.000,3101.4297,N,12126.2577,E,1,00,00015.984,M 
$GPGGA,223625.000,3101.4297,N,12126.2582,E,1,00,00015.236,M 
$GPGGA,223625.000,3101.4296,N,12126.2586,E,1,00,00015.236,M 
$GPGGA,223626.000,3101.4296,N,12126.2591,E,1,00,00014.225,M 
$GPGGA,223626.000,3101.4295,N,12126.2595,E,1,00,00014.225,M 
$GPGGA,223627.000,3101.4295,N,12126.2600,E,1,00,00015.280,M 
$GPGGA,223627.000,3101.4294,N,12126.2604,E,1,00,00015.280,M 
$GPGGA,223628.000,3101.4294,N,12126.2608,E,1,00,00015.213,M 
$GPGGA,223629.000,3101.4293,N,12126.2613,E,1,00,00016.190,M 
$GPGGA,223629.000,3101.4293,N,12126.2617,E,1,00,00016.190,M 
$GPGGA,223630.000,3101.4292,N,12126.2622,E,1,00,00016.308,M 
$GPGGA,223630.000,3101.4292,N,12126.2626,E,1,00,00016.308,M 
$GPGGA,223631.000,3101.4291,N,12126.2631,E,1,00,00015.818,M 
$GPGGA,223631.000,3101.4291,N,12126.2635,E,1,00,00015.818,M 
$GPGGA,223632.000,3101.4290,N,12126.2640,E,1,00,00015.532,M 
$GPGGA,223632.000,3101.4290,N,12126.2644,E,1,00,00015.532,M 
$GPGGA,223633.000,3101.4289,N,12126.2648,E,1,00,00015.931,M 
$GPGGA,223634.000,3101.4289,N,12126.2653,E,1,00,00014.974,M 
$GPGGA,223634.000,3101.4288,N,12126.2657,E,1,00,00014.974,M 
$GPGGA,223635.000,3101.4288,N,12126.2662,E,1,00,00016.014,M 
$GPGGA,223635.000,3101.4287,N,12126.2666,E,1,00,00016.014,M 
$GPGGA,223636.000,3101.4287,N,12126.2671,E,1,00,00014.404,M 
$GPGGA,223636.000,3101.4286,N,12126.2675,E,1,00,00014.404,M 
$GPGGA,223637.000,3101.4286,N,12126.2680,E,1,00,00014.506,M 
$GPGGA,223638.000,3101.4285,N,12126.2684,E,1,00,00015.928,M 
$GPGGA,223638.000,3101.4285,N,12126.2688,E,1,00,00015.928,M 
$GPGGA,223639.000,3101.4284,N,12126.2693,E,1,00,00015.192,M 
$GPGGA,223639.000,3101.4284,N,12126.2697,E,1,00,00015.192,M 
$GPGGA,223640.000,3101.4283,N,12126.2702,E,1,00,00014.994,M 
$GPGGA,223640.000,3101.4283,N,12126.2706,E,1,00,00014.994,M 
$GPGGA,223641.000,3101.4282,N,12126.2711,E,1,00,00014.947,M 
$GPGGA,223641.000,3101.4282,N,12126.2715,E,1,00,00014.947,M 
$GPGGA,223642.000,3101.4281,N,12126.2720,E,1,00,00013.920,M 
$GPGGA,223643.000,3101.4280,N,12126.2724,E,1,00,00013.273,M 
$GPGGA,223643.000,3101.4280,N,12126.2729,E,1,00,00013.273,M 
$GPGGA,223644.000,3101.4280,N,12126.2733,E,1,00,00013.474,M 
$GPGGA,223644.000,3101.4279,N,12126.2738,E,1,00,00013.474,M 
$GPGGA,223645.000,3101.4279,N,12126.2742,E,1,00,00013.224,M 
$GPGGA,223645.000,3101.4278,N,12126.2747,E,1,00,00013.224,M 
$GPGGA,223646.000,3101.4278,N,12126.2751,E,1,00,00014.049,M 
$GPGGA,223646.000,3101.4277,N,12126.2755,E,1,00,00014.049,M 
$GPGGA,223647.000,3101.4277,N,12126.2760,E,1,00,00014.879,M 
$GPGGA,223648.000,3101.4276,N,12126.2764,E,1,00,00013.196,M 
$GPGGA,223648.000,3101.4276,N,12126.2769,E,1,00,00013.196,M 
$GPGGA,223649.000,3101.4275,N,12126.2773,E,1,00,00012.556,M 
$GPGGA,223649.000,3101.4275,N,12126.2778,E,1,00,00012.556,M 
$GPGGA,223650.000,3101.4274,N,12126.2782,E,1,00,00013.521,M 
$GPGGA,223650.000,3101.4274,N,12126.2787,E,1,00,00013.521,M 
$GPGGA,223651.000,3101.4273,N,12126.2791,E,1,00,00013.761,M 
$GPGGA,223651.000,3101.4273,N,12126.2796,E,1,00,00013.761,M 
$GPGGA,223652.000,3101.4272,N,12126.2800,E,1,00,00014.433,M 
$GPGGA,223653.000,3101.4272,N,12126.2805,E,1,00,00014.668,M 
$GPGGA,223653.000,3101.4271,N,12126.2809,E,1,00,00014.668,M 
$GPGGA,223654.000,3101.4271,N,12126.2814,E,1,00,00014.150,M 
$GPGGA,223654.000,3101.4271,N,12126.2818,E,1,00,00014.150,M 
$GPGGA,223655.000,3101.4270,N,12126.2823,E,1,00,00015.655,M 
$GPGGA,223655.000,3101.4270,N,12126.2827,E,1,00,00015.655,M 
$GPGGA,223656.000,3101.4269,N,12126.2832,E,1,00,00014.173,M 
$GPGGA,223656.000,3101.4269,N,12126.2836,E,1,00,00014.173,M 
$GPGGA,223657.000,3101.4268,N,12126.2840,E,1,00,00014.087,M 
$GPGGA,223658.000,3101.4268,N,12126.2845,E,1,00,00012.857,M 
$GPGGA,223658.000,3101.4267,N,12126.2849,E,1,00,00012.857,M 
$GPGGA,223659.000,3101.4267,N,12126.2854,E,1,00,00012.069,M 
$GPGGA,223659.000,3101.4266,N,12126.2858,E,1,00,00012.069,M 
$GPGGA,223700.000,3101.4266,N,12126.2863,E,1,00,00012.512,M 
$GPGGA,223700.000,3101.4266,N,12126.2867,E,1,00,00012.512,M 
$GPGGA,223701.000,3101.4265,N,12126.2872,E,1,00,00014.248,M 
$GPGGA,223702.000,3101.4265,N,12126.2876,E,1,00,00013.286,M 
$GPGGA,223702.000,3101.4264,N,12126.2881,E,1,00,00013.286,M 
$GPGGA,223703.000,3101.4264,N,12126.2885,E,1,00,00011.887,M 
$GPGGA,223703.000,3101.4264,N,12126.2890,E,1,00,00011.887,M 
$GPGGA,223704.000,3101.4263,N,12126.2894,E,1,00,00011.642,M 
$GPGGA,223704.000,3101.4263,N,12126.2899,E,1,00,00011.642,M 
$GPGGA,223705.000,3101.4262,N,12126.2903,E,1,00,00011.316,M 
$GPGGA,223705.000,3101.4262,N,12126.2908,E,1,00,00011.316,M 
$GPGGA,223706.000,3101.4261,N,12126.2912,E,1,00,00010.828,M 
$GPGGA,223706.000,3101.4261,N,12126.2917,E,1,00,00010.828,M 
$GPGGA,223707.000,3101.4261,N,12126.2921,E,1,00,00014.876,M 
$GPGGA,223708.000,3101.4260,N,12126.2926,E,1,00,00014.027,M 
$GPGGA,223708.000,3101.4260,N,12126.2930,E,1,00,00014.027,M 
$GPGGA,223709.000,3101.4259,N,12126.2935,E,1,00,00013.680,M 
$GPGGA,223709.000,3101.4259,N,12126.2939,E,1,00,00013.680,M 
$GPGGA,223710.000,3101.4258,N,12126.2943,E,1,00,00013.894,M 
$GPGGA,223710.000,3101.4258,N,12126.2948,E,1,00,00013.894,M 
$GPGGA,223711.000,3101.4257,N,12126.2952,E,1,00,00012.828,M 
$GPGGA,223712.000,3101.4256,N,12126.2957,E,1,00,00013.032,M 
$GPGGA,223712.000,3101.4256,N,12126.2961,E,1,00,00013.032,M 
$GPGGA,223713.000,3101.4255,N,12126.2966,E,1,00,00013.373,M 
$GPGGA,223713.000,3101.4255,N,12126.2970,E,1,00,00013.373,M 
$GPGGA,223714.000,3101.4254,N,12126.2974,E,1,00,00012.035,M 
$GPGGA,223714.000,3101.4254,N,12126.2979,E,1,00,00012.035,M 
$GPGGA,223715.000,3101.4253,N,12126.2983,E,1,00,00011.784,M 
$GPGGA,223715.000,3101.4252,N,12126.2988,E,1,00,00011.784,M 
$GPGGA,223716.000,3101.4252,N,12126.2992,E,1,00,00011.197,M 
$GPGGA,223717.000,3101.4251,N,12126.2997,E,1,00,00011.106,M 
$GPGGA,223717.000,3101.4251,N,12126.3001,E,1,00,00011.106,M 
$GPGGA,223718.000,3101.4250,N,12126.3005,E,1,00,00012.158,M 
$GPGGA,223718.000,3101.4250,N,12126.3010,E,1,00,00012.158,M 
$GPGGA,223719.000,3101.4249,N,12126.3014,E,1,00,00011.653,M 
$GPGGA,223719.000,3101.4249,N,12126.3019,E,1,00,00011.653,M 
$GPGGA,223720.000,3101.4248,N,12126.3023,E,1,00,00010.988,M 
$GPGGA,223721.000,3101.4248,N,12126.3027,E,1,00,00010.262,M 
$GPGGA,223721.000,3101.4247,N,12126.3032,E,1,00,00010.262,M 
$GPGGA,223722.000,3101.4247,N,12126.3036,E,1,00,00009.606,M 
$GPGGA,223722.000,3101.4247,N,12126.3041,E,1,00,00009.606,M 
$GPGGA,223723.000,3101.4246,N,12126.3045,E,1,00,00010.242,M 
$GPGGA,223723.000,3101.4246,N,12126.3050,E,1,00,00010.242,M 
$GPGGA,223724.000,3101.4246,N,12126.3054,E,1,00,00010.716,M 
$GPGGA,223725.000,3101.4245,N,12126.3058,E,1,00,00009.924,M 
$GPGGA,223725.000,3101.4245,N,12126.3063,E,1,00,00009.924,M 
$GPGGA,223726.000,3101.4244,N,12126.3067,E,1,00,00013.037,M 
$GPGGA,223726.000,3101.4244,N,12126.3072,E,1,00,00013.037,M 
$GPGGA,223727.000,3101.4243,N,12126.3076,E,1,00,00011.167,M 
$GPGGA,223727.000,3101.4243,N,12126.3080,E,1,00,00011.167,M 
$GPGGA,223728.000,3101.4242,N,12126.3085,E,1,00,00012.615,M 
$GPGGA,223728.000,3101.4242,N,12126.3089,E,1,00,00012.615,M 
$GPGGA,223729.000,3101.4242,N,12126.3094,E,1,00,00012.061,M 
$GPGGA,223730.000,3101.4241,N,12126.3098,E,1,00,00012.714,M 
$GPGGA,223730.000,3101.4241,N,12126.3103,E,1,00,00012.714,M 
$GPGGA,223731.000,3101.4240,N,12126.3107,E,1,00,00011.858,M 
$GPGGA,223731.000,3101.4239,N,12126.3111,E,1,00,00011.858,M 
$GPGGA,223732.000,3101.4239,N,12126.3116,E,1,00,00010.877,M 
$GPGGA,223732.000,3101.4238,N,12126.3120,E,1,00,00010.877,M 
$GPGGA,223733.000,3101.4238,N,12126.3124,E,1,00,00010.119,M 
$GPGGA,223734.000,3101.4237,N,12126.3129,E,1,00,00009.251,M 
$GPGGA,223734.000,3101.4236,N,12126.3133,E,1,00,00009.251,M 
$GPGGA,223735.000,3101.4236,N,12126.3138,E,1,00,00008.963,M 
$GPGGA,223735.000,3101.4235,N,12126.3142,E,1,00,00008.963,M 
$GPGGA,223736.000,3101.4235,N,12126.3146,E,1,00,00010.163,M 
$GPGGA,223736.000,3101.4234,N,12126.3151,E,1,00,00010.163,M 
$GPGGA,223737.000,3101.4234,N,12126.3155,E,1,00,00008.776,M 
$GPGGA,223738.000,3101.4233,N,12126.3160,E,1,00,00009.200,M 
$GPGGA,223738.000,3101.4233,N,12126.3164,E,1,00,00009.200,M 
$GPGGA,223739.000,3101.4233,N,12126.3169,E,1,00,00009.007,M 
$GPGGA,223739.000,3101.4232,N,12126.3173,E,1,00,00009.007,M 
$GPGGA,223740.000,3101.4232,N,12126.3177,E,1,00,00008.504,M 
$GPGGA,223740.000,3101.4231,N,12126.3182,E,1,00,00008.504,M 
$GPGGA,223741.000,3101.4231,N,12126.3186,E,1,00,00010.072,M 
$GPGGA,223742.000,3101.4230,N,12126.3191,E,1,00,00009.954,M 
$GPGGA,223742.000,3101.4230,N,12126.3195,E,1,00,00009.954,M 
$GPGGA,223743.000,3101.4229,N,12126.3200,E,1,00,00010.258,M 
$GPGGA,223743.000,3101.4229,N,12126.3204,E,1,00,00010.258,M 
$GPGGA,223744.000,3101.4228,N,12126.3208,E,1,00,00010.261,M 
$GPGGA,223744.000,3101.4228,N,12126.3213,E,1,00,00010.261,M 
$GPGGA,223745.000,3101.4227,N,12126.3217,E,1,00,00010.452,M 
$GPGGA,223745.000,3101.4227,N,12126.3221,E,1,00,00010.452,M 
$GPGGA,223746.000,3101.4226,N,12126.3226,E,1,00,00010.028,M 
$GPGGA,223747.000,3101.4226,N,12126.3230,E,1,00,00008.800,M 
$GPGGA,223747.000,3101.4225,N,12126.3235,E,1,00,00008.800,M 
$GPGGA,223748.000,3101.4225,N,12126.3239,E,1,00,00007.136,M 
$GPGGA,223748.000,3101.4224,N,12126.3244,E,1,00,00007.136,M 
$GPGGA,223749.000,3101.4224,N,12126.3248,E,1,00,00007.361,M 
$GPGGA,223749.000,3101.4223,N,12126.3252,E,1,00,00007.361,M 
$GPGGA,223750.000,3101.4223,N,12126.3257,E,1,00,00005.850,M 
$GPGGA,223751.000,3101.4222,N,12126.3261,E,1,00,00005.485,M 
$GPGGA,223751.000,3101.4222,N,12126.3266,E,1,00,00005.485,M 
$GPGGA,223752.000,3101.4221,N,12126.3270,E,1,00,00006.022,M 
$GPGGA,223752.000,3101.4221,N,12126.3274,E,1,00,00006.022,M 
$GPGGA,223753.000,3101.4220,N,12126.3279,E,1,00,00006.041,M 
$GPGGA,223753.000,3101.4220,N,12126.3283,E,1,00,00006.041,M 
$GPGGA,223754.000,3101.4219,N,12126.3288,E,1,00,00007.023,M 
$GPGGA,223755.000,3101.4219,N,12126.3292,E,1,00,00009.193,M 
$GPGGA,223755.000,3101.4218,N,12126.3296,E,1,00,00009.193,M 
$GPGGA,223756.000,3101.4218,N,12126.3301,E,1,00,00010.002,M 
$GPGGA,223756.000,3101.4217,N,12126.3305,E,1,00,00010.002,M 
$GPGGA,223757.000,3101.4217,N,12126.3310,E,1,00,00008.214,M 
$GPGGA,223757.000,3101.4217,N,12126.3314,E,1,00,00008.215,M 
$GPGGA,223758.000,3101.4216,N,12126.3318,E,1,00,00010.471,M 
$GPGGA,223759.000,3101.4216,N,12126.3323,E,1,00,00010.296,M 
$GPGGA,223759.000,3101.4215,N,12126.3327,E,1,00,00010.296,M 
$GPGGA,223800.000,3101.4215,N,12126.3332,E,1,00,00010.058,M 
$GPGGA,223800.000,3101.4215,N,12126.3336,E,1,00,00010.058,M 
$GPGGA,223801.000,3101.4214,N,12126.3340,E,1,00,00009.670,M 
$GPGGA,223801.000,3101.4214,N,12126.3345,E,1,00,00009.670,M 
$GPGGA,223802.000,3101.4214,N,12126.3349,E,1,00,00009.754,M 
$GPGGA,223803.000,3101.4213,N,12126.3352,E,1,00,00011.073,M 
$GPGGA,223803.000,3101.4213,N,12126.3353,E,1,00,00011.073,M 
$GPGGA,223839.000,3101.4213,N,12126.3358,E,1,00,00000.488,M 
$GPGGA,223840.000,3101.4212,N,12126.3362,E,1,00,00002.753,M 
$GPGGA,223840.000,3101.4212,N,12126.3367,E,1,00,00002.753,M 
$GPGGA,223841.000,3101.4211,N,12126.3371,E,1,00,00004.717,M 
$GPGGA,223841.000,3101.4211,N,12126.3376,E,1,00,00004.717,M 
$GPGGA,223842.000,3101.4210,N,12126.3380,E,1,00,00004.495,M 
$GPGGA,223842.000,3101.4210,N,12126.3385,E,1,00,00004.495,M 
$GPGGA,223843.000,3101.4210,N,12126.3389,E,1,00,00007.131,M 
$GPGGA,223843.000,3101.4209,N,12126.3394,E,1,00,00007.131,M 
$GPGGA,223844.000,3101.4209,N,12126.3399,E,1,00,00007.853,M 
$GPGGA,223845.000,3101.4208,N,12126.3403,E,1,00,00009.185,M 
$GPGGA,223845.000,3101.4208,N,12126.3407,E,1,00,00009.185,M 
$GPGGA,223846.000,3101.4207,N,12126.3412,E,1,00,00008.934,M 
$GPGGA,223846.000,3101.4207,N,12126.3417,E,1,00,00008.934,M 
$GPGGA,223847.000,3101.4206,N,12126.3421,E,1,00,00010.174,M 
$GPGGA,223847.000,3101.4206,N,12126.3425,E,1,00,00010.174,M 
$GPGGA,223848.000,3101.4205,N,12126.3430,E,1,00,00010.921,M 
$GPGGA,223848.000,3101.4205,N,12126.3434,E,1,00,00010.921,M 
$GPGGA,223849.000,3101.4204,N,12126.3439,E,1,00,00010.887,M 
$GPGGA,223850.000,3101.4204,N,12126.3443,E,1,00,00011.232,M 
$GPGGA,223850.000,3101.4203,N,12126.3448,E,1,00,00011.232,M 
$GPGGA,223851.000,3101.4203,N,12126.3452,E,1,00,00011.264,M 
$GPGGA,223851.000,3101.4202,N,12126.3457,E,1,00,00011.264,M 
$GPGGA,223852.000,3101.4202,N,12126.3461,E,1,00,00011.085,M 
$GPGGA,223852.000,3101.4201,N,12126.3465,E,1,00,00011.085,M 
$GPGGA,223853.000,3101.4201,N,12126.3470,E,1,00,00010.792,M 
$GPGGA,223853.000,3101.4200,N,12126.3474,E,1,00,00010.792,M 
$GPGGA,223854.000,3101.4200,N,12126.3479,E,1,00,00010.600,M 
$GPGGA,223855.000,3101.4200,N,12126.3484,E,1,00,00011.251,M 
$GPGGA,223855.000,3101.4199,N,12126.3488,E,1,00,00011.251,M 
$GPGGA,223856.000,3101.4199,N,12126.3492,E,1,00,00010.418,M 
$GPGGA,223856.000,3101.4198,N,12126.3497,E,1,00,00010.418,M 
$GPGGA,223857.000,3101.4198,N,12126.3501,E,1,00,00010.677,M 
$GPGGA,223857.000,3101.4197,N,12126.3506,E,1,00,00010.677,M 
$GPGGA,223858.000,3101.4197,N,12126.3510,E,1,00,00011.321,M 
$GPGGA,223858.000,3101.4197,N,12126.3515,E,1,00,00011.321,M 
$GPGGA,223859.000,3101.4196,N,12126.3519,E,1,00,00011.968,M 
$GPGGA,223900.000,3101.4196,N,12126.3524,E,1,00,00011.718,M 
$GPGGA,223900.000,3101.4196,N,12126.3528,E,1,00,00011.718,M 
$GPGGA,223901.000,3101.4195,N,12126.3533,E,1,00,00012.403,M 
$GPGGA,223901.000,3101.4195,N,12126.3537,E,1,00,00012.403,M 
$GPGGA,223902.000,3101.4194,N,12126.3542,E,1,00,00011.414,M 
$GPGGA,223902.000,3101.4194,N,12126.3546,E,1,00,00011.414,M 
$GPGGA,223903.000,3101.4193,N,12126.3551,E,1,00,00010.459,M 
$GPGGA,223903.000,3101.4193,N,12126.3555,E,1,00,00010.459,M 
$GPGGA,223904.000,3101.4192,N,12126.3560,E,1,00,00009.263,M 
$GPGGA,223905.000,3101.4192,N,12126.3564,E,1,00,00010.592,M 
$GPGGA,223905.000,3101.4191,N,12126.3568,E,1,00,00010.592,M 
$GPGGA,223906.000,3101.4191,N,12126.3573,E,1,00,00009.693,M 
$GPGGA,223906.000,3101.4190,N,12126.3577,E,1,00,00009.693,M 
$GPGGA,223907.000,3101.4190,N,12126.3582,E,1,00,00009.079,M 
$GPGGA,223907.000,3101.4189,N,12126.3586,E,1,00,00009.079,M 
$GPGGA,223908.000,3101.4189,N,12126.3591,E,1,00,00008.846,M 
$GPGGA,223908.000,3101.4188,N,12126.3595,E,1,00,00008.846,M 
$GPGGA,223909.000,3101.4188,N,12126.3600,E,1,00,00009.327,M 
$GPGGA,223910.000,3101.4187,N,12126.3604,E,1,00,00008.707,M 
$GPGGA,223910.000,3101.4187,N,12126.3609,E,1,00,00008.707,M 
$GPGGA,223911.000,3101.4187,N,12126.3613,E,1,00,00007.954,M 
$GPGGA,223911.000,3101.4186,N,12126.3618,E,1,00,00007.954,M 
$GPGGA,223912.000,3101.4186,N,12126.3622,E,1,00,00007.850,M 
$GPGGA,223912.000,3101.4185,N,12126.3627,E,1,00,00007.850,M 
$GPGGA,223913.000,3101.4185,N,12126.3631,E,1,00,00008.571,M 
$GPGGA,223914.000,3101.4184,N,12126.3635,E,1,00,00008.898,M 
$GPGGA,223914.000,3101.4184,N,12126.3640,E,1,00,00008.898,M 
$GPGGA,223915.000,3101.4183,N,12126.3644,E,1,00,00008.996,M 
$GPGGA,223915.000,3101.4183,N,12126.3649,E,1,00,00008.996,M 
$GPGGA,223916.000,3101.4182,N,12126.3653,E,1,00,00009.610,M 
$GPGGA,223916.000,3101.4182,N,12126.3658,E,1,00,00009.610,M 
$GPGGA,223917.000,3101.4182,N,12126.3662,E,1,00,00009.045,M 
$GPGGA,223917.000,3101.4181,N,12126.3667,E,1,00,00009.045,M 
$GPGGA,223918.000,3101.4180,N,12126.3671,E,1,00,00009.257,M 
$GPGGA,223919.000,3101.4180,N,12126.3676,E,1,00,00010.328,M 
$GPGGA,223919.000,3101.4179,N,12126.3680,E,1,00,00010.328,M 
$GPGGA,223920.000,3101.4179,N,12126.3685,E,1,00,00012.150,M 
$GPGGA,223920.000,3101.4178,N,12126.3689,E,1,00,00012.150,M 
$GPGGA,223921.000,3101.4178,N,12126.3693,E,1,00,00012.670,M 
$GPGGA,223921.000,3101.4177,N,12126.3698,E,1,00,00012.670,M 
$GPGGA,223922.000,3101.4177,N,12126.3702,E,1,00,00012.480,M 
$GPGGA,223922.000,3101.4176,N,12126.3707,E,1,00,00012.480,M 
$GPGGA,223923.000,3101.4176,N,12126.3711,E,1,00,00011.264,M 
$GPGGA,223924.000,3101.4176,N,12126.3716,E,1,00,00011.763,M 
$GPGGA,223924.000,3101.4175,N,12126.3720,E,1,00,00011.763,M 
$GPGGA,223925.000,3101.4175,N,12126.3725,E,1,00,00012.135,M 
$GPGGA,223925.000,3101.4174,N,12126.3729,E,1,00,00012.135,M 
$GPGGA,223926.000,3101.4174,N,12126.3734,E,1,00,00011.980,M 
$GPGGA,223926.000,3101.4173,N,12126.3738,E,1,00,00011.980,M 
$GPGGA,223927.000,3101.4173,N,12126.3743,E,1,00,00012.195,M 
$GPGGA,223927.000,3101.4172,N,12126.3747,E,1,00,00012.195,M 
$GPGGA,223928.000,3101.4172,N,12126.3752,E,1,00,00013.469,M 
$GPGGA,223929.000,3101.4171,N,12126.3756,E,1,00,00014.164,M 
$GPGGA,223929.000,3101.4171,N,12126.3761,E,1,00,00014.164,M 
$GPGGA,223930.000,3101.4170,N,12126.3765,E,1,00,00013.560,M 
$GPGGA,223930.000,3101.4169,N,12126.3770,E,1,00,00013.560,M 
$GPGGA,223931.000,3101.4169,N,12126.3774,E,1,00,00014.164,M 
$GPGGA,223931.000,3101.4168,N,12126.3779,E,1,00,00014.164,M 
$GPGGA,223932.000,3101.4168,N,12126.3783,E,1,00,00012.110,M 
$GPGGA,223932.000,3101.4167,N,12126.3787,E,1,00,00012.110,M 
$GPGGA,223933.000,3101.4167,N,12126.3792,E,1,00,00011.842,M 
$GPGGA,223934.000,3101.4166,N,12126.3796,E,1,00,00012.364,M 
$GPGGA,223934.000,3101.4165,N,12126.3801,E,1,00,00012.365,M 
$GPGGA,223935.000,3101.4165,N,12126.3805,E,1,00,00012.402,M 
$GPGGA,223935.000,3101.4164,N,12126.3809,E,1,00,00012.402,M 
$GPGGA,223936.000,3101.4163,N,12126.3814,E,1,00,00013.147,M 
$GPGGA,223936.000,3101.4163,N,12126.3818,E,1,00,00013.147,M 
$GPGGA,223937.000,3101.4162,N,12126.3823,E,1,00,00013.474,M 
$GPGGA,223938.000,3101.4161,N,12126.3827,E,1,00,00013.590,M 
$GPGGA,223938.000,3101.4161,N,12126.3831,E,1,00,00013.590,M 
$GPGGA,223939.000,3101.4160,N,12126.3836,E,1,00,00012.977,M 
$GPGGA,223939.000,3101.4160,N,12126.3840,E,1,00,00012.977,M 
$GPGGA,223940.000,3101.4159,N,12126.3845,E,1,00,00013.036,M 
$GPGGA,223940.000,3101.4159,N,12126.3849,E,1,00,00013.036,M 
$GPGGA,223941.000,3101.4158,N,12126.3854,E,1,00,00013.135,M 
$GPGGA,223941.000,3101.4158,N,12126.3858,E,1,00,00013.135,M 
$GPGGA,223942.000,3101.4157,N,12126.3862,E,1,00,00011.719,M 
$GPGGA,223943.000,3101.4157,N,12126.3867,E,1,00,00010.695,M 
$GPGGA,223943.000,3101.4156,N,12126.3871,E,1,00,00010.695,M 
$GPGGA,223944.000,3101.4155,N,12126.3876,E,1,00,00011.026,M 
$GPGGA,223944.000,3101.4155,N,12126.3880,E,1,00,00011.026,M 
$GPGGA,223945.000,3101.4154,N,12126.3884,E,1,00,00011.272,M 
$GPGGA,223945.000,3101.4154,N,12126.3889,E,1,00,00011.272,M 
$GPGGA,223946.000,3101.4153,N,12126.3893,E,1,00,00011.531,M 
$GPGGA,223947.000,3101.4153,N,12126.3898,E,1,00,00012.023,M 
$GPGGA,223947.000,3101.4152,N,12126.3902,E,1,00,00012.024,M 
$GPGGA,223948.000,3101.4152,N,12126.3907,E,1,00,00013.123,M 
$GPGGA,223948.000,3101.4151,N,12126.3911,E,1,00,00013.123,M 
$GPGGA,223949.000,3101.4151,N,12126.3915,E,1,00,00013.658,M 
$GPGGA,223949.000,3101.4151,N,12126.3920,E,1,00,00013.658,M 
$GPGGA,223950.000,3101.4150,N,12126.3924,E,1,00,00014.435,M 
$GPGGA,223950.000,3101.4150,N,12126.3929,E,1,00,00014.435,M 
$GPGGA,223951.000,3101.4149,N,12126.3933,E,1,00,00015.126,M 
$GPGGA,223952.000,3101.4149,N,12126.3938,E,1,00,00016.807,M 
$GPGGA,223952.000,3101.4148,N,12126.3942,E,1,00,00016.807,M 
$GPGGA,223953.000,3101.4148,N,12126.3946,E,1,00,00018.352,M 
$GPGGA,223953.000,3101.4147,N,12126.3951,E,1,00,00018.353,M 
$GPGGA,223954.000,3101.4147,N,12126.3955,E,1,00,00018.149,M 
$GPGGA,223954.000,3101.4146,N,12126.3960,E,1,00,00018.149,M 
$GPGGA,223955.000,3101.4146,N,12126.3964,E,1,00,00018.006,M 
$GPGGA,223956.000,3101.4145,N,12126.3968,E,1,00,00018.721,M 
$GPGGA,223956.000,3101.4145,N,12126.3973,E,1,00,00018.721,M 
$GPGGA,223957.000,3101.4144,N,12126.3977,E,1,00,00018.611,M 
$GPGGA,223957.000,3101.4144,N,12126.3982,E,1,00,00018.611,M 
$GPGGA,223958.000,3101.4143,N,12126.3986,E,1,00,00019.260,M 
$GPGGA,223958.000,3101.4143,N,12126.3990,E,1,00,00019.260,M 
$GPGGA,223959.000,3101.4142,N,12126.3995,E,1,00,00018.092,M 
$GPGGA,224000.000,3101.4142,N,12126.3999,E,1,00,00017.047,M 
$GPGGA,224000.000,3101.4141,N,12126.4004,E,1,00,00017.047,M 
$GPGGA,224001.000,3101.4141,N,12126.4008,E,1,00,00018.151,M 
$GPGGA,224001.000,3101.4140,N,12126.4012,E,1,00,00018.151,M 
$GPGGA,224002.000,3101.4140,N,12126.4016,E,1,00,00018.985,M 
$GPGGA,224002.000,3101.4139,N,12126.4021,E,1,00,00018.985,M 
$GPGGA,224003.000,3101.4139,N,12126.4026,E,1,00,00018.989,M 
$GPGGA,224004.000,3101.4138,N,12126.4030,E,1,00,00017.161,M 
$GPGGA,224004.000,3101.4138,N,12126.4034,E,1,00,00017.161,M 
$GPGGA,224005.000,3101.4137,N,12126.4039,E,1,00,00017.438,M 
$GPGGA,224005.000,3101.4137,N,12126.4043,E,1,00,00017.438,M 
$GPGGA,224006.000,3101.4137,N,12126.4047,E,1,00,00017.222,M 
$GPGGA,224006.000,3101.4136,N,12126.4052,E,1,00,00017.222,M 
$GPGGA,224007.000,3101.4136,N,12126.4056,E,1,00,00017.331,M 
$GPGGA,224008.000,3101.4135,N,12126.4061,E,1,00,00016.130,M 
$GPGGA,224008.000,3101.4135,N,12126.4065,E,1,00,00016.130,M 
$GPGGA,224009.000,3101.4134,N,12126.4069,E,1,00,00016.370,M 
$GPGGA,224009.000,3101.4134,N,12126.4074,E,1,00,00016.370,M 
$GPGGA,224010.000,3101.4133,N,12126.4078,E,1,00,00017.172,M 
$GPGGA,224010.000,3101.4133,N,12126.4083,E,1,00,00017.172,M 
$GPGGA,224011.000,3101.4132,N,12126.4087,E,1,00,00017.491,M 
$GPGGA,224012.000,3101.4132,N,12126.4091,E,1,00,00018.404,M 
$GPGGA,224012.000,3101.4131,N,12126.4096,E,1,00,00018.404,M 
$GPGGA,224013.000,3101.4131,N,12126.4100,E,1,00,00017.584,M 
$GPGGA,224013.000,3101.4130,N,12126.4104,E,1,00,00017.584,M 
$GPGGA,224014.000,3101.4129,N,12126.4109,E,1,00,00016.241,M 
$GPGGA,224014.000,3101.4129,N,12126.4113,E,1,00,00016.241,M 
$GPGGA,224015.000,3101.4128,N,12126.4118,E,1,00,00017.061,M 
$GPGGA,224015.000,3101.4128,N,12126.4122,E,1,00,00017.061,M 
$GPGGA,224016.000,3101.4127,N,12126.4127,E,1,00,00017.935,M 
$GPGGA,224017.000,3101.4127,N,12126.4131,E,1,00,00017.824,M 
$GPGGA,224017.000,3101.4126,N,12126.4136,E,1,00,00017.824,M 
$GPGGA,224018.000,3101.4126,N,12126.4140,E,1,00,00018.801,M 
$GPGGA,224018.000,3101.4126,N,12126.4145,E,1,00,00018.801,M 
$GPGGA,224019.000,3101.4125,N,12126.4149,E,1,00,00019.378,M 
$GPGGA,224019.000,3101.4125,N,12126.4153,E,1,00,00019.378,M 
$GPGGA,224020.000,3101.4124,N,12126.4158,E,1,00,00018.807,M 
$GPGGA,224021.000,3101.4123,N,12126.4162,E,1,00,00018.909,M 
$GPGGA,224021.000,3101.4123,N,12126.4167,E,1,00,00018.909,M 
$GPGGA,224022.000,3101.4122,N,12126.4171,E,1,00,00019.525,M 
$GPGGA,224022.000,3101.4122,N,12126.4176,E,1,00,00019.525,M 
$GPGGA,224023.000,3101.4121,N,12126.4180,E,1,00,00018.105,M 
$GPGGA,224023.000,3101.4121,N,12126.4185,E,1,00,00018.105,M 
$GPGGA,224024.000,3101.4120,N,12126.4189,E,1,00,00017.344,M 
$GPGGA,224024.000,3101.4120,N,12126.4193,E,1,00,00017.344,M 
$GPGGA,224025.000,3101.4119,N,12126.4198,E,1,00,00016.969,M 
$GPGGA,224026.000,3101.4119,N,12126.4202,E,1,00,00018.543,M 
$GPGGA,224026.000,3101.4118,N,12126.4207,E,1,00,00018.543,M 
$GPGGA,224027.000,3101.4118,N,12126.4211,E,1,00,00018.238,M 
$GPGGA,224027.000,3101.4117,N,12126.4216,E,1,00,00018.238,M 
$GPGGA,224028.000,3101.4116,N,12126.4220,E,1,00,00017.371,M 
$GPGGA,224028.000,3101.4116,N,12126.4225,E,1,00,00017.371,M 
$GPGGA,224029.000,3101.4115,N,12126.4229,E,1,00,00017.545,M 
$GPGGA,224029.000,3101.4115,N,12126.4234,E,1,00,00017.545,M 
$GPGGA,224030.000,3101.4114,N,12126.4238,E,1,00,00016.935,M 
$GPGGA,224031.000,3101.4113,N,12126.4243,E,1,00,00017.037,M 
$GPGGA,224031.000,3101.4113,N,12126.4247,E,1,00,00017.037,M 
$GPGGA,224032.000,3101.4112,N,12126.4251,E,1,00,00017.574,M 
$GPGGA,224032.000,3101.4112,N,12126.4256,E,1,00,00017.574,M 
$GPGGA,224033.000,3101.4111,N,12126.4260,E,1,00,00018.904,M 
$GPGGA,224033.000,3101.4111,N,12126.4265,E,1,00,00018.904,M 
$GPGGA,224034.000,3101.4110,N,12126.4269,E,1,00,00018.161,M 
$GPGGA,224035.000,3101.4110,N,12126.4274,E,1,00,00017.017,M 
$GPGGA,224035.000,3101.4109,N,12126.4278,E,1,00,00017.017,M 
$GPGGA,224036.000,3101.4109,N,12126.4282,E,1,00,00019.260,M 
$GPGGA,224036.000,3101.4108,N,12126.4287,E,1,00,00019.260,M 
$GPGGA,224037.000,3101.4108,N,12126.4291,E,1,00,00018.635,M 
$GPGGA,224037.000,3101.4107,N,12126.4296,E,1,00,00018.635,M 
$GPGGA,224038.000,3101.4107,N,12126.4300,E,1,00,00019.146,M 
$GPGGA,224038.000,3101.4107,N,12126.4304,E,1,00,00019.146,M 
$GPGGA,224039.000,3101.4106,N,12126.4309,E,1,00,00018.472,M 
$GPGGA,224040.000,3101.4106,N,12126.4313,E,1,00,00018.345,M 
$GPGGA,224040.000,3101.4105,N,12126.4318,E,1,00,00018.345,M 
$GPGGA,224041.000,3101.4105,N,12126.4322,E,1,00,00017.168,M 
$GPGGA,224041.000,3101.4104,N,12126.4327,E,1,00,00017.168,M 
$GPGGA,224042.000,3101.4104,N,12126.4331,E,1,00,00017.880,M 
$GPGGA,224042.000,3101.4103,N,12126.4335,E,1,00,00017.880,M 
$GPGGA,224043.000,3101.4103,N,12126.4340,E,1,00,00017.670,M 
$GPGGA,224044.000,3101.4102,N,12126.4344,E,1,00,00018.962,M 
$GPGGA,224044.000,3101.4102,N,12126.4349,E,1,00,00018.962,M 
$GPGGA,224045.000,3101.4101,N,12126.4353,E,1,00,00017.015,M 
$GPGGA,224045.000,3101.4101,N,12126.4357,E,1,00,00017.015,M 
$GPGGA,224046.000,3101.4100,N,12126.4362,E,1,00,00017.253,M 
$GPGGA,224046.000,3101.4100,N,12126.4366,E,1,00,00017.253,M 
$GPGGA,224047.000,3101.4099,N,12126.4370,E,1,00,00017.927,M 
$GPGGA,224048.000,3101.4098,N,12126.4375,E,1,00,00018.258,M 
$GPGGA,224048.000,3101.4098,N,12126.4379,E,1,00,00018.259,M 
$GPGGA,224049.000,3101.4097,N,12126.4383,E,1,00,00020.006,M 
$GPGGA,224049.000,3101.4096,N,12126.4388,E,1,00,00020.006,M 
$GPGGA,224050.000,3101.4095,N,12126.4392,E,1,00,00019.189,M 
$GPGGA,224050.000,3101.4095,N,12126.4396,E,1,00,00019.189,M 
$GPGGA,224051.000,3101.4094,N,12126.4400,E,1,00,00016.634,M 
$GPGGA,224052.000,3101.4093,N,12126.4404,E,1,00,00017.694,M 
$GPGGA,224052.000,3101.4093,N,12126.4409,E,1,00,00017.694,M 
$GPGGA,224053.000,3101.4093,N,12126.4410,E,1,00,00017.192,M 
$GPGGA,224143.000,3101.4092,N,12126.4414,E,1,00,00013.050,M 
$GPGGA,224143.000,3101.4092,N,12126.4419,E,1,00,00013.050,M 
$GPGGA,224144.000,3101.4091,N,12126.4423,E,1,00,00016.129,M 
$GPGGA,224145.000,3101.4090,N,12126.4427,E,1,00,00014.836,M 
$GPGGA,224145.000,3101.4090,N,12126.4432,E,1,00,00014.836,M 
$GPGGA,224146.000,3101.4089,N,12126.4437,E,1,00,00012.606,M 
$GPGGA,224146.000,3101.4088,N,12126.4441,E,1,00,00012.606,M 
$GPGGA,224147.000,3101.4088,N,12126.4446,E,1,00,00013.094,M 
$GPGGA,224147.000,3101.4087,N,12126.4450,E,1,00,00013.094,M 
$GPGGA,224148.000,3101.4086,N,12126.4455,E,1,00,00012.077,M 
$GPGGA,224148.000,3101.4085,N,12126.4459,E,1,00,00012.077,M 
$GPGGA,224149.000,3101.4085,N,12126.4464,E,1,00,00011.722,M 
$GPGGA,224149.000,3101.4084,N,12126.4468,E,1,00,00011.722,M 
$GPGGA,224150.000,3101.4083,N,12126.4473,E,1,00,00013.618,M 
$GPGGA,224150.000,3101.4083,N,12126.4478,E,1,00,00013.618,M 
$GPGGA,224151.000,3101.4082,N,12126.4482,E,1,00,00012.596,M 
$GPGGA,224152.000,3101.4081,N,12126.4486,E,1,00,00014.471,M 
$GPGGA,224152.000,3101.4081,N,12126.4491,E,1,00,00014.471,M 
$GPGGA,224153.000,3101.4080,N,12126.4495,E,1,00,00014.514,M 
$GPGGA,224153.000,3101.4079,N,12126.4500,E,1,00,00014.514,M 
$GPGGA,224154.000,3101.4079,N,12126.4504,E,1,00,00015.777,M 
$GPGGA,224154.000,3101.4078,N,12126.4509,E,1,00,00015.777,M 
$GPGGA,224155.000,3101.4077,N,12126.4513,E,1,00,00016.380,M 
$GPGGA,224155.000,3101.4076,N,12126.4518,E,1,00,00016.380,M 
$GPGGA,224156.000,3101.4076,N,12126.4522,E,1,00,00018.483,M 
$GPGGA,224157.000,3101.4075,N,12126.4527,E,1,00,00020.131,M 
$GPGGA,224157.000,3101.4075,N,12126.4531,E,1,00,00020.131,M 
$GPGGA,224158.000,3101.4074,N,12126.4536,E,1,00,00021.085,M 
$GPGGA,224158.000,3101.4073,N,12126.4541,E,1,00,00021.085,M 
$GPGGA,224159.000,3101.4072,N,12126.4545,E,1,00,00021.062,M 
$GPGGA,224159.000,3101.4072,N,12126.4549,E,1,00,00021.062,M 
$GPGGA,224200.000,3101.4071,N,12126.4554,E,1,00,00021.518,M 
$GPGGA,224200.000,3101.4070,N,12126.4559,E,1,00,00021.518,M 
$GPGGA,224201.000,3101.4070,N,12126.4563,E,1,00,00022.520,M 
$GPGGA,224201.000,3101.4069,N,12126.4567,E,1,00,00022.520,M 
$GPGGA,224202.000,3101.4068,N,12126.4572,E,1,00,00021.589,M 
$GPGGA,224202.000,3101.4067,N,12126.4576,E,1,00,00021.589,M 
$GPGGA,224203.000,3101.4067,N,12126.4581,E,1,00,00021.897,M 
$GPGGA,224204.000,3101.4066,N,12126.4585,E,1,00,00021.074,M 
$GPGGA,224204.000,3101.4065,N,12126.4590,E,1,00,00021.074,M 
$GPGGA,224205.000,3101.4065,N,12126.4594,E,1,00,00021.104,M 
$GPGGA,224205.000,3101.4064,N,12126.4599,E,1,00,00021.104,M 
$GPGGA,224206.000,3101.4063,N,12126.4603,E,1,00,00021.426,M 
$GPGGA,224206.000,3101.4062,N,12126.4607,E,1,00,00021.426,M 
$GPGGA,224207.000,3101.4062,N,12126.4612,E,1,00,00020.312,M 
$GPGGA,224207.000,3101.4061,N,12126.4616,E,1,00,00020.312,M 
$GPGGA,224208.000,3101.4060,N,12126.4621,E,1,00,00021.613,M 
$GPGGA,224209.000,3101.4059,N,12126.4626,E,1,00,00020.656,M 
$GPGGA,224209.000,3101.4059,N,12126.4630,E,1,00,00020.656,M 
$GPGGA,224210.000,3101.4058,N,12126.4634,E,1,00,00020.513,M 
$GPGGA,224210.000,3101.4057,N,12126.4639,E,1,00,00020.513,M 
$GPGGA,224211.000,3101.4056,N,12126.4643,E,1,00,00019.848,M 
$GPGGA,224211.000,3101.4056,N,12126.4648,E,1,00,00019.848,M 
$GPGGA,224212.000,3101.4055,N,12126.4652,E,1,00,00021.651,M 
$GPGGA,224212.000,3101.4054,N,12126.4657,E,1,00,00021.651,M 
$GPGGA,224213.000,3101.4054,N,12126.4661,E,1,00,00021.820,M 
$GPGGA,224214.000,3101.4053,N,12126.4666,E,1,00,00021.655,M 
$GPGGA,224214.000,3101.4052,N,12126.4670,E,1,00,00021.655,M 
$GPGGA,224215.000,3101.4051,N,12126.4675,E,1,00,00021.056,M 
$GPGGA,224215.000,3101.4050,N,12126.4679,E,1,00,00021.056,M 
$GPGGA,224216.000,3101.4050,N,12126.4683,E,1,00,00019.413,M 
$GPGGA,224216.000,3101.4049,N,12126.4688,E,1,00,00019.413,M 
$GPGGA,224217.000,3101.4048,N,12126.4692,E,1,00,00018.399,M 
$GPGGA,224217.000,3101.4048,N,12126.4697,E,1,00,00018.399,M 
$GPGGA,224218.000,3101.4047,N,12126.4701,E,1,00,00017.385,M 
$GPGGA,224219.000,3101.4046,N,12126.4706,E,1,00,00016.318,M 
$GPGGA,224219.000,3101.4046,N,12126.4710,E,1,00,00016.318,M 
$GPGGA,224220.000,3101.4045,N,12126.4714,E,1,00,00015.448,M 
$GPGGA,224220.000,3101.4044,N,12126.4719,E,1,00,00015.448,M 
$GPGGA,224221.000,3101.4044,N,12126.4723,E,1,00,00016.121,M 
$GPGGA,224221.000,3101.4043,N,12126.4727,E,1,00,00016.121,M 
$GPGGA,224222.000,3101.4043,N,12126.4732,E,1,00,00015.735,M 
$GPGGA,224222.000,3101.4042,N,12126.4736,E,1,00,00015.735,M 
$GPGGA,224223.000,3101.4041,N,12126.4741,E,1,00,00017.365,M 
$GPGGA,224224.000,3101.4041,N,12126.4745,E,1,00,00018.099,M 
$GPGGA,224224.000,3101.4040,N,12126.4750,E,1,00,00018.099,M 
$GPGGA,224225.000,3101.4039,N,12126.4754,E,1,00,00017.662,M 
$GPGGA,224225.000,3101.4039,N,12126.4759,E,1,00,00017.662,M 
$GPGGA,224226.000,3101.4038,N,12126.4763,E,1,00,00018.086,M 
$GPGGA,224226.000,3101.4038,N,12126.4768,E,1,00,00018.086,M 
$GPGGA,224227.000,3101.4037,N,12126.4772,E,1,00,00018.664,M 
$GPGGA,224227.000,3101.4037,N,12126.4777,E,1,00,00018.664,M 
$GPGGA,224228.000,3101.4036,N,12126.4781,E,1,00,00018.817,M 
$GPGGA,224229.000,3101.4036,N,12126.4786,E,1,00,00018.589,M 
$GPGGA,224229.000,3101.4035,N,12126.4790,E,1,00,00018.589,M 
$GPGGA,224230.000,3101.4035,N,12126.4795,E,1,00,00018.944,M 
$GPGGA,224230.000,3101.4034,N,12126.4799,E,1,00,00018.944,M 
$GPGGA,224231.000,3101.4034,N,12126.4804,E,1,00,00017.171,M 
$GPGGA,224231.000,3101.4033,N,12126.4808,E,1,00,00017.171,M 
$GPGGA,224232.000,3101.4033,N,12126.4813,E,1,00,00016.070,M 
$GPGGA,224232.000,3101.4032,N,12126.4817,E,1,00,00016.070,M 
$GPGGA,224233.000,3101.4032,N,12126.4822,E,1,00,00016.286,M 
$GPGGA,224234.000,3101.4031,N,12126.4826,E,1,00,00017.622,M 
$GPGGA,224234.000,3101.4030,N,12126.4831,E,1,00,00017.622,M 
$GPGGA,224235.000,3101.4030,N,12126.4835,E,1,00,00016.599,M 
$GPGGA,224235.000,3101.4029,N,12126.4840,E,1,00,00016.599,M 
$GPGGA,224236.000,3101.4028,N,12126.4844,E,1,00,00017.027,M 
$GPGGA,224236.000,3101.4028,N,12126.4848,E,1,00,00017.027,M 
$GPGGA,224237.000,3101.4027,N,12126.4853,E,1,00,00019.139,M 
$GPGGA,224237.000,3101.4027,N,12126.4857,E,1,00,00019.139,M 
$GPGGA,224238.000,3101.4026,N,12126.4862,E,1,00,00019.848,M 
$GPGGA,224239.000,3101.4025,N,12126.4866,E,1,00,00018.334,M 
$GPGGA,224239.000,3101.4025,N,12126.4871,E,1,00,00018.334,M 
$GPGGA,224240.000,3101.4024,N,12126.4875,E,1,00,00018.568,M 
$GPGGA,224240.000,3101.4023,N,12126.4879,E,1,00,00018.568,M 
$GPGGA,224241.000,3101.4023,N,12126.4884,E,1,00,00018.707,M 
$GPGGA,224241.000,3101.4022,N,12126.4888,E,1,00,00018.707,M 
$GPGGA,224242.000,3101.4022,N,12126.4893,E,1,00,00019.765,M 
$GPGGA,224242.000,3101.4021,N,12126.4897,E,1,00,00019.765,M 
$GPGGA,224243.000,3101.4020,N,12126.4902,E,1,00,00019.631,M 
$GPGGA,224244.000,3101.4020,N,12126.4906,E,1,00,00021.465,M 
$GPGGA,224244.000,3101.4019,N,12126.4910,E,1,00,00021.465,M 
$GPGGA,224245.000,3101.4019,N,12126.4915,E,1,00,00020.770,M 
$GPGGA,224245.000,3101.4018,N,12126.4919,E,1,00,00020.770,M 
$GPGGA,224246.000,3101.4018,N,12126.4924,E,1,00,00020.965,M 
$GPGGA,224246.000,3101.4017,N,12126.4928,E,1,00,00020.965,M 
$GPGGA,224247.000,3101.4016,N,12126.4932,E,1,00,00021.151,M 
$GPGGA,224248.000,3101.4016,N,12126.4937,E,1,00,00020.362,M 
$GPGGA,224248.000,3101.4015,N,12126.4941,E,1,00,00020.362,M 
$GPGGA,224249.000,3101.4015,N,12126.4946,E,1,00,00019.498,M 
$GPGGA,224249.000,3101.4014,N,12126.4950,E,1,00,00019.498,M 
$GPGGA,224250.000,3101.4013,N,12126.4955,E,1,00,00019.861,M 
$GPGGA,224250.000,3101.4013,N,12126.4959,E,1,00,00019.861,M 
$GPGGA,224251.000,3101.4012,N,12126.4964,E,1,00,00020.543,M 
$GPGGA,224251.000,3101.4011,N,12126.4968,E,1,00,00020.543,M 
$GPGGA,224252.000,3101.4011,N,12126.4973,E,1,00,00019.910,M 
$GPGGA,224253.000,3101.4010,N,12126.4977,E,1,00,00018.941,M 
$GPGGA,224253.000,3101.4009,N,12126.4982,E,1,00,00018.941,M 
$GPGGA,224254.000,3101.4009,N,12126.4986,E,1,00,00019.271,M 
$GPGGA,224254.000,3101.4008,N,12126.4990,E,1,00,00019.272,M 
$GPGGA,224255.000,3101.4007,N,12126.4995,E,1,00,00018.778,M 
$GPGGA,224255.000,3101.4006,N,12126.4999,E,1,00,00018.778,M 
$GPGGA,224256.000,3101.4006,N,12126.5004,E,1,00,00018.214,M 
$GPGGA,224256.000,3101.4005,N,12126.5008,E,1,00,00018.214,M 
$GPGGA,224257.000,3101.4005,N,12126.5009,E,1,00,00018.129,M 
$GPGGA,224324.000,3101.4004,N,12126.5014,E,1,00,00014.373,M 
$GPGGA,224324.000,3101.4003,N,12126.5018,E,1,00,00014.373,M 
$GPGGA,224325.000,3101.4002,N,12126.5022,E,1,00,00014.662,M 
$GPGGA,224325.000,3101.4002,N,12126.5026,E,1,00,00014.662,M 
$GPGGA,224326.000,3101.4001,N,12126.5031,E,1,00,00012.669,M 
$GPGGA,224326.000,3101.4000,N,12126.5036,E,1,00,00012.669,M 
$GPGGA,224327.000,3101.3999,N,12126.5040,E,1,00,00013.765,M 
$GPGGA,224328.000,3101.3999,N,12126.5044,E,1,00,00012.589,M 
$GPGGA,224328.000,3101.3998,N,12126.5049,E,1,00,00012.589,M 
$GPGGA,224329.000,3101.3997,N,12126.5053,E,1,00,00012.132,M 
$GPGGA,224329.000,3101.3996,N,12126.5058,E,1,00,00012.132,M 
$GPGGA,224330.000,3101.3995,N,12126.5062,E,1,00,00013.262,M 
$GPGGA,224330.000,3101.3995,N,12126.5067,E,1,00,00013.262,M 
$GPGGA,224331.000,3101.3994,N,12126.5071,E,1,00,00013.527,M 
$GPGGA,224331.000,3101.3993,N,12126.5076,E,1,00,00013.527,M 
$GPGGA,224332.000,3101.3993,N,12126.5080,E,1,00,00013.542,M 
$GPGGA,224332.000,3101.3992,N,12126.5085,E,1,00,00013.543,M 
$GPGGA,224333.000,3101.3991,N,12126.5089,E,1,00,00013.986,M 
$GPGGA,224334.000,3101.3991,N,12126.5094,E,1,00,00014.368,M 
$GPGGA,224334.000,3101.3990,N,12126.5098,E,1,00,00014.368,M 
$GPGGA,224335.000,3101.3989,N,12126.5103,E,1,00,00014.648,M 
$GPGGA,224335.000,3101.3989,N,12126.5107,E,1,00,00014.648,M 
$GPGGA,224336.000,3101.3988,N,12126.5112,E,1,00,00016.495,M 
$GPGGA,224336.000,3101.3987,N,12126.5117,E,1,00,00016.495,M 
$GPGGA,224337.000,3101.3987,N,12126.5121,E,1,00,00016.604,M 
$GPGGA,224337.000,3101.3986,N,12126.5125,E,1,00,00016.604,M 
$GPGGA,224338.000,3101.3985,N,12126.5130,E,1,00,00017.220,M 
$GPGGA,224338.000,3101.3984,N,12126.5134,E,1,00,00017.220,M 
$GPGGA,224339.000,3101.3984,N,12126.5139,E,1,00,00017.847,M 
$GPGGA,224340.000,3101.3983,N,12126.5143,E,1,00,00017.916,M 
$GPGGA,224340.000,3101.3982,N,12126.5147,E,1,00,00017.916,M 
$GPGGA,224341.000,3101.3981,N,12126.5152,E,1,00,00018.673,M 
$GPGGA,224341.000,3101.3980,N,12126.5157,E,1,00,00018.673,M 
$GPGGA,224342.000,3101.3980,N,12126.5161,E,1,00,00018.805,M 
$GPGGA,224342.000,3101.3979,N,12126.5165,E,1,00,00018.805,M 
$GPGGA,224343.000,3101.3978,N,12126.5170,E,1,00,00016.376,M 
$GPGGA,224343.000,3101.3977,N,12126.5174,E,1,00,00016.376,M 
$GPGGA,224344.000,3101.3977,N,12126.5179,E,1,00,00017.180,M 
$GPGGA,224345.000,3101.3976,N,12126.5183,E,1,00,00018.553,M 
$GPGGA,224345.000,3101.3975,N,12126.5188,E,1,00,00018.553,M 
$GPGGA,224346.000,3101.3974,N,12126.5192,E,1,00,00018.264,M 
$GPGGA,224346.000,3101.3973,N,12126.5197,E,1,00,00018.264,M 
$GPGGA,224347.000,3101.3972,N,12126.5201,E,1,00,00017.001,M 
$GPGGA,224347.000,3101.3972,N,12126.5205,E,1,00,00017.001,M 
$GPGGA,224348.000,3101.3971,N,12126.5210,E,1,00,00016.622,M 
$GPGGA,224348.000,3101.3970,N,12126.5214,E,1,00,00016.622,M 
$GPGGA,224349.000,3101.3969,N,12126.5219,E,1,00,00015.787,M 
$GPGGA,224349.000,3101.3968,N,12126.5223,E,1,00,00015.787,M 
$GPGGA,224350.000,3101.3967,N,12126.5227,E,1,00,00015.549,M 
$GPGGA,224351.000,3101.3967,N,12126.5232,E,1,00,00014.801,M 
$GPGGA,224351.000,3101.3966,N,12126.5236,E,1,00,00014.801,M 
$GPGGA,224352.000,3101.3965,N,12126.5241,E,1,00,00014.743,M 
$GPGGA,224352.000,3101.3964,N,12126.5245,E,1,00,00014.743,M 
$GPGGA,224353.000,3101.3964,N,12126.5250,E,1,00,00015.625,M 
$GPGGA,224353.000,3101.3963,N,12126.5254,E,1,00,00015.625,M 
$GPGGA,224354.000,3101.3962,N,12126.5258,E,1,00,00016.462,M 
$GPGGA,224354.000,3101.3961,N,12126.5263,E,1,00,00016.462,M 
$GPGGA,224355.000,3101.3960,N,12126.5267,E,1,00,00017.467,M 
$GPGGA,224356.000,3101.3960,N,12126.5272,E,1,00,00017.066,M 
$GPGGA,224356.000,3101.3959,N,12126.5276,E,1,00,00017.066,M 
$GPGGA,224357.000,3101.3958,N,12126.5280,E,1,00,00017.986,M 
$GPGGA,224357.000,3101.3957,N,12126.5285,E,1,00,00017.986,M 
$GPGGA,224358.000,3101.3956,N,12126.5289,E,1,00,00017.790,M 
$GPGGA,224358.000,3101.3956,N,12126.5294,E,1,00,00017.790,M 
$GPGGA,224359.000,3101.3955,N,12126.5298,E,1,00,00019.298,M 
$GPGGA,224359.000,3101.3954,N,12126.5303,E,1,00,00019.298,M 
$GPGGA,224400.000,3101.3953,N,12126.5307,E,1,00,00019.088,M 
$GPGGA,224401.000,3101.3952,N,12126.5311,E,1,00,00018.579,M 
$GPGGA,224401.000,3101.3951,N,12126.5316,E,1,00,00018.579,M 
$GPGGA,224402.000,3101.3950,N,12126.5320,E,1,00,00018.105,M 
$GPGGA,224402.000,3101.3949,N,12126.5324,E,1,00,00018.105,M 
$GPGGA,224403.000,3101.3948,N,12126.5329,E,1,00,00017.517,M 
$GPGGA,224403.000,3101.3947,N,12126.5333,E,1,00,00017.517,M 
$GPGGA,224404.000,3101.3946,N,12126.5338,E,1,00,00019.241,M 
$GPGGA,224404.000,3101.3946,N,12126.5342,E,1,00,00019.241,M 
$GPGGA,224405.000,3101.3945,N,12126.5347,E,1,00,00020.943,M 
$GPGGA,224406.000,3101.3944,N,12126.5351,E,1,00,00020.270,M 
$GPGGA,224406.000,3101.3943,N,12126.5355,E,1,00,00020.270,M 
$GPGGA,224407.000,3101.3942,N,12126.5360,E,1,00,00020.019,M 
$GPGGA,224407.000,3101.3941,N,12126.5364,E,1,00,00020.019,M 
$GPGGA,224408.000,3101.3940,N,12126.5368,E,1,00,00020.177,M 
$GPGGA,224408.000,3101.3939,N,12126.5373,E,1,00,00020.177,M 
$GPGGA,224409.000,3101.3938,N,12126.5377,E,1,00,00021.765,M 
$GPGGA,224410.000,3101.3937,N,12126.5381,E,1,00,00019.006,M 
$GPGGA,224410.000,3101.3936,N,12126.5386,E,1,00,00019.006,M 
$GPGGA,224411.000,3101.3935,N,12126.5390,E,1,00,00017.582,M 
$GPGGA,224411.000,3101.3934,N,12126.5394,E,1,00,00017.582,M 
$GPGGA,224412.000,3101.3934,N,12126.5399,E,1,00,00017.041,M 
$GPGGA,224412.000,3101.3933,N,12126.5403,E,1,00,00017.041,M 
$GPGGA,224413.000,3101.3932,N,12126.5407,E,1,00,00016.364,M 
$GPGGA,224413.000,3101.3930,N,12126.5412,E,1,00,00016.364,M 
$GPGGA,224414.000,3101.3930,N,12126.5416,E,1,00,00016.195,M 
$GPGGA,224415.000,3101.3929,N,12126.5420,E,1,00,00015.331,M 
$GPGGA,224415.000,3101.3928,N,12126.5425,E,1,00,00015.331,M 
$GPGGA,224416.000,3101.3927,N,12126.5429,E,1,00,00015.097,M 
$GPGGA,224416.000,3101.3926,N,12126.5433,E,1,00,00015.097,M 
$GPGGA,224417.000,3101.3925,N,12126.5438,E,1,00,00014.825,M 
$GPGGA,224417.000,3101.3924,N,12126.5442,E,1,00,00014.825,M 
$GPGGA,224418.000,3101.3923,N,12126.5446,E,1,00,00017.132,M 
$GPGGA,224418.000,3101.3922,N,12126.5451,E,1,00,00017.132,M 
$GPGGA,224419.000,3101.3921,N,12126.5455,E,1,00,00014.709,M 
$GPGGA,224420.000,3101.3920,N,12126.5459,E,1,00,00015.232,M 
$GPGGA,224420.000,3101.3919,N,12126.5464,E,1,00,00015.232,M 
$GPGGA,224421.000,3101.3918,N,12126.5468,E,1,00,00015.153,M 
$GPGGA,224421.000,3101.3917,N,12126.5472,E,1,00,00015.153,M 
$GPGGA,224422.000,3101.3916,N,12126.5477,E,1,00,00013.260,M 
$GPGGA,224422.000,3101.3914,N,12126.5481,E,1,00,00013.260,M 
$GPGGA,224423.000,3101.3913,N,12126.5485,E,1,00,00014.357,M 
$GPGGA,224424.000,3101.3912,N,12126.5490,E,1,00,00013.694,M 
$GPGGA,224424.000,3101.3911,N,12126.5494,E,1,00,00013.694,M 
$GPGGA,224425.000,3101.3910,N,12126.5498,E,1,00,00015.553,M 
$GPGGA,224425.000,3101.3909,N,12126.5503,E,1,00,00015.553,M 
$GPGGA,224426.000,3101.3908,N,12126.5507,E,1,00,00015.706,M 
$GPGGA,224426.000,3101.3907,N,12126.5511,E,1,00,00015.707,M 
$GPGGA,224427.000,3101.3906,N,12126.5516,E,1,00,00015.790,M 
$GPGGA,224427.000,3101.3904,N,12126.5520,E,1,00,00015.790,M 
$GPGGA,224428.000,3101.3903,N,12126.5525,E,1,00,00015.720,M 
$GPGGA,224428.000,3101.3903,N,12126.5529,E,1,00,00015.720,M 
$GPGGA,224429.000,3101.3901,N,12126.5533,E,1,00,00016.020,M 
$GPGGA,224430.000,3101.3900,N,12126.5538,E,1,00,00014.293,M 
$GPGGA,224430.000,3101.3899,N,12126.5542,E,1,00,00014.293,M 
$GPGGA,224431.000,3101.3898,N,12126.5547,E,1,00,00015.986,M 
$GPGGA,224431.000,3101.3897,N,12126.5551,E,1,00,00015.986,M 
$GPGGA,224432.000,3101.3896,N,12126.5555,E,1,00,00015.551,M 
$GPGGA,224432.000,3101.3895,N,12126.5560,E,1,00,00015.551,M 
$GPGGA,224433.000,3101.3894,N,12126.5564,E,1,00,00016.570,M 
$GPGGA,224433.000,3101.3893,N,12126.5568,E,1,00,00016.570,M 
$GPGGA,224434.000,3101.3892,N,12126.5573,E,1,00,00016.776,M 
$GPGGA,224435.000,3101.3891,N,12126.5577,E,1,00,00015.601,M 
$GPGGA,224435.000,3101.3890,N,12126.5581,E,1,00,00015.601,M 
$GPGGA,224436.000,3101.3889,N,12126.5586,E,1,00,00014.617,M 
$GPGGA,224436.000,3101.3888,N,12126.5590,E,1,00,00014.617,M 
$GPGGA,224437.000,3101.3887,N,12126.5594,E,1,00,00013.030,M 
$GPGGA,224437.000,3101.3886,N,12126.5599,E,1,00,00013.030,M 
$GPGGA,224438.000,3101.3885,N,12126.5603,E,1,00,00013.797,M 
$GPGGA,224438.000,3101.3884,N,12126.5608,E,1,00,00013.797,M 
$GPGGA,224439.000,3101.3883,N,12126.5612,E,1,00,00014.494,M 
$GPGGA,224440.000,3101.3882,N,12126.5616,E,1,00,00015.490,M 
$GPGGA,224440.000,3101.3881,N,12126.5621,E,1,00,00015.490,M 
$GPGGA,224441.000,3101.3880,N,12126.5625,E,1,00,00015.910,M 
$GPGGA,224441.000,3101.3879,N,12126.5629,E,1,00,00015.911,M 
$GPGGA,224442.000,3101.3878,N,12126.5634,E,1,00,00015.418,M 
$GPGGA,224442.000,3101.3877,N,12126.5638,E,1,00,00015.418,M 
$GPGGA,224443.000,3101.3876,N,12126.5642,E,1,00,00014.782,M 
$GPGGA,224443.000,3101.3875,N,12126.5647,E,1,00,00014.782,M 
$GPGGA,224444.000,3101.3874,N,12126.5651,E,1,00,00015.196,M 
$GPGGA,224445.000,3101.3873,N,12126.5655,E,1,00,00015.479,M 
$GPGGA,224445.000,3101.3871,N,12126.5660,E,1,00,00015.479,M 
$GPGGA,224446.000,3101.3870,N,12126.5664,E,1,00,00014.838,M 
$GPGGA,224446.000,3101.3869,N,12126.5668,E,1,00,00014.838,M 
$GPGGA,224447.000,3101.3868,N,12126.5673,E,1,00,00015.947,M 
$GPGGA,224447.000,3101.3867,N,12126.5677,E,1,00,00015.947,M 
$GPGGA,224448.000,3101.3866,N,12126.5681,E,1,00,00014.613,M 
$GPGGA,224448.000,3101.3865,N,12126.5685,E,1,00,00014.613,M 
$GPGGA,224449.000,3101.3864,N,12126.5690,E,1,00,00013.387,M 
$GPGGA,224450.000,3101.3863,N,12126.5694,E,1,00,00013.031,M 
$GPGGA,224450.000,3101.3862,N,12126.5698,E,1,00,00013.031,M 
$GPGGA,224451.000,3101.3861,N,12126.5702,E,1,00,00012.930,M 
$GPGGA,224451.000,3101.3860,N,12126.5707,E,1,00,00012.930,M 
$GPGGA,224452.000,3101.3859,N,12126.5711,E,1,00,00013.227,M 
$GPGGA,224452.000,3101.3858,N,12126.5715,E,1,00,00013.227,M 
$GPGGA,224453.000,3101.3857,N,12126.5719,E,1,00,00014.567,M 
$GPGGA,224454.000,3101.3857,N,12126.5723,E,1,00,00014.717,M 
$GPGGA,224454.000,3101.3856,N,12126.5726,E,1,00,00014.717,M 
